"avg_OSD.flyTime [s]" "avg_CUSTOM.hSpeed [m/s]" "avg_CUSTOM.distance [m]" "avg_CALC.hSpeed [m/s]" "avg_CALC.distance [m]" avg_OSD.latitude avg_OSD.longitude "avg_OSD.height [m]" "avg_OSD.altitude [m]" "avg_OSD.xSpeed [m/s]" "avg_OSD.ySpeed [m/s]" "avg_OSD.zSpeed [m/s]" avg_OSD.pitch avg_OSD.roll avg_OSD.yaw "stdDev_OSD.flyTime [s]" "stdDev_CUSTOM.hSpeed [m/s]" "stdDev_CUSTOM.distance [m]" "stdDev_CALC.hSpeed [m/s]" "stdDev_CALC.distance [m]" stdDev_OSD.latitude stdDev_OSD.longitude "stdDev_OSD.height [m]" "stdDev_OSD.altitude [m]" "stdDev_OSD.xSpeed [m/s]" "stdDev_OSD.ySpeed [m/s]" "stdDev_OSD.zSpeed [m/s]" stdDev_OSD.pitch stdDev_OSD.roll stdDev_OSD.yaw
122.45000000000002 0.0 0.019 0.048 0.16899999999999998 48.074634 11.649009000000001 0.0 433.2 0.0 0.0 0.0 2.3999999999999995 -0.27999999999999997 -112.61000000000001 0.2872281323269024 0.0 0.017578395831246946 0.04894895300208167 0.11085576214162256 0.0 1.7763568394002505e-15 0.0 0.0 0.0 0.0 0.0 4.440892098500626e-16 0.039999999999999994 0.20223748416156764
123.45000000000002 0.0 0.08099999999999999 0.051000000000000004 0.26 48.07463310000001 11.649009000000001 0.0 433.2 0.0 0.0 0.0 2.43 -0.29 -111.87 0.2872281323269024 0.0 0.015132745950421555 0.053 0.007745966692414841 3.000000013742011e-07 1.7763568394002505e-15 0.0 0.0 0.0 0.0 0.0 0.15524174696260024 0.08306623862918075 0.23685438564654085
124.45000000000002 0.07999999999999999 0.17700000000000002 0.183 0.30100000000000005 48.0746328 11.6490091 0.0 433.2 -0.07999999999999999 0.0 -0.09 1.49 -0.09999999999999983 -110.53000000000002 0.2872281323269024 0.08717797887081347 0.060174745533321534 0.141 0.04011234224026315 3.999999989900971e-07 3.000000003083869e-07 0.0 0.0 0.08717797887081347 0.0 0.09433981132056604 0.8836854644046149 3.582457257246763 0.2865309756378878
125.45000000000002 0.0 0.37100000000000005 0.123 0.223 48.074632 11.649009800000002 0.17 433.37 0.0 0.0 -0.32999999999999996 1.05 0.12 -110.4 0.2872281323269024 0.0 0.043462627624201465 0.11550324670761422 0.122804723036209 0.0 4.0000000041118254e-07 0.1268857754044952 0.1268857754044994 0.0 0.0 0.09 0.4006245124802026 0.9927738916792685 0.04472135954999643
126.45000000000002 0.0 0.54 0.129 0.11299999999999999 48.0746327 11.6490103 0.65 433.85 0.0 0.0 -0.4600000000000001 0.9400000000000001 0.24000000000000005 -110.43000000000002 0.2872281323269024 0.0 0.06033241251599344 0.13743725841270263 0.022825424421026655 4.582575683385948e-07 4.5825756915262385e-07 0.15000000000000002 0.15000000000000002 0.0 0.0 0.04898979485566355 0.22891046284519195 0.4127953488110059 0.0458257569495558
127.45000000000002 0.312 0.7809999999999999 0.31499999999999995 0.14700000000000002 48.074634 11.649009999999999 0.9899999999999999 434.18999999999994 -0.08 -0.3 -0.14 -4.15 0.38 -111.06000000000002 0.2872281323269024 0.19620397549489152 0.10044401425669926 0.18537799222129903 0.02491987158875423 0.0 1.1832159564850515e-06 0.05385164807134506 0.053851648071338284 0.060000000000000005 0.18973665961010275 0.16248076809271922 0.598748695196908 0.39698866482558415 0.28354893757515703
128.45 0.899 1.3960000000000001 0.627 0.569 48.074634 11.649001799999999 1.0 434.2 -0.22999999999999998 -0.8799999999999999 0.0 -4.459999999999999 0.009999999999999992 -111.2 0.2872281323269034 0.15782585339544342 0.2591601821268074 0.3475068344651656 0.2525648431591381 0.0 3.5999999999900307e-06 0.0 0.0 0.04582575694955839 0.16613247725836153 0.0 0.49638694583963433 0.33 0.0
129.45 1.468 2.5840000000000005 1.189 1.7530000000000001 48.0746319 11.6489857 1.0 434.2 -0.45999999999999996 -1.42 0.0 -4.39 0.15 -111.3 0.2872281323269034 0.13029197979921867 0.3624693090456073 0.46263268367031746 0.42398231095176603 1.0440306513857828e-06 5.640035461076092e-06 0.0 0.0 0.09165151389911678 0.14000000000000004 0.0 0.2981610303175115 0.2729468812791236 0.0
130.45 1.906 4.372 1.6780000000000002 3.47 48.074627500000005 11.6489632 0.9 434.1 -0.6599999999999999 -1.7899999999999998 0.0 -3.7800000000000002 0.45999999999999996 -111.22999999999999 0.2872281323269034 0.10081666528902848 0.5547035244164218 0.5623842103046635 0.5512712580935089 1.5000000000024253e-06 7.110555534176853e-06 0.0 0.0 0.04898979485566356 0.09433981132056601 0.0 0.15999999999999992 0.32 0.04582575694955579
131.45 1.1010000000000002 6.003 0.565 5.117 48.07462339999999 11.648942 0.9 434.1 -0.37 -1.0 0.0 11.9 0.5 -111.18000000000002 0.2872281323269034 0.6410530399272747 0.31962634434601916 0.503711226795671 0.2730952214887694 6.633249563963454e-07 3.4641016149553326e-06 0.0 0.0 0.2368543856465402 0.6180614856144977 0.0 3.664150651924672 0.1341640786499874 0.04000000000000341
132.45 0.29400000000000004 6.551 0.16199999999999998 5.1209999999999996 48.07462339999999 11.648942 0.9 434.1 0.06999999999999999 0.29 0.0 2.85 0.68 -111.24000000000001 0.2872281323269034 0.17884071124886525 0.16349006085998025 0.1698705389406886 0.1531959529491558 4.898979473197623e-07 2.0493901529583154e-06 0.0 0.0 0.06403124237432849 0.157797338380595 0.0 5.731186613608041 0.15362291495737218 0.048989794855660775
133.45 0.030000000000000006 6.952000000000001 0.16499999999999998 4.906000000000001 48.0746231 11.648945 0.9099999999999999 434.11 0.0 0.030000000000000006 -0.18 0.13 0.6500000000000001 -111.23000000000002 0.2872281323269034 0.045825756949558406 0.04874423042781574 0.1344804818551748 0.01854723699099131 2.9999999924257285e-07 0.0 0.029999999999999995 0.029999999999989767 0.0 0.045825756949558406 0.3280243893371345 1.0890821823902914 0.3956008088970497 0.04582575694955579
134.45 0.0 7.072 0.068 4.966000000000001 48.0746227 11.6489443 1.81 435.01000000000005 0.0 0.0 -1.2899999999999998 1.2 0.66 -111.26999999999998 0.2872281323269034 0.0 0.04261455150532509 0.0744043009509531 0.020099751242241864 4.5825757159471073e-07 4.5825756915262385e-07 0.4414748010928823 0.44147480109288223 0.0 0.0 0.57 0.30983866769659335 0.440908153700972 0.04582575694955579
135.45 0.0 7.212000000000001 0.098 4.9719999999999995 48.0746222 11.6489441 2.35 435.55 0.0 0.0 0.0 1.0799999999999998 0.42000000000000004 -111.25 0.2872281323269034 0.0 0.03399999999999998 0.07678541528180986 0.0074833147735480325 4.00000001832268e-07 2.999999997754799e-07 0.050000000000000044 0.05000000000001137 0.0 0.0 0.0 0.36 0.7025667228100119 0.049999999999997165
136.45 0.0 7.309 0.086 4.95 48.07462199999999 11.648945 2.3 435.5 0.0 0.0 0.0 2.23 1.3000000000000003 -111.17 0.2872281323269034 0.0 0.0333016516106935 0.08321057625085888 0.01897366596101015 7.105427357601002e-15 0.0 0.0 0.0 0.0 0.0 0.0 1.1287603820120549 0.2569046515733026 0.045825756949562306
137.45 0.409 7.616 0.532 4.667 48.0746233 11.648948099999998 2.3 435.5 0.17 0.37 0.0 5.289999999999999 0.5599999999999999 -111.22 0.2872281323269034 0.17523983565388324 0.17327434893832383 0.20038962048968506 0.1698263819316657 6.403124235692372e-07 2.211334438653029e-06 0.0 0.0 0.06403124237432849 0.16763054614240208 0.0 0.29816103031751134 0.21540659228538014 0.039999999999997725
138.45 0.63 8.387 0.639 3.8939999999999997 48.074625600000005 11.648958 2.3 435.5 0.22000000000000003 0.5900000000000001 0.0 -1.6199999999999999 0.4699999999999999 -111.24000000000001 0.2872281323269034 0.23095454098155332 0.2335401464416773 0.31452980780841744 0.22123290894439732 4.898979508006965e-07 2.7928480086989405e-06 0.0 0.0 0.10770329614269007 0.2118962010041709 0.0 5.151659926664414 0.4450842616853577 0.04898979485566078
139.45 0.06000000000000001 8.751999999999999 0.097 3.6380000000000003 48.07462569999999 11.648961899999998 2.2300000000000004 435.42999999999995 -0.04 0.02 0.0 0.06999999999999998 -0.97 -111.3 0.2872281323269034 0.06633249580710801 0.03627671429443437 0.07294518489934755 0.007483314773547878 4.5825757159471084e-07 2.999999997754799e-07 0.04582575694955823 0.04582575694956882 0.066332495807108 0.04 0.0 1.067754653466797 1.584960567332828 0.0
140.45 0.5210000000000001 9.103 0.591 3.6159999999999997 48.074622899999994 11.6489631 2.3 435.5 -0.5 0.13999999999999999 0.0 1.2399999999999998 -3.05 -111.22 0.2872281323269034 0.15016324450410629 0.18406792224610993 0.16021547990128793 0.009165151389911775 1.5779733827938522e-06 9.433981134787467e-07 0.0 0.0 0.1414213562373095 0.06633249580710801 0.0 0.06633249580710801 0.21095023109728991 0.039999999999997725
141.45 1.004 9.972 0.9400000000000001 3.7400000000000007 48.0746154 11.648966699999999 2.3 435.5 -0.95 0.32999999999999996 0.0 1.04 -2.95 -111.28 0.2872281323269034 0.12737346662472523 0.30918602814486945 0.33478351213881485 0.09284395510748127 2.7276363396481858e-06 1.2688577538653193e-06 0.0 0.0 0.12041594578792297 0.04582575694955841 0.0 0.2576819745345025 0.24999999999999992 0.05999999999999942
142.45 0.8940000000000001 11.117999999999999 0.45100000000000007 4.234 48.07460510000001 11.648970700000001 2.3 435.5 -0.8400000000000001 0.22999999999999998 0.0 1.2699999999999998 6.01 -111.16000000000001 0.2872281323269034 0.3746251459792842 0.31118483253526386 0.4522930465970045 0.15409088227406573 2.467792534975468e-06 7.810249676884636e-07 0.0 0.0 0.3469870314579494 0.16155494421403513 0.0 0.2830194339616981 5.356388708822391 0.06633249580711023
143.45 0.16 11.59 0.23600000000000004 4.4399999999999995 48.0746022 11.6489711 2.3 435.5 0.029999999999999992 -0.04 0.0 1.6199999999999999 5.64 -111.18000000000002 0.2872281323269034 0.11593101396951551 0.06371812928829622 0.1232233744059949 0.017888543819998284 4.00000001832268e-07 3.000000003083869e-07 0.0 0.0 0.17916472867168917 0.066332495807108 0.0 0.09797958971132711 1.6971741218861427 0.04000000000000341
144.45 0.8210000000000001 12.174 0.808 4.192 48.074607 11.6489687 2.3 435.5 0.76 -0.30999999999999994 0.0 1.64 6.890000000000001 -111.23000000000002 0.2872281323269034 0.21874414277872675 0.2880000000000003 0.33617852400175713 0.12278436382536656 2.3237900070555158e-06 1.0999999998065587e-06 0.0 0.0 0.21071307505705478 0.07 0.0 0.13564659966250536 0.3534119409414458 0.04582575694955579
145.45 1.399 13.482 1.3080000000000003 3.809 48.0746183 11.648963499999999 2.2699999999999996 435.46999999999997 1.3199999999999998 -0.49000000000000005 0.0 1.7099999999999997 2.88 -111.14000000000001 0.2872281323269034 0.12794139283281236 0.46831186190400964 0.5169874273132761 0.06905794668247818 4.0012498044132375e-06 1.8574175622407521e-06 0.04582575694955823 0.04582575694956882 0.12489995996796795 0.05385164807134503 0.0 0.27730849247724093 7.029053990402976 0.16852299546352653
146.45 0.38100000000000006 14.622 0.4410000000000001 3.711 48.0746277 11.64896 2.2 435.4 0.36000000000000004 -0.07999999999999999 0.0 1.13 -4.65 -111.25 0.2872281323269034 0.2992473892952118 0.11025425161870166 0.40731928508235404 0.017000000000000022 6.403124221266513e-07 0.0 0.0 0.0 0.2835489375751565 0.09797958971132713 0.0 0.11874342087037913 4.29563732174866 0.12041594578792437
147.45 0.02 14.815999999999997 0.14200000000000002 3.732 48.074628000000004 11.6489597 2.2 435.4 0.0 -0.02 0.0 -0.02999999999999998 0.32 -111.11000000000001 0.2872281323269034 0.04 0.039293765408777194 0.08133879763065102 0.02088061301782103 7.105427357601002e-15 4.582575699666528e-07 0.0 0.0 0.0 0.04 0.0 1.5126466871017832 0.5827520913733386 0.07000000000000149
148.45 0.488 15.184000000000001 0.5 4.063000000000001 48.0746264 11.6489556 2.2 435.4 -0.18000000000000002 -0.45 0.0 -1.7899999999999998 0.27999999999999997 -111.33 0.2872281323269034 0.1710438540258024 0.193969069699269 0.2569046515733026 0.18585209172887987 9.165151388479337e-07 2.2449944320616647e-06 0.0 0.0 0.09797958971132713 0.15 0.0 0.24677925358506136 0.34871191548325386 0.06403124237433107
149.45 0.9430000000000002 16.071 0.9969999999999999 4.914999999999999 48.074622899999994 11.6489449 2.3 435.5 -0.41000000000000003 -0.85 0.0 -1.2899999999999998 1.2100000000000002 -111.28999999999999 0.2872281323269034 0.099 0.30101328874320427 0.1049809506529637 0.29689223634174067 1.299999999778615e-06 3.5902646141979486e-06 0.0 0.0 0.029999999999999992 0.10246950765959599 0.0 0.08306623862918072 0.2947880594596735 0.029999999999998295
150.45 1.2420000000000002 17.235999999999997 1.1030000000000002 6.08 48.074619 11.648930199999999 2.3 435.5 -0.48 -1.15 0.0 -1.35 1.1999999999999997 -111.28 0.2872281323269034 0.08506468127254692 0.3825493432225438 0.38189134580401274 0.3678314831549905 1.1832159566351811e-06 4.64327470680993e-06 0.0 0.0 0.039999999999999994 0.08062257748298547 0.0 0.13601470508735442 0.24899799195977462 0.039999999999997725
151.45 0.8239999999999998 18.448 0.7820000000000001 7.257 48.0746156 11.6489152 2.3 435.5 -0.25999999999999995 -0.76 0.0 8.239999999999998 1.42 -111.2 0.2872281323269034 0.47381853066337537 0.23794116919944736 0.5190337175945317 0.2181306947680678 8.000000004670937e-07 2.7856776552267857e-06 0.0 0.0 0.19595917942265426 0.45431266766402195 0.0 5.038293361843869 0.285657137141714 0.06324555320336848
152.45 0.173 18.805 0.275 7.361 48.0746155 11.648913799999999 2.3 435.5 0.06000000000000001 0.13999999999999999 0.0 6.26 0.57 -111.19000000000001 0.2872281323269034 0.1912093093967969 0.08913472948295727 0.20402205763103165 0.07816009211867643 4.999999987376214e-07 9.79795896996407e-07 0.0 0.0 0.08 0.19078784028338913 0.0 1.4941218156495808 0.19000000000000003 0.03000000000000256
153.45 0.961 19.516000000000002 0.9450000000000001 6.661 48.0746166 11.6489231 2.24 435.43999999999994 0.27999999999999997 0.9299999999999999 0.0 6.519999999999999 0.57 -111.15 0.2872281323269034 0.21073443002983636 0.3330525484064042 0.36881567211820054 0.313319325928038 4.898979508006965e-07 4.2059481688937714e-06 0.04898979485566339 0.0489897948556747 0.039999999999999994 0.19519221295943134 0.0 0.3091924966748061 0.574543296888929 0.05000000000000426
154.45 1.558 20.84 0.889 5.294 48.0746189 11.6489413 2.3 435.5 0.45 1.49 0.0 5.84 1.5 -111.16000000000001 0.2872281323269034 0.13702554506368508 0.43758427759689916 0.6829853585546326 0.4621947641416982 8.306623870173832e-07 6.116371473232669e-06 0.0 0.0 0.04999999999999999 0.13000000000000003 0.0 0.17435595774162685 0.2569046515733026 0.04898979485566774
155.45 1.9409999999999996 22.701 1.8839999999999997 3.507 48.0746225 11.6489649 2.3 435.5 0.59 1.8499999999999996 0.0 5.2700000000000005 1.55 -111.21000000000001 0.2872281323269034 0.06670082458260916 0.5653574090785402 0.10326664514740466 0.5626197650278562 1.0246950771292377e-06 7.40877857685513e-06 0.0 0.0 0.05385164807134503 0.06708203932499365 0.0 0.513906606301184 0.9124143795447329 0.05385164807134488
156.45 1.2469999999999999 24.488 1.226 1.7369999999999997 48.0746266 11.6489879 2.3 435.5 0.37 1.19 0.0 -7.9799999999999995 1.23 -111.31000000000002 0.2872281323269034 0.6433824678991494 0.3529815859219853 0.6864430056457711 0.3397955267510154 6.633249581102391e-07 4.504442251542712e-06 0.0 0.0 0.23259406699226012 0.6040695324215583 0.0 6.196256934634006 0.6034069936618236 0.10440306508910582
157.45 0.030000000000000006 24.944 0.14600000000000002 1.418 48.0746271 11.6489921 2.3099999999999996 435.51000000000005 0.0 0.030000000000000006 0.0 -0.030000000000000047 0.74 -111.28 0.2872281323269034 0.06403124237432849 0.04586937976471859 0.08151073548925933 0.01536229149573723 2.999999992425728e-07 3.000000003083869e-07 0.03000000000000003 0.030000000000006823 0.0 0.06403124237432849 0.0 1.3660527076214886 0.34698703145794946 0.07483314773547912
158.45 0.0 25.143 0.11399999999999999 1.355 48.0746279 11.648992800000002 2.32 435.52 0.0 0.0 0.0 1.0799999999999998 0.79 -111.24000000000001 0.2872281323269034 0.0 0.04124318125460234 0.10901376059929314 0.021095023109728914 2.9999999924257285e-07 4.0000000041118254e-07 0.040000000000000036 0.0400000000000091 0.0 0.0 0.0 0.4377213725647858 0.29816103031751146 0.04898979485566078
159.45 0.0 25.245 0.06300000000000001 1.3090000000000002 48.074628000000004 11.648993 2.3 435.5 0.0 0.0 0.0 0.93 0.5800000000000001 -111.18000000000002 0.2872281323269034 0.0 0.020124611797497985 0.05657738063926254 0.008306623862918082 7.105427357601002e-15 0.0 0.0 0.0 0.0 0.0 0.0 1.121650569473399 0.30265491900843117 0.04000000000000341
160.45 0.0 25.298000000000002 0.053000000000000005 1.3130000000000002 48.074628600000004 11.648993 2.3 435.5 0.0 0.0 0.0 1.1700000000000002 0.8700000000000001 -111.28 0.2872281323269034 0.0 0.01777638883463072 0.03163858403911275 0.004582575694955844 4.898979508006965e-07 0.0 0.0 0.0 0.0 0.0 0.0 0.27586228448267447 0.2193171219946131 0.039999999999997725
161.45 0.0 25.361999999999995 0.036 1.3130000000000002 48.07462820000001 11.648993 2.3 435.5 0.0 0.0 0.0 0.9700000000000001 0.7100000000000001 -111.28 0.2872281323269034 0.0 0.021354156504062766 0.03720215047547655 0.004582575694955844 4.000000018322681e-07 0.0 0.0 0.0 0.0 0.0 0.0 0.04582575694955839 0.16401219466856726 0.039999999999997725
162.45 0.030000000000000006 25.472 0.11900000000000002 1.291 48.074628000000004 11.6489935 2.3 435.5 0.0 0.030000000000000006 0.0 1.6600000000000001 0.7100000000000001 -111.24000000000001 0.2872281323269034 0.045825756949558406 0.044226688774991856 0.0926768579527813 0.030479501308256367 7.105427357601002e-15 4.999999996257998e-07 0.0 0.0 0.0 0.045825756949558406 0.0 2.017027515925353 0.34770677301427416 0.04898979485566078
163.45 0.02 25.617 0.148 1.2440000000000002 48.0746273 11.6489945 2.3 435.5 0.0 0.02 0.0 1.67 0.6100000000000001 -111.2 0.2872281323269034 0.04 0.05040833264451498 0.08818163074019442 0.01743559577416271 4.582575683385948e-07 4.999999996257998e-07 0.0 0.0 0.0 0.04 0.0 1.6456305782282972 0.439203825119955 0.04472135954999643
164.45 0.313 25.853999999999996 0.325 1.122 48.07462700000001 11.6489975 2.3 435.5 0.030000000000000006 0.33 0.0 5.83 1.4300000000000002 -111.15 0.2872281323269034 0.20606067067735173 0.1375645303121411 0.2665426795093048 0.10027960909377337 7.105427357601002e-15 1.8574175620494807e-06 0.0 0.0 0.045825756949558406 0.19519221295943134 0.0 0.49000000000000005 0.48176757881783616 0.0806225774829871
165.45 0.275 26.371000000000002 0.25999999999999995 0.748 48.07462700000001 11.649004200000002 2.3 435.5 0.04 0.25999999999999995 0.0 -2.4899999999999993 1.3399999999999999 -111.31000000000002 0.2872281323269034 0.2616199533674754 0.0932148056909411 0.22952124084711634 0.05287721626560915 7.105427357601002e-15 1.077032961775363e-06 0.0 0.0 0.048989794855663564 0.24576411454889013 0.0 2.143571785595248 0.8052328855678957 0.1135781669160049
166.45 0.11600000000000002 26.534 0.172 0.697 48.0746273 11.649005 2.3 435.5 0.11000000000000001 -0.030000000000000006 0.0 1.05 3.88 -111.25999999999999 0.2872281323269034 0.12986146464598342 0.05141984052872958 0.14688771221582833 0.03377869150810906 4.5825756833859485e-07 0.0 0.0 0.0 0.12206555615733702 0.045825756949558406 0.0 0.3721558813185679 1.766238941932829 0.04898979485566078
167.45 0.404 26.894 0.306 0.513 48.0746306 11.649003499999997 2.3 435.5 0.39 -0.14000000000000004 0.0 1.1400000000000001 0.7900000000000003 -111.2 0.2872281323269034 0.11808471535300409 0.14636939570825583 0.20977130404323657 0.043370496884402886 1.1135528724345156e-06 4.999999996257998e-07 0.0 0.0 0.12206555615733704 0.04898979485566357 0.0 0.22449944320643647 4.503432024578588 0.04472135954999643
168.45 0.1 27.259999999999998 0.29500000000000004 0.502 48.0746311 11.649002999999999 2.2800000000000002 435.48 -0.1 0.0 0.0 1.3900000000000001 0.010000000000000186 -111.17999999999999 0.2872281323269034 0.0632455532033676 0.10198039027185575 0.1457566465036844 0.028213471959331795 8.306623872740012e-07 1.7763568394002505e-15 0.039999999999999855 0.0400000000000091 0.0632455532033676 0.0 0.0 0.17 3.3735589516117837 0.04000000000000341
169.45 0.02 27.482 0.11500000000000002 0.602 48.074629200000004 11.649002999999999 2.3 435.5 -0.02 0.0 0.0 1.64 2.6999999999999997 -111.14000000000001 0.2872281323269034 0.04 0.03155946767611849 0.06407027391856539 0.02227105745132009 3.999999989900971e-07 1.7763568394002505e-15 0.0 0.0 0.04 0.0 0.0 0.11135528725660045 0.23237900077244492 0.048989794855667734
170.45 0.0 27.558999999999997 0.035 0.663 48.074629 11.649002999999999 2.3 435.5 0.0 0.0 0.0 1.6800000000000002 1.98 -111.22 0.2872281323269034 0.0 0.020223748416156036 0.04104875150354759 0.012688577540449532 0.0 1.7763568394002505e-15 0.0 0.0 0.0 0.0 0.0 0.09797958971132711 0.2181742422927143 0.05999999999999943
171.45 0.05 27.641000000000002 0.09 0.6779999999999999 48.074629 11.649002999999999 2.3 435.5 0.05 0.0 0.0 1.5099999999999998 1.54 -111.21000000000001 0.2872281323269034 0.05000000000000001 0.029816103031751185 0.03714835124201342 0.008717797887081309 0.0 1.7763568394002505e-15 0.0 0.0 0.05000000000000001 0.0 0.0 0.17578395831246948 0.42473521163190603 0.029999999999998295
172.45 0.02 27.725 0.089 0.6679999999999999 48.074629 11.649002099999999 2.3 435.5 0.01 -0.01 0.0 -0.10999999999999996 0.4600000000000001 -111.23000000000002 0.2872281323269034 0.04 0.02376972864800918 0.05166236541235796 0.013999999999999986 0.0 3.000000003083869e-07 0.0 0.0 0.03 0.030000000000000002 0.0 1.5358710883404245 0.4386342439892262 0.04582575694955579
173.45 0.395 28.018 0.387 0.952 48.074627500000005 11.648999499999999 2.3 435.5 -0.2 -0.35000000000000003 0.0 -2.54 0.9099999999999999 -111.30999999999999 0.2872281323269034 0.17522842235208305 0.17662389419328317 0.26347865188663766 0.17045820602130013 1.0246950760891096e-06 1.962141686833832e-06 0.0 0.0 0.09999999999999999 0.15 0.0 0.31685959035509714 0.5262128846769148 0.0700000000000015
174.45 0.8300000000000001 28.798000000000002 0.787 1.72 48.0746238 11.6489905 2.3 435.5 -0.43 -0.7099999999999999 0.0 0.41 2.0100000000000002 -111.25999999999999 0.2872281323269034 0.0996995486449161 0.27352513595646044 0.27092618921027184 0.26366645596283195 1.2489995998258177e-06 2.8722813231911988e-06 0.0 0.0 0.06403124237432849 0.08306623862918078 0.0 4.54410607270561 0.9802550688468793 0.16248076809271908
175.45 0.177 29.424 0.25599999999999995 2.245 48.07462199999999 11.648984100000002 2.3 435.5 -0.06999999999999999 -0.15999999999999998 0.0 4.6899999999999995 2.2 -111.12 0.2872281323269034 0.1991004771465905 0.05953150426454814 0.19422667170087632 0.02109502310972894 7.105427357601002e-15 2.999999997754799e-07 0.0 0.0 0.10049875621120889 0.17435595774162696 0.0 2.6242903802742563 0.6434283176858164 0.08717797887081503
176.45 0.0 29.547000000000004 0.10300000000000001 2.21 48.07462199999999 11.6489842 2.3 435.5 0.0 0.0 -0.01 0.99 0.41999999999999993 -111.71 0.2872281323269034 0.0 0.03287856444554679 0.06309516621738943 0.009999999999999964 7.105427357601002e-15 3.9999999970063985e-07 0.0 0.0 0.0 0.0 0.030000000000000002 0.2022374841615668 0.45563142999578066 0.5107837115648837
177.45 0.0 29.690999999999995 0.169 2.241 48.0746213 11.6489848 2.54 435.73999999999995 0.0 0.0 -0.43999999999999995 1.2100000000000002 1.6099999999999999 -112.72999999999999 0.2872281323269034 0.0 0.048259714048054896 0.13931618714277247 0.023853720883753055 4.582575683385948e-07 3.999999997006398e-07 0.15620499351813322 0.15620499351812275 0.0 0.0 0.2009975124224178 0.3080584360149873 0.5262128846769148 0.0458257569495558
178.45 0.0 29.847 0.101 2.286 48.0746209 11.6489847 2.7199999999999998 435.91999999999996 0.0 0.0 0.0 1.21 0.8400000000000001 -112.75 0.2872281323269034 0.0 0.036619666847200895 0.10329085148259742 0.02615339366124404 2.999999992425728e-07 4.5825756915262385e-07 0.039999999999999855 0.0400000000000091 0.0 0.0 0.0 0.26248809496813374 0.17435595774162696 0.049999999999997165
179.45 0.0 29.957000000000004 0.063 2.3649999999999998 48.074619999999996 11.648984 2.7 435.9 0.0 0.0 0.0 1.65 1.6300000000000001 -112.71000000000001 0.2872281323269034 0.0 0.02147091055358311 0.05692978130996113 0.011180339887498988 7.105427357601002e-15 0.0 0.0 0.0 0.0 0.0 0.0 0.23345235059857503 0.17916472867168917 0.029999999999998295
180.45 0.0 30.022000000000002 0.05800000000000001 2.3579999999999997 48.074619999999996 11.648984 2.7 435.9 0.0 0.0 0.0 1.08 1.42 -101.16 0.2872281323269034 0.0 0.022271057451320537 0.03893584466786357 0.003999999999999914 7.105427357601002e-15 0.0 0.0 0.0 0.0 0.0 0.0 0.15362291495737213 0.285657137141714 10.07950395604863
181.45 0.06 30.097999999999995 0.086 2.3339999999999996 48.0746209 11.648984 2.6100000000000003 435.81000000000006 0.06 0.0 0.0 0.76 0.9700000000000001 -56.52 0.2872281323269034 0.048989794855663564 0.03249615361854394 0.04363484845854285 0.02289104628451916 2.999999992425728e-07 0.0 0.03000000000000003 0.02999999999998977 0.048989794855663564 0.0 0.0 0.11135528725660047 0.6261788881781308 13.814832608468336
182.39999999999998 0.011111111111111112 30.25111111111111 0.15333333333333335 2.2755555555555556 48.074621 11.648984666666667 2.6 435.8 0.011111111111111112 0.0 0.0 0.6777777777777777 -0.13333333333333333 -10.966666666666667 0.2581988897471623 0.03142696805273545 0.046054181724583115 0.14809906594348707 0.00684934889218771 0.0 4.7140452043823233e-07 0.0 0.0 0.03142696805273545 0.0 0.0 0.09162456945817024 0.14142135623730953 12.337656899824122
183.45 0.04 30.45 0.197 2.309 48.0746195 11.648985900000003 2.6000000000000005 435.8 0.04 0.0 0.0 0.72 -0.6699999999999999 39.4 0.2872281323269034 0.048989794855663564 0.06899275324264144 0.17470260444538313 0.01972308292331607 5.00000002290335e-07 3.000000003083869e-07 4.440892098500626e-16 0.0 0.048989794855663564 0.0 0.0 0.24413111231467408 0.17916472867168917 13.776574320200215
184.45 0.1 30.633 0.137 2.402 48.074618099999995 11.6489857 2.6000000000000005 435.8 0.1 0.0 0.0 1.6200000000000003 -0.43 87.47 0.2872281323269034 0.0 0.04382921400162265 0.13431678971744374 0.03155946767611899 2.9999999924257285e-07 4.582575699666528e-07 4.440892098500626e-16 0.0 0.0 0.0 0.0 0.19390719429665315 0.3551056180912941 13.816587856630886
185.45 0.1 30.808999999999997 0.13799999999999998 2.541 48.074618 11.648983900000001 2.6000000000000005 435.8 0.1 0.0 0.0 2.0100000000000002 0.3 135.48999999999998 0.2872281323269034 0.0 0.06252199612936253 0.1673200525938239 0.04721228653645143 0.0 9.433981131963065e-07 4.440892098500626e-16 0.0 0.0 0.0 0.0 0.09433981132056612 0.24899799195977468 13.802641051624867
186.45 0.1 31.037 0.17099999999999999 2.662 48.0746183 11.648981 2.6000000000000005 435.8 0.1 0.0 0.0 1.92 0.3799999999999999 -32.480000000000004 0.2872281323269034 0.0 0.0732188500319417 0.16090059042775448 0.02357965224510318 4.5825756833859485e-07 7.745966693497549e-07 4.440892098500626e-16 0.0 0.0 0.0 0.0 0.1536229149573722 0.34292856398964494 164.7246538924881
187.45 0.09 31.273000000000003 0.21400000000000002 2.6670000000000003 48.074619799999994 11.6489795 2.6000000000000005 435.8 0.09 0.0 0.0 1.64 0.6 -129.10999999999999 0.2872281323269034 0.030000000000000002 0.08000624975587894 0.24727312834192072 0.021931712199461294 6.000000013273166e-07 4.999999996257998e-07 4.440892098500626e-16 0.0 0.030000000000000002 0.0 0.0 0.27640549922170504 0.44045431091090487 12.772583920256698
188.45 0.0 31.575 0.242 2.517 48.0746223 11.648979299999999 2.6000000000000005 435.8 0.0 0.0 0.0 1.04 -0.33999999999999997 -112.4 0.2872281323269034 0.0 0.08980534505250781 0.2381092186371624 0.06783067152844645 7.810249688029155e-07 4.5825756915262385e-07 4.440892098500626e-16 0.0 0.0 0.0 0.0 0.3352610922848042 0.34117444218463966 0.08944271909999127
189.45 0.11099999999999999 31.828000000000003 0.194 2.2939999999999996 48.0746237 11.6489817 2.55 435.75 0.01 0.11000000000000001 0.0 3.2900000000000005 -0.6 -112.37 0.2872281323269034 0.13960300856356928 0.08207313811473241 0.21289433999052207 0.0737834669827868 4.582575683385948e-07 1.100000000274871e-06 0.050000000000000044 0.05000000000001137 0.030000000000000002 0.13747727084867523 0.0 2.7887093789063067 0.31937438845342625 0.045825756949562306
190.45 0.852 32.451 0.9 1.705 48.0746252 11.6489894 2.5 435.7 0.19 0.8299999999999998 0.0 6.02 0.08000000000000002 -112.26999999999998 0.2872281323269034 0.20370567002417972 0.28349426801965455 0.2064945519862449 0.26401704490430156 7.483314785038415e-07 3.852272056947432e-06 0.0 0.0 0.06999999999999999 0.19519221295943137 0.0 0.2315167380558045 0.38157568056677826 0.04582575694955579
191.45 1.436 33.65500000000001 0.834 0.75 48.0746277 11.6490059 2.5200000000000005 435.71999999999997 0.4 1.4 0.0 5.44 0.58 -112.28 0.2872281323269034 0.1778876049644831 0.4448651481067037 0.6135177259052912 0.20692993983471797 8.999999997803974e-07 5.7349803836201745e-06 0.040000000000000036 0.0400000000000091 0.0632455532033676 0.14142135623730953 0.0 0.265329983228432 0.2227105745132009 0.039999999999997725
192.45 0.8130000000000001 34.96900000000001 0.4629999999999999 1.065 48.074629300000005 11.6490221 2.6000000000000005 435.8 0.15 0.74 0.0 -7.449999999999998 1.7 -112.49000000000001 0.2872281323269034 0.5886263670614832 0.24043502240730355 0.47646720768590156 0.1604524851786347 4.582575683385948e-07 2.300000000217225e-06 4.440892098500626e-16 0.0 0.18027756377319948 0.5589275444992848 0.0 4.9769970865975 0.58309518948453 0.08306623862917602
193.45 0.347 35.438 0.213 1.088 48.07462780000001 11.649021099999999 2.6000000000000005 435.8 -0.15 -0.32999999999999996 0.0 -3.9799999999999995 0.6199999999999999 -112.49000000000001 0.2872281323269034 0.25861361139738953 0.15567915724335088 0.18910579049833456 0.07011419257183239 5.999999999062312e-07 1.7000000000547622e-06 4.440892098500626e-16 0.0 0.12041594578792295 0.2368543856465402 0.0 0.8059776671843955 0.643117407632541 0.02999999999999829
194.45 1.115 36.313 0.5509999999999999 1.014 48.07462449999999 11.649010100000002 2.6000000000000005 435.8 -0.4699999999999999 -1.04 0.0 -3.71 1.15 -112.42999999999999 0.2872281323269034 0.20382590610616697 0.378868050909548 0.5244320737712368 0.10219589032832974 1.0246950760891094e-06 4.526588119136775e-06 4.440892098500626e-16 0.0 0.06403124237432847 0.1624807680927192 0.0 0.250798724079689 0.2692582403567252 0.04582575694955579
195.45 1.639 37.77799999999999 0.671 1.9580000000000002 48.07462039999999 11.648991200000001 2.6000000000000005 435.8 -0.57 -1.5399999999999998 0.0 -3.44 0.63 -112.35 0.2872281323269034 0.13523682930326342 0.5305996607612947 0.6285451455543986 0.4218957217133163 1.2806248471384743e-06 6.44670458464406e-06 4.440892098500626e-16 0.0 0.04582575694955839 0.13564659966250536 0.0 0.12806248474865708 0.743034319530397 0.0921954445729298
196.45 1.9639999999999997 39.724000000000004 1.759 3.729 48.074615 11.6489669 2.6000000000000005 435.8 -0.75 -1.8199999999999998 0.0 -3.53 0.72 -112.46000000000001 0.2872281323269034 0.09090654541890811 0.6242948021568008 0.5938930880217415 0.5820386585098968 1.897366596927971e-06 7.475961476296673e-06 4.440892098500626e-16 0.0 0.05000000000000005 0.07483314773547879 0.0 0.1951922129594314 0.5582114294781145 0.06633249580710422
197.45 2.207 41.893 1.973 5.878 48.0746081 11.6489397 2.6000000000000005 435.8 -0.82 -2.0500000000000003 0.0 -3.65 1.46 -112.41000000000001 0.2872281323269034 0.07029224708315986 0.6938306709853639 0.6800889647685808 0.6535258219841049 2.0223748406203497e-06 8.414867794338041e-06 4.440892098500626e-16 0.0 0.039999999999999994 0.06708203932499375 0.0 0.2578759391645526 0.62 0.07000000000000049
198.45 2.3689999999999998 44.237 1.9649999999999999 8.217000000000002 48.074600399999994 11.6489104 2.6000000000000005 435.8 -0.9 -2.1900000000000004 0.0 -4.13 1.44 -112.4 0.2872281323269034 0.051855568649856784 0.6944501421988478 0.7449999999999999 0.6930808033699968 2.244994432599716e-06 8.777243302766391e-06 4.440892098500626e-16 0.0 0.0 0.053851648071345 0.0 0.28653097563788815 0.16852299546352723 0.0
199.45 2.4699999999999998 46.765 2.491 10.715 48.0745924 11.6488788 2.6000000000000005 435.8 -0.9 -2.3 0.0 -4.21 1.14 -112.43000000000002 0.2872281323269034 4.440892098500626e-16 0.7376211764856001 0.08080222769206304 0.734836716556814 2.2449944313970127e-06 9.335952013689495e-06 4.440892098500626e-16 0.0 0.0 0.0 0.0 0.3618010503025108 0.32 0.06403124237432774
200.45 2.535 49.267 1.5100000000000002 13.294 48.074584200000004 11.6488464 2.6000000000000005 435.8 -0.96 -2.3599999999999994 0.0 -4.71 0.99 -112.41000000000001 0.2872281323269034 0.06499999999999995 0.7773551311980907 1.0985171823872397 0.7548668756807385 2.521904042302271e-06 9.404254356455952e-06 4.440892098500626e-16 0.0 0.04898979485566356 0.048989794855663606 0.0 0.47212286536451514 0.40112342240263155 0.029999999999998295
201.45 2.107 51.864999999999995 1.767 15.835000000000003 48.0745754 11.648814799999998 2.6000000000000005 435.8 -0.79 -1.92 0.0 7.05 0.96 -112.32000000000001 0.2872281323269034 0.5619795369940084 0.6163805642620476 0.8761968956804174 0.6245038030308542 1.959591794282892e-06 7.896834808983919e-06 4.440892098500626e-16 0.0 0.21656407827707716 0.5249761899362675 0.0 8.35227513914622 0.8027452896155792 0.10770329614268977
202.45 0.254 52.886 0.21600000000000003 16.785000000000004 48.074571500000005 11.6488033 2.56 435.75999999999993 -0.09 -0.19 0.0 6.790000000000001 1.32 -112.29 0.2872281323269034 0.23393161393877487 0.06814690014960349 0.25989228537992426 0.033241540277189494 5.00000002290335e-07 4.582575699666528e-07 0.048989794855663606 0.0489897948556747 0.10440306508910549 0.23 0.0 3.467982122214589 0.21354156504062624 0.05385164807134488
203.45 0.11600000000000002 53.141 0.156 16.711 48.0745709 11.648805 2.5300000000000002 435.73 0.030000000000000006 0.1 0.0 0.15 0.16999999999999998 -112.4 0.2872281323269034 0.07787168933572713 0.08407734534344 0.1371276777313756 0.03700000000000014 2.999999992425728e-07 6.324555321220792e-07 0.04582575694955844 0.04582575694956882 0.045825756949558406 0.07745966692414834 0.0 2.6654267950930484 0.241039415863879 0.0
204.45 0.0 53.355999999999995 0.046 16.738 48.0745696 11.648805199999998 2.6000000000000005 435.8 0.0 0.0 0.0 0.62 1.3099999999999998 -112.4 0.2872281323269034 0.0 0.041999999999998816 0.04983974317750845 0.018330302779824056 4.898979508006965e-07 4.0000000041118254e-07 4.440892098500626e-16 0.0 0.0 0.0 0.0 0.33999999999999997 0.12999999999999998 0.0
205.45 0.057999999999999996 53.45399999999999 0.08499999999999999 16.744 48.0745692 11.648805300000001 2.6000000000000005 435.8 0.030000000000000006 0.06000000000000001 0.0 3.7399999999999998 0.5700000000000001 -112.38 0.2872281323269034 0.09097252332435328 0.02457641145489014 0.0952102935611481 0.03136877428271648 4.00000001832268e-07 6.403124239298836e-07 4.440892098500626e-16 0.0 0.045825756949558406 0.10198039027185571 0.0 2.6582701141908056 0.4561797891182818 0.04000000000000341
206.45 0.788 53.976 0.664 16.213 48.0745714 11.6488119 2.6000000000000005 435.8 0.32999999999999996 0.75 0.0 6.16 0.24000000000000005 -112.39000000000001 0.2872281323269034 0.2593761746961351 0.30718723931830155 0.4879385207175183 0.28386792703650016 1.0198039032094753e-06 3.4190641996141415e-06 4.440892098500626e-16 0.0 0.07810249675906655 0.21563858652847825 0.0 0.2537715508089903 0.22891046284519195 0.030000000000002556
207.45 1.4620000000000002 55.263999999999996 1.212 14.930999999999997 48.074575499999995 11.6488281 2.6000000000000005 435.8 0.5599999999999999 1.3499999999999999 0.0 5.16 0.19 -112.4 0.2872281323269034 0.15503547981026797 0.4277896679444223 0.45254392052042863 0.44623872534776715 1.5000000000024253e-06 5.593746508254044e-06 4.440892098500626e-16 0.0 0.04898979485566356 0.15 0.0 0.363868107973205 0.39357337308308854 0.0
208.45 1.9120000000000001 57.032999999999994 1.677 13.169 48.0745811 11.6488503 2.6000000000000005 435.8 0.7 1.78 0.0 4.640000000000001 0.22000000000000006 -112.33 0.2872281323269034 0.08818163074019439 0.5716476187302788 0.5722420816402792 0.5567126727495971 1.5779733840096301e-06 7.267048919267575e-06 4.440892098500626e-16 0.0 0.0 0.09797958971132709 0.0 0.06633249580710816 0.5455272678794342 0.045825756949562306
209.45 2.189 59.132999999999996 2.157 11.102 48.0745871 11.6488768 2.6000000000000005 435.8 0.74 2.06 0.0 4.3500000000000005 0.9 -112.39000000000001 0.2872281323269034 0.08814193099768118 0.6398288833742973 0.07280796659706956 0.635480920248594 1.8138357156656724e-06 8.25590697628539e-06 4.440892098500626e-16 0.0 0.048989794855663606 0.08000000000000007 0.0 0.15652475842498523 0.6196773353931867 0.030000000000002556
210.45 2.4169999999999994 61.447 2.221 8.782 48.074594299999994 11.648906499999999 2.67 435.87 0.8800000000000001 2.25 0.0 3.7800000000000002 0.5900000000000001 -112.37 0.2872281323269034 0.05478138369920951 0.6633257118490126 0.3411583210182627 0.6946193202035199 2.1931712197545695e-06 8.61684397000651e-06 0.04582575694955844 0.045825756949542766 0.039999999999999994 0.04999999999999982 0.0 0.16613247725836147 0.15132745950421556 0.0458257569495623
211.45 2.395 63.90200000000001 1.5479999999999998 6.342 48.0746022 11.648937700000001 2.7 435.9 0.8400000000000001 2.21 0.0 -2.4199999999999995 0.76 -112.42 0.2872281323269034 0.24071767695788365 0.6632767145015706 1.0956349757104327 0.6849934306254332 2.2271057454433093e-06 8.764131446050761e-06 0.0 0.0 0.10198039027185571 0.24677925358506128 0.0 7.887052681452051 0.24166091947189142 0.039999999999997725
212.45 0.501 65.362 0.477 5.005 48.0746066 11.648955 2.7 435.9 0.16999999999999998 0.47000000000000003 0.0 -7.790000000000001 0.51 -112.41000000000001 0.2872281323269034 0.5113208386130962 0.10057832768544032 0.4368993018991905 0.07365459931328115 4.898979473197622e-07 8.944271909263344e-07 0.0 0.0 0.16763054614240208 0.4838388161361178 0.0 5.117704563571445 0.5990826320300063 0.029999999999998295
213.45 0.01 65.61000000000001 0.20800000000000002 4.953 48.0746075 11.648955 2.7 435.9 0.0 0.01 0.0 1.47 0.27999999999999997 -112.57000000000001 0.2872281323269034 0.030000000000000002 0.061967733539319184 0.066 0.01951922129594322 4.999999987376214e-07 0.0 0.0 0.0 0.0 0.030000000000000002 0.0 2.081850138698749 0.357211421989835 0.12688577540449383
214.45 0.557 66.01400000000001 0.5429999999999999 4.604000000000001 48.0746089 11.6489589 2.6900000000000004 435.89 0.16 0.55 0.0 6.24 1.8599999999999999 -112.32000000000001 0.2872281323269034 0.2529841892292876 0.2331608886584552 0.4078492368510698 0.23174123500145596 1.0440306513177254e-06 2.9137604567100517e-06 0.03000000000000003 0.029999999999989767 0.13564659966250536 0.21563858652847825 0.0 0.29732137494637007 0.18000000000000002 0.04000000000000341
215.45 1.3110000000000002 67.2 1.405 3.437 48.0746142 11.648972599999999 2.6000000000000005 435.8 0.59 1.1700000000000002 0.0 3.0100000000000002 -0.27 -112.21000000000001 0.2872281323269034 0.18063499107315834 0.4348103034657759 0.15615697230671452 0.4303498576739628 2.039607806488625e-06 5.063595560292605e-06 4.440892098500626e-16 0.0 0.09433981132056601 0.15524174696260024 0.0 5.218515114474615 0.9529428104561154 0.08306623862918167
216.45 0.386 68.28299999999999 0.48 2.459 48.074618199999996 11.6489846 2.6000000000000005 435.8 0.15999999999999998 0.35000000000000003 0.0 -6.3100000000000005 -0.04 -112.30999999999999 0.2872281323269034 0.39729585953040086 0.1170512708175341 0.43416586692184816 0.05940538696111653 3.999999989900971e-07 9.165151388091704e-07 4.440892098500626e-16 0.0 0.17435595774162696 0.3584689665786984 0.0 4.541244322870109 0.3693237062523878 0.14456832294800906
217.45 0.06999999999999999 68.504 0.146 2.4989999999999997 48.0746173 11.648985200000002 2.6000000000000005 435.8 -0.05 0.030000000000000006 0.0 2.38 1.48 -112.42 0.2872281323269034 0.045825756949558406 0.061514225996916624 0.09583318840568751 0.020712315177207945 4.582575683385948e-07 4.0000000041118254e-07 4.440892098500626e-16 0.0 0.05000000000000001 0.0640312423743285 0.0 2.6693819509392056 1.3392535234226566 0.28913664589601934
218.45 0.6849999999999999 68.994 0.776 2.1610000000000005 48.074618199999996 11.6489907 2.6000000000000005 435.8 0.24 0.64 0.0 4.55 1.5 -112.30999999999999 0.2872281323269034 0.2296627962905616 0.2563669245437083 0.33788163607985566 0.23075744841716375 9.797958959448747e-07 3.163858403890314e-06 4.440892098500626e-16 0.0 0.13564659966250536 0.2009975124224178 0.0 3.853894134508627 0.6340346993658943 0.1135781669160064
219.45 0.276 69.762 0.421 1.605 48.0746201 11.6489996 2.6000000000000005 435.8 0.06000000000000001 0.24 0.0 -4.410000000000001 0.8300000000000001 -112.46 0.2872281323269034 0.24446676665755615 0.1018626526259719 0.32157269784607023 0.033241540277189285 2.9999999924257285e-07 9.165151388091704e-07 4.440892098500626e-16 0.0 0.128062484748657 0.24166091947189142 0.0 3.3750407404948466 0.6827151675479314 0.06633249580710765
220.45 0.05 69.96099999999998 0.119 1.652 48.07461959999999 11.649 2.6000000000000005 435.8 -0.02 -0.030000000000000006 0.0 -1.29 1.8499999999999996 -112.35999999999999 0.2872281323269034 0.0670820393249937 0.044373415464667415 0.07381734213584232 0.017776388834631153 4.898979508006966e-07 0.0 4.440892098500626e-16 0.0 0.04 0.0640312423743285 0.0 2.4386266626935744 1.6372232590578475 0.13564659966250395
221.45 0.59 70.352 0.501 1.921 48.074618199999996 11.648996200000003 2.6000000000000005 435.8 -0.27 -0.5199999999999999 0.0 -1.8399999999999999 2.18 -112.4 0.2872281323269034 0.19626512680555355 0.21136697944570182 0.30778076613069894 0.18452371121349148 9.797958959448747e-07 2.481934729144291e-06 4.440892098500626e-16 0.0 0.09 0.16613247725836147 0.0 5.552512944604452 0.7194442299441979 0.25298221281347
222.45 0.137 70.86399999999999 0.21000000000000002 2.253 48.074617 11.648990999999999 2.6000000000000005 435.8 0.0 -0.12000000000000002 0.0 2.81 2.55 -112.28 0.2872281323269034 0.13130498848101696 0.05351635264103784 0.15316657598836633 0.014177446878757754 0.0 1.7763568394002505e-15 4.440892098500626e-16 0.0 0.0632455532033676 0.132664991614216 0.0 2.0408086632509184 1.6818144963104582 0.05999999999999942
223.45 0.521 71.16399999999999 0.46900000000000003 2.142 48.07461909999999 11.6489896 2.6000000000000005 435.8 0.5 -0.2 0.0 0.52 6.65 -112.35999999999999 0.2872281323269034 0.1910732843701599 0.16408534364774777 0.2584356786513813 0.0628967407740656 1.5779733827938522e-06 1.019803903000452e-06 4.440892098500626e-16 0.0 0.18973665961010275 0.07745966692414834 0.0 0.2638181191654584 0.7172865536171718 0.06633249580711066
224.45 1.2570000000000001 72.143 1.1320000000000001 2.0 48.074626900000005 11.6489843 2.5900000000000003 435.7900000000001 1.1700000000000002 -0.45999999999999996 0.0 0.33999999999999997 6.27 -112.4 0.2872281323269034 0.14778700890132393 0.37608642623737487 0.4011682938618156 0.03660601043544624 3.2999999998503083e-06 1.951922129826197e-06 0.03000000000000003 0.030000000000006823 0.14177446878757824 0.04898979485566356 0.0 0.142828568570857 0.5568662316930341 0.08944271909999127
225.45 1.691 73.66099999999999 1.4360000000000002 2.575 48.0746397 11.648976300000001 2.5 435.7 1.5699999999999998 -0.65 0.0 0.42000000000000004 6.230000000000001 -112.36000000000001 0.2872281323269034 0.12910848151845022 0.5244130051781707 0.5613768787543711 0.31803301715387977 4.313930921591984e-06 2.6095976701065315e-06 0.0 0.0 0.11000000000000001 0.049999999999999996 0.0 0.30919249667480614 0.29342801502242416 0.10198039027185603
226.45 2.0389999999999997 75.60900000000001 1.72 4.0760000000000005 48.074655899999996 11.648966499999998 2.5 435.7 1.89 -0.7699999999999999 0.0 0.31 6.0200000000000005 -112.39000000000001 0.2872281323269034 0.08870738413458037 0.6095645987096042 0.658832300361784 0.5316051166044211 5.107837114479638e-06 2.8722813233148884e-06 0.0 0.0 0.08306623862918072 0.04582575694955844 0.0 0.157797338380595 0.31874754901018465 0.030000000000002556
227.45 1.8350000000000002 77.736 1.519 6.015 48.0746738 11.6489558 2.5 435.7 1.69 -0.6900000000000001 0.0 0.64 -2.44 -112.45 0.2872281323269034 0.37627782289154377 0.5602535140452024 0.6920325136870377 0.5050396024075734 4.422668877996893e-06 2.7856776553160604e-06 0.0 0.0 0.3477067730142742 0.12206555615733705 0.0 0.34409301068170506 4.646977512319164 0.049999999999997165
228.45 0.425 78.762 0.39199999999999996 6.968999999999999 48.0746816 11.6489501 2.5 435.7 0.38 -0.19 0.0 1.22 -4.86 -112.35 0.2872281323269034 0.3296740814804828 0.09682974749528116 0.2978187368182197 0.09180958555619351 6.633249593956591e-07 9.433981131963065e-07 0.0 0.0 0.3026549190084311 0.1374772708486752 0.0 0.060000000000000005 0.5553377350765929 0.1024695076595964
229.45 0.12 78.99199999999999 0.186 6.946 48.0746811 11.648949 2.56 435.76000000000005 -0.12 0.0 0.0 0.9800000000000002 -0.12000000000000002 -112.35 0.2872281323269034 0.04 0.061935450268807514 0.12167168939404106 0.045210618221829306 5.385164817288275e-07 0.0 0.048989794855663606 0.0489897948556747 0.04 0.0 0.0 0.20396078054371136 2.3425626992676207 0.05000000000000426
230.45 0.646 79.449 0.735 6.553999999999999 48.0746774 11.6489508 2.6000000000000005 435.8 -0.6200000000000001 0.18000000000000002 0.0 0.9 -4.720000000000001 -112.37 0.2872281323269034 0.2337605612587376 0.23547611343828492 0.2395516645736364 0.21513716554793588 1.9078784032309195e-06 1.1661903791929963e-06 4.440892098500626e-16 0.0 0.2181742422927143 0.09797958971132713 0.0 0.10954451150103324 0.6289674077406555 0.06403124237433107
231.45 1.351 80.631 1.328 5.470000000000001 48.074667 11.648956 2.6000000000000005 435.8 -1.27 0.45999999999999996 0.0 0.5199999999999999 -4.39 -112.34 0.2872281323269034 0.17172361514946047 0.46016192802099387 0.4888108018446401 0.3979447197790165 3.7416573870120916e-06 1.8973665959917488e-06 4.440892098500626e-16 0.0 0.16763054614240208 0.04898979485566356 0.0 0.26000000000000006 0.30805843601498717 0.06633249580711065
232.45 1.834 82.44 1.6280000000000001 3.975999999999999 48.074651599999996 11.648963799999999 2.6000000000000005 435.8 -1.73 0.64 0.0 0.8700000000000001 -4.21 -112.4 0.2872281323269034 0.10575443253121829 0.5555177764932445 0.6166490087561968 0.4377030957167198 4.779121257699785e-06 2.5219040426967185e-06 4.440892098500626e-16 0.0 0.10999999999999995 0.04898979485566354 0.0 0.1187434208703792 0.35341194094144585 0.04472135954999643
233.45 2.1029999999999998 84.613 1.8650000000000002 2.7359999999999998 48.074633000000006 11.6489735 2.6000000000000005 435.8 -1.97 0.77 0.0 0.6200000000000001 1.7763568394002506e-16 -112.35999999999999 0.2872281323269034 0.10854031509075321 0.6481828445739685 0.7097781343490372 0.2230784615331565 5.7445626463823975e-06 2.8722813233148884e-06 4.440892098500626e-16 0.0 0.11000000000000004 0.04582575694955844 0.0 0.16613247725836153 6.855800463840819 0.08000000000000149
234.45 0.738 86.153 0.381 2.6169999999999995 48.0746201 11.648979799999998 2.62 435.82 -0.65 0.19 0.0 0.95 8.91 -112.37 0.2872281323269034 0.5719755239518558 0.2014968982391525 0.4848391485843527 0.0424381903478459 1.3747727093572723e-06 3.9999999970063985e-07 0.040000000000000036 0.03999999999998636 0.4759201613716318 0.18681541692269407 0.0 0.38013155617496425 4.267891751204568 0.06403124237433107
235.45 0.176 86.455 0.269 2.559 48.07461969999999 11.648981000000001 2.7 435.9 0.09 0.15 0.0 4.209999999999999 0.6799999999999999 -112.4 0.2872281323269034 0.14333178293735133 0.09891915891272085 0.14480676779764126 0.09396275858019501 6.403124252337592e-07 9.999999999621422e-07 0.0 0.0 0.08306623862918075 0.12041594578792295 0.0 0.31448370387032776 0.7318469785412794 0.07745966692414943
236.45 0.619 87.01599999999999 0.5700000000000001 1.9929999999999999 48.0746223 11.648987699999998 2.6500000000000004 435.85 0.25 0.58 0.0 4.3 -0.05 -112.4 0.2872281323269034 0.1428600713985542 0.23113632341109888 0.31572139617073786 0.21753390540327275 9.000000007277877e-07 2.609597670086111e-06 0.050000000000000044 0.04999999999998295 0.04999999999999999 0.12489995996796796 0.0 0.2607680962081061 0.31384709652950427 0.06324555320336848
237.45 0.9780000000000001 87.991 0.8640000000000001 1.076 48.074626 11.6489996 2.6000000000000005 435.8 0.36 0.9099999999999999 0.0 -0.4700000000000001 0.41000000000000003 -112.45 0.2872281323269034 0.15243359209832985 0.33476708320861165 0.34383717076546566 0.29230805667993487 1.1832159566351811e-06 3.954743986733702e-06 4.440892098500626e-16 0.0 0.06633249580710801 0.13747727084867523 0.0 6.540191128705644 0.2426932219902319 0.049999999999997165
238.45 0.11900000000000002 88.612 0.178 0.5820000000000001 48.07462830000001 11.6490061 2.6000000000000005 435.8 0.04 0.11000000000000001 0.0 -2.0300000000000002 0.5199999999999999 -112.42 0.2872281323269034 0.1522136656151477 0.04237924020083379 0.1686297719858507 0.022271057451320072 4.5825757159471084e-07 2.999999997754799e-07 4.440892098500626e-16 0.0 0.066332495807108 0.13747727084867523 0.0 2.3537417020565363 0.5344155686354954 0.09797958971132649
239.45 0.121 88.75599999999999 0.10899999999999999 0.522 48.074629 11.6490057 2.6000000000000005 435.8 -0.01 -0.12999999999999998 0.0 -2.7199999999999998 0.10000000000000002 -112.35999999999999 0.2872281323269034 0.14889257872708095 0.06280127387243065 0.10444615837837215 0.026758176320519328 0.0 6.403124237356893e-07 4.440892098500626e-16 0.0 0.030000000000000002 0.14866068747318506 0.0 2.6324133414036637 0.30000000000000004 0.08000000000000149
240.45 0.834 89.313 0.7430000000000001 0.959 48.074628000000004 11.648999 2.6000000000000005 435.8 -0.26999999999999996 -0.8 0.0 -5.0200000000000005 0.39 -112.38 0.2872281323269034 0.20264254242384544 0.2718473836548728 0.3492577844515424 0.2528418478021389 7.74596670037735e-07 3.4641016150066116e-06 4.440892098500626e-16 0.0 0.07810249675906654 0.18973665961010278 0.0 0.2561249694973141 0.5068530358989675 0.09797958971132736
241.45 1.4440000000000002 90.558 1.43 2.157 48.07462439999999 11.648983099999999 2.6000000000000005 435.8 -0.51 -1.3499999999999999 0.0 -4.85 0.42000000000000004 -112.41 0.2872281323269034 0.1650575657157224 0.43462167456306 0.1675111936558271 0.43000116278912554 1.3564659969718034e-06 5.539855593798621e-06 4.440892098500626e-16 0.0 0.06999999999999999 0.15 0.0 0.33837848631377254 0.34583232931581165 0.05385164807134488
242.45 1.8530000000000002 92.251 1.3820000000000001 3.883999999999999 48.07461909999999 11.648961400000001 2.6000000000000005 435.8 -0.64 -1.75 0.0 -4.58 0.5399999999999999 -112.4 0.2872281323269034 0.11696580696938742 0.5514426534101262 0.7552721363852899 0.5481824513791004 1.8138357143337738e-06 6.902173570918528e-06 4.440892098500626e-16 0.0 0.04898979485566354 0.10246950765959595 0.0 0.4261455150532504 0.4247352116319061 0.0
243.45 1.672 94.215 1.609 5.813 48.0746128 11.648937199999999 2.6000000000000005 435.8 -0.6 -1.56 0.0 4.22 0.9099999999999999 -112.30999999999999 0.2872281323269034 0.36465874458183506 0.4838853169915374 0.46105205779824904 0.48141562085167106 1.4000000005255839e-06 6.225752966386647e-06 4.440892098500626e-16 0.0 0.1788854381999832 0.3231098884280702 0.0 4.32476588961761 0.6394528911499266 0.07000000000000149
244.45 0.334 95.106 0.348 6.689 48.0746101 11.648926200000002 2.6000000000000005 435.8 -0.09 -0.3 0.0 6.710000000000001 0.41 -112.35 0.2872281323269034 0.29448938860339263 0.08368990381163131 0.2419008061168875 0.0721734023030645 2.999999992425728e-07 8.717797887484854e-07 4.440892098500626e-16 0.0 0.10440306508910549 0.3 0.0 0.2467792535850613 0.45265881191025104 0.10246950765959639
245.45 0.44400000000000006 95.464 0.329 6.457000000000001 48.0746105 11.648929200000001 2.6000000000000005 435.8 0.16999999999999998 0.42000000000000004 0.0 1.5599999999999998 0.37 -112.19000000000001 0.2872281323269034 0.13915459029439167 0.17106723824274617 0.25947832279402455 0.17017931719218996 4.999999987376214e-07 2.1817424228087227e-06 4.440892098500626e-16 0.0 0.09 0.12489995996796796 0.0 5.654414204849164 0.9960421677820672 0.05385164807134673
246.45 0.44299999999999995 95.96900000000001 0.485 6.068 48.0746112 11.6489346 2.6000000000000005 435.8 0.13999999999999999 0.42000000000000004 0.0 5.0600000000000005 -0.36000000000000004 -112.42999999999999 0.2872281323269034 0.1938066046346202 0.14404513181638692 0.21341274563624357 0.12302845199383751 4.00000001832268e-07 1.7435595774969709e-06 4.440892098500626e-16 0.0 0.048989794855663564 0.18867962264113206 0.0 2.0543612145871526 0.3136877428271624 0.10049875621120828
247.45 1.1279999999999997 96.853 1.1489999999999998 5.223999999999999 48.0746126 11.6489459 2.6000000000000005 435.8 0.32999999999999996 1.08 0.0 6.14 0.20999999999999996 -112.42 0.2872281323269034 0.1757156794369814 0.35841456443621134 0.15801582199260936 0.34534620310639 6.633249563963454e-07 4.805205510631445e-06 4.440892098500626e-16 0.0 0.0640312423743285 0.1661324772583615 0.0 0.18547236990991398 0.561159513863928 0.039999999999997725
248.45 1.568 98.297 0.942 3.7689999999999992 48.074616199999994 11.6489654 2.6000000000000005 435.8 0.48 1.49 0.0 -0.029999999999999895 0.32 -112.42999999999999 0.2872281323269034 0.13052202879207783 0.4618235593817199 0.6859708448615 0.47026481901158623 1.248999600736041e-06 6.167657577886251e-06 4.440892098500626e-16 0.0 0.07483314773547882 0.13747727084867523 0.0 8.134254729229962 0.45122056690713913 0.10049875621120687
249.45 0.27299999999999996 99.35500000000002 0.36300000000000004 2.9210000000000003 48.074618 11.648977100000002 2.5900000000000003 435.7900000000001 0.030000000000000006 0.27 0.16 -4.72 1.3199999999999998 -112.16 0.2872281323269034 0.31546949139338337 0.07889866919029725 0.2686279955626368 0.019209372712298615 0.0 5.385164806732717e-07 0.03000000000000003 0.030000000000006823 0.06403124237432849 0.31 0.24166091947189142 4.492838746271671 0.5211525688318154 0.33526109228480283
250.45 0.0 99.58899999999998 0.194 2.9240000000000004 48.074618199999996 11.648976600000001 2.1900000000000004 435.39000000000004 0.0 0.0 0.35 1.2600000000000002 -0.6100000000000001 -111.80999999999999 0.2872281323269034 0.0 0.05855766388782995 0.11525623627379125 0.013564659966250522 3.999999989900971e-07 4.898979490602294e-07 0.12206555615733694 0.12206555615733965 0.0 0.0 0.34423828956117014 0.4983974317750845 0.8836854644046149 0.05385164807134672
251.45 0.0 99.72200000000001 0.05700000000000001 2.908 48.0746185 11.6489768 2.1000000000000005 435.3 0.0 0.0 0.0 0.78 -0.19 -108.32000000000001 0.2872281323269034 0.0 0.03280243893371273 0.06783067152844648 0.024819347291981778 4.999999987376214e-07 4.0000000041118254e-07 4.440892098500626e-16 0.0 0.0 0.0 0.0 0.3340658617698013 0.38327535793473605 5.713282769126698
252.45 0.0 99.80600000000001 0.075 2.8569999999999998 48.074619 11.648977400000001 2.1000000000000005 435.3 0.0 0.0 0.0 1.4000000000000001 -0.54 -50.29 0.2872281323269034 0.0 0.02416609194718704 0.06280923498976881 0.014866068747318564 0.0 4.898979481899958e-07 4.440892098500626e-16 0.0 0.0 0.0 0.0 0.5603570290448759 0.63118935352238 22.89298800943206
253.45 0.0 99.94300000000001 0.10800000000000001 2.837 48.074618199999996 11.6489783 2.1000000000000005 435.3 0.0 0.0 0.0 2.04 -2.2204460492503132e-17 29.49 0.2872281323269034 0.0 0.06679071791798631 0.12726350615946427 0.016155494421403543 5.999999984851456e-07 4.582575699666528e-07 4.440892098500626e-16 0.0 0.0 0.0 0.0 0.27999999999999997 0.5059644256269408 22.95567250158444
254.45 0.0 100.158 0.162 2.907 48.074616500000005 11.648979 2.1000000000000005 435.3 0.0 0.0 0.0 1.64 0.16 71.66999999999999 0.2872281323269034 0.0 0.059295868321494416 0.12867012085173465 0.02934280150224245 5.00000002290335e-07 0.0 4.440892098500626e-16 0.0 0.0 0.0 0.0 0.09165151389911678 0.4054626986542659 0.44508426168535725
255.45 0.032 100.303 0.08100000000000002 2.989 48.0746153 11.648979 2.1000000000000005 435.3 0.01 0.030000000000000006 0.0 -0.15000000000000008 0.29 72.0 0.2872281323269034 0.06939740629158989 0.03716180835212322 0.09191844211038393 0.021189620100416987 4.582575683385948e-07 0.0 4.440892098500626e-16 0.0 0.030000000000000002 0.0640312423743285 0.0 2.231255252094659 0.1972308292331602 0.0
256.45 0.6340000000000001 100.659 0.173 2.723 48.0746158 11.6489831 2.1000000000000005 435.3 0.22000000000000003 0.64 0.0 -3.75 0.44000000000000006 71.99 0.2872281323268975 0.277351762208211 0.22268587741480214 0.18574444810007107 0.18968658360569413 5.999999999062311e-07 2.9137604568624626e-06 4.440892098500626e-16 0.0 0.07483314773547882 0.24576411454889016 0.0 0.46314144707637644 0.21540659228538014 0.029999999999998295
257.45 1.3379999999999999 101.816 1.217 1.8809999999999998 48.074618099999995 11.6489982 2.1000000000000005 435.3 0.43000000000000005 1.27 0.0 -0.95 1.14 72.02000000000001 0.2872281323268975 0.14641038214552957 0.43398617489500596 0.42348671761933687 0.25715559492260703 8.306623841945866e-07 5.473572873438678e-06 4.440892098500626e-16 0.0 0.045825756949558386 0.13453624047073706 0.0 2.828161947272468 0.4498888751680797 0.039999999999997725
258.45 0.7619999999999999 103.00699999999999 0.629 1.504 48.074619999999996 11.649013700000001 2.1000000000000005 435.3 0.18 0.72 0.0 8.799999999999999 1.07 72.05 0.2872281323268975 0.39996999887491563 0.18836400930114144 0.46618558536273946 0.023748684174075853 7.105427357601002e-15 2.4919871586926907e-06 4.440892098500626e-16 0.0 0.12489995996796796 0.38418745424597095 0.0 0.792464510246358 0.5000999900019996 0.08062257748298356
259.45 0.349 103.421 0.39299999999999996 1.592 48.074619299999995 11.6490138 2.1000000000000005 435.3 -0.11000000000000001 -0.32999999999999996 0.0 7.649999999999999 0.23999999999999994 72.14000000000001 0.2872281323268975 0.24977790134437433 0.15135719342006485 0.22163257883262558 0.023151673805580437 4.5825757159471073e-07 2.088061301546528e-06 4.440892098500626e-16 0.0 0.08306623862918075 0.2368543856465402 0.0 0.3956008088970496 0.2764054992217051 0.04898979485566774
260.45 1.098 104.295 1.043 1.8030000000000002 48.074617599999996 11.6490026 2.1000000000000005 435.3 -0.24999999999999994 -1.07 0.0 6.840000000000001 0.9700000000000001 72.0 0.2872281323268975 0.17045820602130016 0.322498062009678 0.17590054007876157 0.13907192383799113 4.898979473197623e-07 4.543126676782589e-06 4.440892098500626e-16 0.0 0.04999999999999999 0.1676305461424021 0.0 0.174355957741627 0.5273518749374084 0.0
261.45 0.8229999999999998 105.48899999999999 0.622 2.471 48.0746163 11.648987199999999 2.1000000000000005 435.3 -0.12000000000000002 -0.78 0.0 -4.4799999999999995 1.29 72.15 0.2872281323268975 0.5379972118886862 0.25041765113505965 0.5000159997440081 0.15115885683611127 4.5825757159471073e-07 2.785677655762433e-06 4.440892098500626e-16 0.0 0.13266499161421597 0.4975942121849891 0.0 6.188182285615057 0.3112876483254676 0.43874821936960806
262.45 0.01 105.87 0.166 2.5 48.074617 11.6489857 2.1000000000000005 435.3 0.0 -0.01 0.0 0.4600000000000001 1.73 111.87 0.2872281323268975 0.03 0.051768716422178174 0.062000000000000006 0.02569046515733018 0.0 4.582575699666528e-07 4.440892098500626e-16 0.0 0.0 0.03 0.0 0.352703841770968 0.4428317965096906 22.614201290339658
263.45 0.01 106.048 0.166 2.549 48.0746166 11.648985499999998 2.1000000000000005 435.3 0.0 -0.01 0.0 0.5499999999999999 1.33 -26.320000000000004 0.2872281323268975 0.030000000000000002 0.048332183894377906 0.08856635930193811 0.03726929030716845 4.898979508006965e-07 5.000000005139782e-07 4.440892098500626e-16 0.0 0.0 0.030000000000000002 0.0 0.1857417562100671 0.5158488150611572 158.60293061605134
264.45 0.02 106.21099999999998 0.06800000000000002 2.625 48.0746167 11.648984 2.1000000000000005 435.3 0.0 -0.02 0.0 0.5199999999999999 -0.7 -145.27 0.2872281323268975 0.04 0.0463573079459989 0.06954135460285485 0.008062257748298543 4.5825757159471073e-07 0.0 4.440892098500626e-16 0.0 0.0 0.04 0.0 0.19390719429665315 0.6811754546370561 0.16155494421403419
265.45 0.0 106.33699999999999 0.12000000000000002 2.578 48.0746169 11.648984899999999 2.1000000000000005 435.3 0.0 0.0 0.0 0.03000000000000001 0.34000000000000014 -136.28000000000003 0.2872281323268975 0.0 0.03606937759374363 0.08037412518964047 0.017776388834631184 3.00000001374201e-07 2.999999997754799e-07 4.440892098500626e-16 0.0 0.0 0.0 0.0 0.2609597670139978 0.7323933369440222 2.108459153030949
