"avg_OSD.flyTime [s]" "avg_CUSTOM.hSpeed [m/s]" "avg_CUSTOM.distance [m]" "avg_CALC.hSpeed [m/s]" "avg_CALC.distance [m]" avg_OSD.latitude avg_OSD.longitude "avg_OSD.height [m]" "avg_OSD.altitude [m]" "avg_OSD.xSpeed [m/s]" "avg_OSD.ySpeed [m/s]" "avg_OSD.zSpeed [m/s]" avg_OSD.pitch avg_OSD.roll avg_OSD.yaw "stdDev_OSD.flyTime [s]" "stdDev_CUSTOM.hSpeed [m/s]" "stdDev_CUSTOM.distance [m]" "stdDev_CALC.hSpeed [m/s]" "stdDev_CALC.distance [m]" stdDev_OSD.latitude stdDev_OSD.longitude "stdDev_OSD.height [m]" "stdDev_OSD.altitude [m]" "stdDev_OSD.xSpeed [m/s]" "stdDev_OSD.ySpeed [m/s]" "stdDev_OSD.zSpeed [m/s]" stdDev_OSD.pitch stdDev_OSD.roll stdDev_OSD.yaw
0.45 0.0 0.066 0.14499999999999996 0.8859999999999999 48.18204250000001 11.6138061 0.0 543.2 0.0 0.0 0.0 5.7299999999999995 -3.6100000000000003 103.29 0.2872281323269014 0.0 0.05043808085167397 0.07297259759663213 0.2976306435836203 4.999999987376214e-07 2.999999997754799e-07 0.0 0.0 0.0 0.0 0.0 0.06403124237432845 0.14456832294800961 0.7582216034906956
1.45 0.0 0.24100000000000002 0.16399999999999998 1.134 48.1820412 11.613805 0.0 543.2 0.0 0.0 0.0 5.71 -3.5700000000000003 102.81999999999998 0.2872281323269014 0.0 0.04805205510693586 0.01743559577416269 0.04152107898405333 4.00000001832268e-07 0.0 0.0 0.0 0.0 0.0 0.0 0.1044030650891055 0.20024984394500792 0.13266499161421424
2.45 0.0 0.39 0.087 1.274 48.18204000000001 11.6138039 0.08 543.28 0.0 0.0 -0.29 0.8300000000000001 -0.10999999999999999 103.85999999999999 0.2872281323269014 0.0 0.04024922359499621 0.05514526271584896 0.04029888335921981 7.105427357601002e-15 2.999999997754799e-07 0.08717797887081348 0.08717797887078113 0.0 0.0 0.20712315177207982 1.3431678971744372 0.7354590403278759 0.18547236990991225
3.45 0.0 0.509 0.062 0.25 48.18203900000001 11.6138035 0.47000000000000003 543.67 0.0 0.0 -0.4 0.42000000000000004 0.85 104.08 0.2872281323269014 0.0 0.03505709628591621 0.06477653896280659 0.3605828614895611 7.105427357601002e-15 4.999999996257998e-07 0.1268857754044952 0.12688577540448015 0.0 0.0 0.0 0.1777638883463118 0.11180339887498951 0.039999999999997725
4.45 0.0 0.625 0.07400000000000001 0.183 48.1820386 11.6138035 0.9299999999999999 544.13 0.0 0.0 -0.44000000000000006 0.8300000000000001 0.8299999999999998 104.02000000000001 0.2872281323269015 0.0 0.04153311931459039 0.0698856208386246 0.011874342087037913 4.898979508006965e-07 4.999999996257998e-07 0.1676305461424021 0.16763054614239886 0.0 0.0 0.04898979485566356 0.04582575694955839 0.1004987562112089 0.039999999999997725
5.45 0.0 0.744 0.078 0.24699999999999997 48.18203799999999 11.6138041 1.1999999999999997 544.3999999999999 0.0 0.0 -0.05 0.5999999999999999 1.05 104.0 0.2872281323269015 0.0 0.01959591794226544 0.04069397989875161 0.01734935157289748 7.105427357601002e-15 2.999999997754799e-07 2.220446049250313e-16 1.1368683772161603e-13 0.0 0.0 0.0806225774829855 0.06324555320336757 0.12041594578792296 0.0
6.45 0.0 0.861 0.121 0.33699999999999997 48.1820373 11.6138056 1.7299999999999998 544.9300000000001 0.0 0.0 -1.21 0.4 0.8400000000000001 104.17 0.2872281323269015 0.0 0.037536648758246915 0.0645677938294317 0.03001666203960726 4.582575683385948e-07 4.898979490602294e-07 0.363455636907725 0.36345563690772753 0.0 0.0 0.5467174773134658 0.10954451150103323 0.09165151389911681 0.0458257569495623
7.450000000000001 0.0 0.977 0.10200000000000001 0.438 48.1820369 11.613806599999998 3.5100000000000002 546.7099999999999 0.0 0.0 -1.98 0.5199999999999999 0.19 104.13 0.28722813232690153 0.0 0.027946377224964243 0.0620966987850401 0.022271057451320096 3.00000001374201e-07 4.898979481899958e-07 0.5906775770248943 0.5906775770249063 0.0 0.0 0.040000000000000036 0.15362291495737215 0.17578395831246943 0.0458257569495623
8.45 0.0 1.108 0.186 0.42800000000000005 48.182036999999994 11.6138071 5.6 548.8 0.0 0.0 -1.9899999999999998 0.26999999999999996 0.75 104.05999999999999 0.28722813232690153 0.0 0.06352952069707432 0.10061808982484213 0.023999999999999997 7.105427357601002e-15 7.000000001612858e-07 0.5744562646538027 0.5744562646538108 0.0 0.0 0.03000000000000003 0.07810249675906654 0.08062257748298553 0.048989794855660775
9.45 0.0 1.361 0.281 0.595 48.18203669999999 11.6138102 7.6 550.8 0.0 0.0 -1.94 0.6300000000000001 -0.13999999999999999 104.05 0.28722813232690153 0.0 0.0874585616163449 0.08836854644046149 0.07877182237323191 4.5825757159471084e-07 1.077032961214599e-06 0.5744562646538028 0.5744562646538108 0.0 0.0 0.048989794855663606 0.25317977802344327 0.2973213749463701 0.049999999999997165
10.45 0.0 1.721 0.34199999999999997 0.916 48.182036 11.6138149 9.59 552.7900000000001 0.0 0.0 -1.7599999999999998 1.28 -0.72 104.05999999999999 0.28722813232690153 0.0 0.11388151737661385 0.17255723688098393 0.10423051376636305 0.0 1.6999999998248808e-06 0.55937465083788 0.5593746508378838 0.0 0.0 0.31685959035509714 0.2227105745132009 0.25612496949731395 0.06633249580710422
11.45 0.0 1.9789999999999999 0.31 0.95 48.18203629999999 11.613815400000002 10.65 553.8499999999999 0.0 0.0 -0.22999999999999998 0.61 -1.05 104.04 0.28722813232690153 0.0 0.10348429832588121 0.18649396773086255 0.09818350166906863 4.5825757159471073e-07 1.3564659962908387e-06 0.06708203932499344 0.06708203932498352 0.0 0.0 0.22825424421026655 0.16401219466856726 0.31701734968294715 0.048989794855660775
12.45 0.0 2.4330000000000003 0.41000000000000003 0.51 48.18203830000001 11.6138104 10.679999999999998 553.88 0.0 0.0 0.0 -0.06 -0.22000000000000003 104.05 0.28722813232690153 0.0 0.12426182036329574 0.14268847185389574 0.118490505948789 7.810249688029156e-07 1.4282856856594732e-06 0.039999999999999855 0.0400000000000091 0.0 0.0 0.0 0.36660605559646725 0.2712931993250107 0.049999999999997165
13.45 0.030000000000000006 2.726 0.332 0.48600000000000004 48.1820387 11.6138102 10.629999999999999 553.8299999999999 0.0 0.030000000000000006 0.0 -0.21000000000000002 -0.31 104.05 0.28722813232690153 0.045825756949558406 0.10809255293497325 0.1629601178202814 0.10394229168149027 4.5825757159471073e-07 1.166190378827425e-06 0.04582575694955824 0.04582575694956882 0.0 0.045825756949558406 0.0 0.2211334438749598 0.19209372712298547 0.049999999999997165
14.45 0.10400000000000001 3.043 0.16600000000000004 0.7850000000000001 48.182037199999996 11.613813799999999 10.63 553.8299999999999 -0.02 0.09 0.0 0.48 0.82 104.03 0.28722813232690153 0.012000000000000002 0.03950949253027677 0.1232233744059949 0.02872281323269017 3.999999989900971e-07 3.999999997006398e-07 0.04582575694955823 0.04582575694956882 0.04 0.030000000000000002 0.0 0.19390719429665315 2.3561833544951463 0.04582575694955579
15.45 1.181 3.557 1.1800000000000002 1.105 48.1820327 11.6138132 10.7 553.8999999999999 -1.16 -0.2 0.0 0.58 13.180000000000001 103.99000000000001 0.28722813232690153 0.6239783650095571 0.3864983829202912 0.6669182858491737 0.2650377331626574 3.494281041161459e-06 9.79795896996407e-07 0.0 1.1368683772161603e-13 0.6036555309114627 0.1788854381999832 0.0 0.059999999999999984 2.392822601030005 0.06999999999999601
16.45 2.5029999999999997 5.657000000000001 2.254 2.865 48.1820146 11.6138045 10.669999999999998 553.8700000000001 -2.4300000000000006 -0.5999999999999999 0.0 0.35 7.459999999999999 103.85 0.2872281323269012 0.12954149914216678 0.7357723832816777 0.7560317453652328 0.682792062051105 6.1676575786696425e-06 3.82753184204587e-06 0.04582575694955823 0.04582575694956882 0.12688577540449522 0.04472135954999579 0.0 0.12041594578792295 1.071634265969505 0.05000000000000426
17.05 2.74 7.27 1.365 4.355 48.182001 11.6137965 10.7 553.9 -2.6500000000000004 -0.7 0.0 0.4 5.85 103.9 0.05000000000000071 0.050000000000000044 0.13000000000000034 1.0250000000000001 0.125 9.999999974752427e-07 4.999999996257998e-07 0.0 0.0 0.050000000000000044 0.0 0.0 0.1 0.050000000000000266 0.0
18.45 2.332 10.703 2.57 7.808 48.1819716 11.6137824 10.7 553.8999999999999 -2.27 -0.53 0.0 0.22000000000000003 3.4199999999999995 103.9 0.2872281323269012 0.06144916598294898 0.6537132398842783 3.1638331182285833 0.6215271514584059 5.3329166503020454e-06 2.107130750662753e-06 0.0 1.1368683772161603e-13 0.06403124237432833 0.04582575694955839 0.0 0.11661903789690602 2.193991795791406 0.0
19.45 2.5599999999999996 13.098000000000003 2.1249999999999996 10.175999999999998 48.181951100000006 11.6137732 10.7 553.8999999999999 -2.5100000000000002 -0.5 0.0 -0.27 4.8100000000000005 103.98000000000002 0.2872281323269012 0.06999999999999992 0.7527522832911233 0.8026113629895854 0.7412718799468926 6.394528911099954e-06 3.2496153618166362e-06 0.0 1.1368683772161603e-13 0.07000000000000006 0.0 0.0 0.2570992026436488 0.16401219466856723 0.05999999999999659
20.45 2.7119999999999997 15.77 2.613 12.815999999999999 48.1819284 11.6137625 10.8 554.0 -2.68 -0.4 0.0 -0.41000000000000003 4.220000000000001 103.95 0.2872281323269012 0.031240998703626656 0.7711938796437636 0.04495553358597811 0.7718834108853485 6.621178142901337e-06 2.8722813231911988e-06 0.0 0.0 0.040000000000000036 0.0632455532033676 0.0 0.2118962010041709 0.26758176320519306 0.049999999999997165
21.45 1.698 18.06 1.512 15.103 48.18190840000001 11.6137552 10.82 554.02 -1.6900000000000002 -0.16 0.0 1.7399999999999998 -10.84 103.85 0.2872281323269012 0.7256280038697513 0.42736401345925257 0.8246065728576265 0.4264750871973652 3.6932370624725597e-06 1.1661903788883535e-06 0.039999999999999855 0.0400000000000091 0.7175653280364096 0.11135528725660043 0.0 0.6135144660071188 4.509589781787252 0.08062257748298708
22.45 0.14 18.59 0.14300000000000002 15.5 48.181904900000006 11.613754 10.8 554.0 -0.14 0.0 0.0 1.41 -2.9100000000000006 104.12 0.2872281323269012 0.12806248474865697 0.047116875957558806 0.05060632371551998 0.04427188724235733 5.38516479353827e-07 0.0 0.0 0.0 0.12806248474865697 0.0 0.0 0.10440306508910553 1.7946866021676318 0.06000000000000227
23.45 0.0 18.723000000000003 0.145 15.396 48.181906100000006 11.613753500000001 10.780000000000001 553.9799999999999 0.0 0.0 0.0 0.5199999999999999 -0.030000000000000016 104.1 0.2872281323269012 0.0 0.04605431575867731 0.0688839603971781 0.02244994432064374 3.000000013742011e-07 4.999999996257998e-07 0.04000000000000057 0.0400000000000091 0.0 0.0 0.0 0.5946427498927402 0.40509258201058185 0.04472135954999643
24.45 0.0 18.898999999999997 0.13500000000000004 15.313999999999998 48.18190700000001 11.613751500000001 10.74 553.9399999999999 0.0 0.0 0.0 -0.43 0.11000000000000006 104.05 0.2872281323269012 0.0 0.0372692903071686 0.05714017850864661 0.0162480768092721 7.105427357601002e-15 4.999999996257998e-07 0.04898979485566426 0.0489897948556747 0.0 0.0 0.0 0.2758622844826744 1.06061303028013 0.049999999999997165
25.45 0.983 19.356 0.8710000000000001 14.868 48.1819112 11.6137521 10.7 553.8999999999999 0.9800000000000001 0.26 0.0 0.42000000000000004 -13.88 104.17999999999999 0.2872281323269012 0.7232019081833233 0.3960606014235705 0.8232915643925912 0.3894046738291672 3.5440090299695884e-06 1.3747727081943738e-06 0.0 1.1368683772161603e-13 0.6954135460285484 0.2009975124224178 0.0 0.13999999999999999 3.440581346226245 0.10770329614269056
26.45 2.5840000000000005 21.65 2.518 12.565000000000001 48.181931 11.6137611 10.679999999999998 553.88 2.5 0.72 0.0 1.01 -7.85 104.28 0.2872281323269012 0.22883181596972046 0.8736246333523335 0.8486318400814337 0.8305931615417984 7.14142842832224e-06 3.477067730048913e-06 0.039999999999999855 0.0400000000000091 0.1788854381999833 0.07483314773547886 0.0 0.13000000000000003 1.344804818551748 0.039999999999997725
27.45 2.9799999999999995 24.692 3.02 9.562000000000001 48.18195659999999 11.613774199999998 10.67 553.8699999999999 2.8699999999999997 0.8 0.0 0.9099999999999999 -5.11 104.13 0.2872281323269012 0.04582575694955824 0.8930263154017353 0.027928480087537795 0.8881531399482862 7.525955089206259e-06 3.944616584557101e-06 0.04582575694955824 0.04582575694956882 0.04582575694955844 0.0 0.0 0.597411081249754 0.5682429058070149 0.045825756949562306
28.45 2.927 27.701999999999998 2.066 6.526000000000001 48.181982399999995 11.6137885 10.66 553.8599999999999 2.76 0.9799999999999999 0.0 -1.2200000000000002 -3.3800000000000003 104.10999999999999 0.2872281323269012 0.0692892488052801 0.8067440734210571 1.197624315050425 0.8288932379987185 7.073895674133017e-06 4.272001872725734e-06 0.04898979485566339 0.0489897948556747 0.09165151389911669 0.07483314773547885 0.0 0.15999999999999998 0.20880613017821098 0.030000000000002556
29.449999999999996 2.799 30.514000000000003 1.484 3.8329999999999997 48.182005999999994 11.6138038 10.84 554.0400000000002 2.54 1.17 0.0 -0.8700000000000001 -3.31 104.02000000000001 0.2872281323269012 0.0508822169328341 0.7968337342256543 1.114712518993126 0.717747169970039 6.480740698381792e-06 4.64327470680993e-06 0.06633249580710814 0.06633249580712308 0.06633249580710805 0.04582575694955834 0.0 0.20518284528683195 0.12999999999999995 0.07483314773547457
30.449999999999996 2.679 33.291999999999994 1.875 2.0260000000000002 48.18202769999999 11.6138212 10.900000000000002 554.1 2.3600000000000003 1.2700000000000002 0.06999999999999999 -0.43 -3.55 104.0 0.2872281323269012 0.03726929030716839 0.8183495585628431 1.0714312857108477 0.24642240157907716 6.116371472753464e-06 5.23067873218527e-06 0.044721359549995635 0.04472135955000596 0.04898979485566361 0.04582575694955844 0.045825756949558406 0.21 0.11180339887498958 0.044721359549993255
31.449999999999996 2.63 35.902 1.0470000000000002 2.833 48.1820488 11.6138395 10.8 554.0 2.3 1.27 0.04 0.21999999999999997 -3.91 103.92999999999999 0.2872281323269012 0.020000000000000104 0.773418386127458 0.984774593498431 0.5684197392772351 6.0299253725314545e-06 5.315072906734267e-06 0.0 0.0 0.0 0.04582575694955844 0.048989794855663564 0.12489995996796797 0.12999999999999992 0.04582575694955579
32.45 2.5949999999999998 38.590999999999994 1.302 5.136 48.182069 11.613858400000002 10.83 554.03 2.3 1.2200000000000002 0.04 0.15000000000000002 -3.91 103.97 0.2872281323269009 0.015000000000000081 0.7741117490388578 1.1691689356119586 0.7197110531317412 5.7445626463823975e-06 5.332916650775038e-06 0.04582575694955824 0.04582575694956882 0.0 0.040000000000000036 0.048989794855663564 0.05 0.22113344387495978 0.06403124237432485
33.45 2.63 41.301 2.549 7.683000000000002 48.1820881 11.6138789 10.900000000000002 554.1000000000001 2.3 1.2799999999999998 0.02 0.8800000000000001 -3.7700000000000005 104.05999999999999 0.2872281323269009 0.020000000000000104 0.7424479779755623 0.05300000000000003 0.7313145697987975 5.593746508495391e-06 5.838664230766807e-06 0.044721359549995635 0.04472135955000596 0.0 0.040000000000000036 0.04 0.26000000000000006 0.08999999999999989 0.04898979485566078
34.45 2.504 43.784000000000006 2.038 10.146 48.182106700000006 11.613897300000001 10.98 554.1800000000001 2.2299999999999995 1.14 0.04 0.8300000000000001 -4.14 103.9 0.2872281323269009 0.05817215828899589 0.6942074617864598 0.7667437642393969 0.6893649251303694 5.386093203932566e-06 5.177837386370557e-06 0.039999999999999855 0.0400000000000091 0.04582575694955824 0.048989794855663495 0.048989794855663564 0.1417744687875783 0.21071307505705486 0.0
35.45 2.432 46.20899999999999 1.6330000000000002 12.596 48.18212530000001 11.6139158 11.040000000000001 554.24 2.2 1.03 0.1 0.22999999999999998 -4.470000000000001 103.91000000000001 0.2872281323269009 0.018330302779823376 0.7079752820543962 0.9879175066775565 0.7045026614570024 5.1778373869674985e-06 5.473572873620416e-06 0.04898979485566339 0.048989794855619 0.0 0.04582575694955844 0.0 0.26095976701399776 0.1004987562112087 0.029999999999998295
36.45 2.159 48.551 1.509 14.862 48.1821426 11.613932400000001 10.97 554.1700000000001 1.9400000000000002 0.9400000000000001 0.15000000000000005 1.4300000000000002 1.5800000000000005 104.13 0.2872281323269009 0.28706967795293187 0.5979038384222002 0.8439721559388081 0.6005131139284138 4.543126676931169e-06 4.43170396110598e-06 0.04582575694955824 0.04582575694956882 0.26907248094147423 0.10198039027185571 0.05000000000000001 1.5152887513606113 7.779177334397256 0.2238302928559921
37.45 0.35 49.722 0.33899999999999997 15.915000000000001 48.18215049999999 11.613940600000001 10.98 554.1800000000001 0.32 0.13000000000000003 0.07 2.0300000000000002 5.53 104.15 0.2872281323269009 0.3602221536774217 0.07984985911070772 0.31643166718898413 0.051234753829798335 4.999999987376214e-07 4.898979490602294e-07 0.039999999999999855 0.0400000000000091 0.31874754901018454 0.17349351572897473 0.045825756949558406 1.6781239525136395 4.314406100496336 0.2617250465660456
38.55714285714286 0.07142857142857142 50.03285714285714 0.17857142857142855 15.651428571428571 48.18214785714285 11.613939142857145 11.085714285714285 554.2857142857143 -0.08571428571428572 0.0 0.07142857142857142 0.37142857142857144 -1.9714285714285715 104.07142857142857 0.2770102775666471 0.045175395145262566 0.11335333957072814 0.12111724796700939 0.06937034595530873 6.388765652027281e-07 3.4992710584999697e-07 0.03499271061118814 0.03499271061115643 0.03499271061118826 0.0 0.045175395145262566 0.29137254363387344 0.9909797254871214 0.04517539514526
39.45 0.02 50.211 0.11699999999999999 15.581 48.182147 11.61394 10.99 554.1900000000002 -0.02 0.0 0.09 1.2099999999999997 -2.95 103.95 0.2872281323269009 0.04 0.032078029864690945 0.02758622844826745 0.011357816691600306 0.0 4.4721359556246853e-07 0.053851648071344856 0.05385164807133406 0.04 0.0 0.030000000000000002 0.38587562763149474 0.1565247584249853 0.06708203932498988
40.45 0.0 50.355 0.10800000000000001 15.660999999999998 48.182147 11.613942000000002 10.900000000000002 554.1000000000001 0.0 0.0 0.04 1.5599999999999998 -2.0 103.62 0.2872281323269009 0.0 0.04522167621837922 0.08084553172563094 0.03112876483254662 0.0 7.745966693497549e-07 1.7763568394002505e-15 1.1368683772161603e-13 0.0 0.0 0.048989794855663564 0.30397368307141326 0.4147288270665544 0.17204650534084936
41.45 0.030000000000000006 50.462 0.05700000000000001 15.738999999999999 48.182147 11.613943000000003 11.01 554.21 0.030000000000000006 0.0 -0.48 0.6900000000000001 -1.6600000000000001 103.47999999999999 0.2872281323269009 0.045825756949558406 0.016613247725835154 0.032572994949804666 0.013747727084867227 0.0 1.7763568394002505e-15 0.1374772708486751 0.13747727084865932 0.045825756949558406 0.0 0.46216880033165375 0.4614108798023731 0.26532998322843204 0.10770329614268766
42.45 0.07 50.518 0.051000000000000004 15.755 48.182147 11.613943000000003 12.15 555.35 0.07 0.0 -1.46 0.19000000000000006 -0.65 103.34 0.2872281323269009 0.045825756949558406 0.013999999999999957 0.030805843601498725 0.004999999999999893 0.0 1.7763568394002505e-15 0.42720018726587655 0.4272001872658766 0.045825756949558406 0.0 0.048989794855663606 0.29816103031751146 0.40558599581346494 0.13564659966250855
43.45 0.0 50.61300000000001 0.13 15.706999999999999 48.1821464 11.613943300000003 13.790000000000001 556.99 0.0 0.0 -1.7 0.58 -1.72 103.54 0.2872281323269009 0.0 0.03822302970723293 0.024083189157584596 0.016763054614240613 4.898979473197622e-07 4.5825756915262385e-07 0.5107837115648852 0.5107837115648701 0.0 0.0 0.06324555320336757 0.3919183588453085 0.4749736834815167 0.048989794855660775
44.45 0.0 50.726 0.085 15.733 48.1821465 11.613944 15.660000000000002 558.8599999999999 0.0 0.0 -1.8499999999999996 0.4600000000000001 -1.51 103.5 0.2872281323269009 0.0 0.026153393661244053 0.03981205847478877 0.01951922129594311 4.999999987376214e-07 0.0 0.5332916650389355 0.5332916650389355 0.0 0.0 0.04999999999999993 0.39547439866570383 0.4526588119102509 0.1095445115010322
45.45 0.0 50.782000000000004 0.026000000000000002 15.741 48.1821468 11.613944 17.6 560.8 0.01 0.0 -1.95 1.1 -2.2299999999999995 103.75999999999999 0.2872281323269009 0.0 0.012489995996795563 0.02154065922853802 0.009433981132056403 3.999999989900971e-07 0.0 0.5744562646538031 0.5744562646538108 0.030000000000000002 0.0 0.05000000000000005 0.232379000772445 0.19 0.04898979485566078
46.45 0.06999999999999999 50.852999999999994 0.08199999999999999 15.802000000000001 48.182147 11.6139443 19.669999999999998 562.87 0.06999999999999999 0.0 -1.9299999999999997 1.4899999999999998 -1.6 103.72 0.2872281323269009 0.045825756949558406 0.02609597670139976 0.02821347195933177 0.025219040425837207 0.0 4.5825756915262385e-07 0.5386093203798095 0.5386093203798112 0.045825756949558406 0.0 0.04582575694955844 0.3080584360149873 0.18973665961010278 0.07483314773547912
47.41111111111111 0.03333333333333334 50.93666666666667 0.05333333333333333 15.881111111111112 48.18214777777777 11.613945 21.566666666666666 564.7666666666668 0.03333333333333334 0.0 -1.9666666666666666 1.7111111111111112 -1.088888888888889 103.67777777777779 0.27666443551086056 0.04714045207910317 0.015634719199412023 0.03972125095937662 0.01791612832955265 4.157397085919072e-07 0.0 0.5962847939999443 0.5962847939999404 0.04714045207910317 0.0 0.047140452079103216 0.19688939051854837 0.1791612832955233 0.04157397096415845
48.45 0.0 51.01200000000001 0.04 15.943000000000001 48.182148 11.613945099999999 23.220000000000002 566.4200000000001 0.0 0.0 -0.72 1.9099999999999997 -1.3299999999999996 103.50999999999999 0.2872281323269009 0.0 0.0213541565040627 0.04312771730569565 0.017916472867169138 0.0 3.000000003083869e-07 0.20880613017821056 0.2088061301782182 0.0 0.0 0.5929586832149437 0.3618010503025109 0.4148493702538308 0.08306623862917928
49.45 0.0 51.166 0.14500000000000002 16.07 48.18214869999999 11.6139467 23.459999999999997 566.6600000000001 0.0 0.0 -0.2 2.04 -1.7600000000000002 103.62 0.2872281323269009 0.0 0.05200000000000056 0.09478923989567593 0.045825756949558046 4.5825757159471084e-07 4.5825756915262385e-07 0.08000000000000114 0.07999999999997841 0.0 0.0 0.22360679774997896 0.1854723699099141 0.45210618221829263 0.10770329614268977
50.45 0.030000000000000006 51.33200000000001 0.11599999999999999 16.169999999999998 48.1821499 11.6139466 23.71 566.9100000000001 0.04 0.0 -0.21000000000000002 1.01 -0.16 103.67999999999999 0.2872281323269009 0.045825756949558406 0.04445222154178511 0.06651315659326357 0.017320508075688815 2.999999992425728e-07 4.898979481899958e-07 0.05385164807134508 0.05385164807135729 0.048989794855663564 0.0 0.24677925358506134 0.39357337308308854 0.27640549922170504 0.08717797887081503
51.45 0.0 51.439 0.08499999999999999 16.215 48.18214999999999 11.613947 24.279999999999998 567.4799999999999 0.0 0.0 -0.68 0.82 -0.72 103.58 0.2872281323269009 0.0 0.02300000000000043 0.02539685019840059 0.01024695076595964 7.105427357601002e-15 0.0 0.208806130178211 0.20880613017822253 0.0 0.0 0.34292856398964494 0.17204650534085256 0.3709447398198282 0.1248999599679661
52.45 0.07 51.54 0.15099999999999997 16.133000000000003 48.1821498 11.6139465 24.6 567.8 -0.07 0.0 -0.030000000000000006 1.02 0.9899999999999999 103.85 0.2872281323269009 0.12688577540449522 0.04449719092257486 0.08960468737739115 0.040755367744629796 3.999999989900971e-07 4.999999996257998e-07 0.0 0.0 0.12688577540449522 0.0 0.06403124237432849 0.19899748742132398 3.724902683292545 0.15652475842498276
53.45 1.431 52.26899999999999 1.0790000000000002 15.442000000000002 48.1821434 11.613943 24.560000000000002 567.76 -1.42 -0.29 0.0 1.18 12.04 103.35 0.2872281323269009 0.5778659013992778 0.4633886058158959 0.6167730538861113 0.43599999999999983 4.152107898737577e-06 2.0976176961253967e-06 0.04898979485566426 0.048989794855619 0.5775811631277461 0.15132745950421556 0.0 0.19390719429665312 1.7385051049680582 0.366742416417845
54.5 2.658888888888889 54.75777777777778 2.9377777777777774 13.205555555555556 48.18212233333334 11.613932333333333 24.56666666666667 567.7666666666667 -2.588888888888889 -0.6 -0.011111111111111112 0.8555555555555556 5.4 103.15555555555557 0.25819888974716054 0.09938079899999065 0.7053254217857762 0.7441442180679432 0.6265799782436413 6.073622386360216e-06 2.9814239700854524e-06 0.04714045207910384 0.04714045207906029 0.09938079899999075 0.0 0.03142696805273545 0.0831479419283098 0.7731609003162135 0.049690399499999566
55.45 2.8419999999999996 57.376999999999995 2.8080000000000007 10.973000000000003 48.1820996 11.6139215 24.5 567.7 -2.7800000000000002 -0.5999999999999999 0.0 1.4300000000000002 4.090000000000001 103.35 0.2872281323269009 0.03599999999999994 0.7784221219878059 0.040938978980917445 0.6526875209470453 7.073895673088381e-06 2.8722813231911988e-06 0.0 0.0 0.039999999999999855 1.1102230246251565e-16 0.0 0.2794637722496424 0.2467792535850613 0.12845232578665008
56.45 2.86 60.21299999999999 1.6810000000000003 8.861999999999998 48.182075 11.6139111 24.44 567.6400000000001 -2.8 -0.5999999999999999 0.0 1.5500000000000003 3.8299999999999996 103.58000000000001 0.2872281323269009 0.0 0.8222900947962349 1.2207985091734015 0.5516665659617229 7.141428429217702e-06 3.300000000006412e-06 0.04898979485566426 0.0489897948556747 0.0 1.1102230246251565e-16 0.0 0.3324154027718933 0.15524174696260012 0.10770329614269028
57.45 2.77 63.013 1.843 7.281000000000001 48.1820508 11.6139005 24.4 567.6000000000001 -2.7 -0.5999999999999999 0.0 1.4100000000000001 3.9800000000000004 103.59 0.2872281323269009 0.0 0.8062760073324758 1.0459737090386163 0.33980729833245193 6.690291473296405e-06 2.8722813233148884e-06 0.0 1.1368683772161603e-13 0.0 1.1102230246251565e-16 0.0 0.11357816691600549 0.08717797887081342 0.05385164807134488
58.45 2.77 65.67699999999999 1.9739999999999998 6.559 48.1820278 11.6138896 24.45 567.65 -2.7 -0.5999999999999999 0.0 1.25 3.9899999999999998 103.6 0.2872281323269009 0.0 0.7695329752518719 1.0622636207646385 0.0798060148109152 6.690291472425524e-06 3.039736830484517e-06 0.05000000000000071 0.050000000000011376 0.0 1.1102230246251565e-16 0.0 0.08062257748298549 0.1135781669160055 0.0
59.45 2.77 68.27000000000001 1.066 6.904000000000001 48.182004500000005 11.613879500000001 24.4 567.6000000000001 -2.7 -0.5999999999999999 -0.02 1.22 3.8 103.64000000000001 0.2872281323269009 0.0 0.8012490249604044 1.0851838553904125 0.25279240494919936 6.7416615159574424e-06 2.8722813232839662e-06 0.0 1.1368683772161603e-13 0.0 1.1102230246251565e-16 0.04 0.07483314773547882 0.04472135954999574 0.04898979485566774
60.45 2.786 71.003 1.1560000000000001 8.1 48.181981799999996 11.6138688 24.419999999999998 567.6200000000001 -2.7 -0.6900000000000001 -0.05 1.02 3.7599999999999993 103.72 0.2872281323269009 0.008000000000000007 0.790241102449117 1.060407468853365 0.4300000000000003 6.446704584594462e-06 3.24961536175104e-06 0.04000000000000057 0.0400000000000091 0.0 0.029999999999999992 0.05000000000000001 0.1661324772583615 0.11135528725660036 0.05999999999999943
61.5125 2.79 73.67125 0.59625 9.954999999999998 48.181957749999995 11.613856250000001 24.575000000000003 567.775 -2.7 -0.7 -0.05 0.75 3.3874999999999997 103.67500000000001 0.2847696437473623 0.0 0.7744907601127352 0.5393731894523495 0.5454814387309619 6.359048671030548e-06 3.665719574742169e-06 0.04330127018922255 0.04330127018918255 0.0 0.0 0.05 0.13228756555322954 0.07806247497998005 0.043301270189225624
62.45 2.71 76.314 0.758 11.879 48.1819369 11.6138446 24.54 567.74 -2.66 -0.7 0.0 0.61 3.3600000000000003 103.6 0.2872281323269009 0.040000000000000036 0.9063575453428975 1.1581519762103765 0.622486144424115 6.394528911711099e-06 3.3226495449473487e-06 0.04898979485566426 0.048989794855619 0.048989794855663606 0.0 0.0 0.05385164807134503 0.13564659966250533 0.0
63.45 2.74 79.31375 0.98 14.14875 48.181914500000005 11.613832375000001 24.637500000000003 567.8375 -2.6375 -0.7 0.0 0.5499999999999999 3.2375 103.6625 0.32015621187164184 0.050000000000000044 1.003181657278479 1.2653754383581182 0.7396863777980502 7.228416146782784e-06 4.328322423153139e-06 0.06959705453537467 0.06959705453536302 0.048412291827592754 0.0 0.0 0.1322875655532295 0.08569568250501294 0.06959705453537769
64.45 1.791 81.92600000000002 1.7279999999999998 16.219 48.1818947 11.61382 24.65 567.8499999999999 -1.7200000000000002 -0.5 0.0 0.009999999999999986 -10.25 103.82000000000001 0.2872281323269024 0.7351795699011229 0.48959575161555424 0.7503839017462994 0.4164000480307371 3.925557284761148e-06 3.0000000001232747e-06 0.04999999999999894 0.050000000000011376 0.7138627319029899 0.17888543819998315 0.0 0.3884584919911006 5.742691006836429 0.08717797887081503
65.45 0.13399999999999998 82.569 0.074 16.689 48.181890200000005 11.613816 24.699999999999996 567.8999999999999 -0.11000000000000001 -0.030000000000000006 0.0 0.26 -3.94 103.95 0.2872281323269024 0.1533101431738944 0.02981610303175091 0.08788629017087932 0.019209372712298552 3.999999989900971e-07 0.0 3.552713678800501e-15 1.1368683772161603e-13 0.13747727084867523 0.045825756949558406 0.0 0.38 2.1000952359357417 0.049999999999997165
66.45 0.0 82.63399999999999 0.028000000000000004 16.659999999999997 48.181891 11.613816 24.73 567.9300000000001 0.0 0.0 -0.25 0.11999999999999997 -0.99 104.30999999999999 0.2872281323269024 0.0 0.011135528725660381 0.0132664991614216 0.004472135955000279 0.0 0.0 0.06403124237432845 0.06403124237434304 0.0 0.0 0.36124783736376886 0.34292856398964494 0.5068530358989675 0.26248809496813447
67.45 0.0 82.68900000000001 0.064 16.656 48.181891 11.6138157 25.68 568.88 0.0 0.0 -1.5500000000000003 -0.3 -0.32 104.35 0.2872281323269024 0.0 0.02467792535850511 0.04454211490264018 0.006633249580711837 0.0 4.5825756915262385e-07 0.46432747064975577 0.4643274706497548 0.0 0.0 0.22472205054244232 0.23664319132398465 0.4142463035441596 0.1024695076595964
68.45 0.078 82.83399999999999 0.195 16.752000000000002 48.1818896 11.613814600000001 27.570000000000004 570.77 -0.06999999999999999 0.02 -1.9899999999999998 -0.7599999999999999 -0.6599999999999999 104.13 0.2872281323269024 0.05325410782277739 0.06167657578043846 0.034999999999999996 0.057236352085016574 4.898979508006965e-07 4.898979490602293e-07 0.6116371473349209 0.6116371473349272 0.045825756949558406 0.04 0.03000000000000003 0.24166091947189144 0.5043808085167397 0.09000000000000088
69.45 0.14000000000000004 83.023 0.13499999999999998 16.924 48.1818882 11.613815300000002 29.640000000000004 572.84 -0.1 0.1 -2.0100000000000002 0.33999999999999997 -1.81 104.21000000000001 0.2872281323269024 2.7755575615628914e-17 0.04360045871318333 0.06168468205316455 0.03878143885933081 3.999999989900971e-07 4.5825756915262385e-07 0.616765757804371 0.6167657578043708 0.0 0.0 0.05385164807134509 0.463033476111609 0.518555686498567 0.029999999999998295
70.45 0.08 83.12199999999999 0.05700000000000001 16.991999999999997 48.181888 11.613816 31.65 574.8499999999999 0.0 0.08 -1.94 0.96 -2.31 104.28999999999999 0.2872281323269024 0.04 0.0153622914957386 0.030016662039607272 0.007483314773547913 0.0 0.0 0.5315072906367321 0.5315072906367325 0.0 0.04 0.048989794855663606 0.14966629547095764 0.46141087980237305 0.029999999999998295
71.45 0.0 83.165 0.036000000000000004 16.982 48.181888 11.613816 33.51 576.71 0.0 0.0 -1.8999999999999997 0.76 -1.61 104.19000000000001 0.2872281323269024 0.0 0.012041594578793145 0.019595917942265426 0.00871779788708108 0.0 0.0 0.5593746508378797 0.5593746508378838 0.0 0.0 2.220446049250313e-16 0.39799497484264795 0.18138357147217055 0.030000000000002556
72.45 0.0 83.2 0.03 16.967000000000002 48.181888 11.613816 35.510000000000005 578.7099999999999 0.0 0.0 -1.9299999999999997 0.45 -1.28 104.2 0.2872281323269024 0.0 0.0077459666924132925 0.01264911064067352 0.004582575694954929 0.0 0.0 0.5906775770248947 0.5906775770249063 0.0 0.0 0.04582575694955844 0.30083217912982646 0.12489995996796793 0.0
73.45 0.0 83.23299999999999 0.019 16.988999999999997 48.18188790000001 11.613816 37.6 580.8 0.0 0.0 -1.92 0.95 -1.64 104.18000000000002 0.2872281323269024 0.0 0.010999999999999425 0.021189620100417087 0.010440306508910651 2.9999999924257285e-07 0.0 0.5744562646538024 0.5744562646538108 0.0 0.0 0.040000000000000036 0.13601470508735447 0.2576819745345026 0.04000000000000341
74.45 0.0 83.28799999999998 0.045 17.029999999999998 48.181887 11.613815800000001 39.63 582.83 0.0 0.0 -1.97 0.6799999999999999 -2.17 104.12 0.2872281323269024 0.0 0.016613247725836437 0.019621416870348584 0.007745966692414669 0.0 3.9999999970063985e-07 0.6116371473349212 0.6116371473349191 0.0 0.0 0.04582575694955844 0.30594117081556715 0.1734935157289747 0.04000000000000341
75.45 0.0 83.33 0.041999999999999996 17.056 48.181887 11.613816 41.64 584.8399999999999 0.0 0.0 -1.78 0.9200000000000002 -2.39 104.10999999999999 0.2872281323269024 0.0 0.01183215956620048 0.030265491900843114 0.007999999999999651 0.0 0.0 0.5332916650389353 0.5332916650389338 0.0 0.0 0.07483314773547882 0.26 0.18138357147217055 0.030000000000002556
76.45 0.0 83.377 0.041999999999999996 17.076 48.181887 11.613816 43.46000000000001 586.66 0.0 0.0 -1.67 1.13 -2.53 104.06999999999998 0.2872281323269024 0.0 0.011874342087038248 0.021354156504062624 0.004898979485565382 0.0 0.0 0.5332916650389351 0.5332916650389338 0.0 0.0 0.04582575694955834 0.06403124237432845 0.18999999999999997 0.0458257569495558
77.45 0.0 83.435 0.075 17.079999999999995 48.181887 11.613815500000001 45.22 588.42 0.0 0.0 -1.55 0.8 -2.37 104.0 0.2872281323269024 0.0 0.02334523505985575 0.02539685019840059 3.552713678800501e-15 0.0 4.999999996257998e-07 0.4955804677345547 0.49558046773456094 0.0 0.0 0.05000000000000005 0.2966479394838265 0.17349351572897467 0.0
78.45 0.0 83.501 0.047 17.089000000000002 48.181887 11.6138145 46.800000000000004 589.9999999999999 0.0 0.0 -1.42 0.66 -2.63 104.05 0.2872281323269024 0.0 0.014456832294800492 0.019519221295943138 0.005385164807135346 0.0 5.000000005139781e-07 0.43588989435406733 0.435889894354083 0.0 0.0 0.040000000000000036 0.16852299546352717 0.29681644159311654 0.049999999999997165
79.45 0.0 83.55100000000002 0.06599999999999999 17.11 48.181886500000005 11.613814000000001 48.21 591.41 0.0 0.0 -1.21 0.78 -2.79 104.0 0.2872281323269024 0.0 0.022113344387495598 0.020591260281974 0.01183215956619838 5.00000002290335e-07 1.7763568394002505e-15 0.34190641994557575 0.3419064199455794 0.0 0.0 0.16999999999999996 0.09797958971132716 0.15779733838059495 0.06324555320336399
80.45 0.0 83.62299999999999 0.05500000000000001 17.169 48.181886000000006 11.613813599999997 49.169999999999995 592.3700000000001 0.0 0.0 -0.5900000000000001 0.7299999999999999 -3.1399999999999997 104.04 0.2872281323269024 0.0 0.021000000000002083 0.025787593916455253 0.017578395831247613 7.105427357601002e-15 4.898979481899958e-07 0.205182845286832 0.2051828452868337 0.0 0.0 0.2343074902771996 0.12688577540449522 0.40546269865426593 0.048989794855660775
81.45 0.0 83.674 0.031000000000000007 17.198 48.181886000000006 11.613812999999999 49.39999999999999 592.6000000000001 0.0 0.0 -0.01 0.89 -2.9 104.13 0.2872281323269024 0.0 0.012000000000000455 0.023430749027719962 0.009797958971132722 7.105427357601002e-15 1.7763568394002505e-15 7.105427357601002e-15 1.1368683772161603e-13 0.0 0.0 0.03 0.12206555615733705 0.1949358868961793 0.07810249675906847
82.45 0.0 83.717 0.049 17.194 48.181886000000006 11.613812999999999 49.39999999999999 592.6000000000001 0.0 0.0 0.0 0.85 -2.86 104.13 0.2872281323269024 0.0 0.016763054614239714 0.017578395831246946 0.009165151389911563 7.105427357601002e-15 1.7763568394002505e-15 7.105427357601002e-15 1.1368683772161603e-13 0.0 0.0 0.0 0.16278820596099708 0.2690724809414742 0.0458257569495623
83.45 0.01 83.76299999999999 0.04 17.229000000000003 48.1818852 11.613812999999999 49.39999999999999 592.6000000000001 0.0 0.01 0.0 0.8099999999999999 -3.53 104.17 0.2872281323269024 0.030000000000000002 0.012688577540449851 0.011832159566199232 0.011357816691599758 3.999999989900971e-07 1.7763568394002505e-15 7.105427357601002e-15 1.1368683772161603e-13 0.0 0.030000000000000002 0.0 0.13000000000000003 2.2271281956816047 0.0458257569495623
84.45 1.423 84.333 1.1400000000000001 16.698999999999998 48.1818902 11.6138149 49.36999999999999 592.57 1.3800000000000001 0.41 0.0 1.32 -17.990000000000002 103.83 0.2872281323269024 0.7435865786846881 0.5001209853625433 0.8907524908749905 0.4755092007522039 4.354308210800223e-06 1.868154168931813e-06 0.045825756949559045 0.04582575694956882 0.7359347797189639 0.19209372712298545 0.0 0.08717797887081347 3.8684493017228494 0.14177446878757832
85.45 2.659 86.82900000000001 2.732 14.428 48.181911400000004 11.613825600000002 49.33 592.53 2.5400000000000005 0.79 0.0 1.6800000000000002 -9.150000000000002 103.74000000000001 0.2872281323269024 0.08203048213926344 0.8068884681292694 0.05946427498927403 0.7235302343371699 6.8293484306985884e-06 3.6660605558568938e-06 0.045825756949559045 0.04582575694956882 0.08000000000000007 0.030000000000000023 0.0 0.22715633383201092 1.0298058069364342 0.04898979485566078
86.45 2.82 89.61500000000001 2.7619999999999996 11.96 48.1819351 11.6138374 49.269999999999996 592.4699999999999 2.7 0.8 0.0 1.77 -7.4 103.8 0.2872281323269024 0.0 0.8079139805697139 0.0337045990927054 0.7123341912333003 7.020683728111765e-06 3.0397368306948934e-06 0.04582575694955579 0.045825756949568815 0.0 0.0 0.0 0.2193171219946131 0.21908902300206654 0.04472135954999643
87.45 2.9010000000000002 92.452 2.5530000000000004 9.512 48.18196 11.613847499999999 49.2 592.3999999999999 2.79 0.8 -0.05 1.7400000000000002 -6.82 103.91 0.2872281323269024 0.02700000000000009 0.8368608008504148 0.8524324020120305 0.690764793544083 7.141428428720223e-06 2.8722813233148884e-06 0.0 1.1368683772161603e-13 0.0299999999999999 0.0 0.05000000000000001 0.128062484748657 0.2399999999999999 0.029999999999998295
88.45 2.906 95.351 2.156 7.279999999999999 48.18198550000001 11.613857200000002 49.2 592.3999999999999 2.8 0.79 -0.06 1.7899999999999998 -6.380000000000001 103.94000000000001 0.2872281323269024 0.008000000000000007 0.866769288796044 1.1574817493161609 0.5749086884019062 7.228416148711893e-06 2.5219040426121943e-06 0.0 1.1368683772161603e-13 0.0 0.030000000000000023 0.048989794855663564 0.23000000000000004 0.1777638883463118 0.048989794855660775
89.45 2.844 98.214 1.8169999999999997 5.7059999999999995 48.18201080000001 11.6138661 49.2 592.3999999999999 2.75 0.72 -0.05 1.8500000000000003 -6.31 103.88 0.2872281323269024 0.054442630355264844 0.8039676610411648 1.0890826414923709 0.3086162665836005 7.180529229850522e-06 2.4677925360048047e-06 0.0 1.1368683772161603e-13 0.04999999999999982 0.040000000000000036 0.05000000000000001 0.15 0.13000000000000014 0.06000000000000227
90.45 2.79 101.12899999999999 2.502 5.324 48.1820355 11.613874599999999 49.2 592.3999999999999 2.7 0.7 -0.07 1.5100000000000002 -6.460000000000001 103.96 0.2872281323269024 0.0 0.80859693296475 0.8342397736861986 0.1180000000000001 7.22841614758146e-06 2.4576411453698405e-06 0.0 1.1368683772161603e-13 0.0 0.0 0.045825756949558406 0.28089143810376277 0.07999999999999971 0.048989794855660775
91.45 2.79 103.922 2.347 6.332999999999999 48.1820603 11.6138832 49.2 592.3999999999999 2.7 0.7 -0.06 1.6599999999999997 -6.210000000000001 103.95 0.2872281323269024 0.0 0.8378997553406966 0.8833691187719888 0.4509334762467742 6.986415389706911e-06 2.521904042612194e-06 0.0 1.1368683772161603e-13 0.0 0.0 0.048989794855663564 0.1624807680927192 0.05385164807134503 0.049999999999997165
92.45 2.716 106.71700000000001 2.694 8.197 48.1820845 11.613891999999998 49.22 592.4199999999998 2.6400000000000006 0.6299999999999999 -0.05 1.7 -6.319999999999999 103.97 0.2872281323269024 0.05660388679233967 0.7904941492509608 0.026907248094147407 0.6032918033588722 6.917369442103275e-06 2.4494897428354848e-06 0.039999999999997725 0.0400000000000091 0.048989794855663606 0.04582575694955839 0.05000000000000001 0.2792848008753788 0.11661903789690616 0.04582575694955579
93.45 2.6700000000000004 109.452 2.665 10.425 48.182108500000005 11.6139 49.2 592.3999999999999 2.6000000000000005 0.5999999999999999 -0.02 1.4899999999999998 -6.540000000000001 103.97999999999999 0.2872281323269024 4.440892098500626e-16 0.7791764883516449 0.03263433774416151 0.6728484227521083 6.741661515588558e-06 2.449489742690446e-06 0.0 1.1368683772161603e-13 4.440892098500626e-16 1.1102230246251565e-16 0.04 0.17578395831246943 0.11999999999999993 0.039999999999997725
94.45 2.682 112.133 2.2479999999999998 12.842000000000002 48.1821322 11.613908499999999 49.21 592.4099999999999 2.6000000000000005 0.6599999999999999 -0.030000000000000006 1.6199999999999999 -6.56 103.97999999999999 0.2872281323269024 0.009797958971132722 0.7778438146569007 0.8467443533912701 0.7144480386984068 6.690291473848671e-06 2.5787593912310324e-06 0.029999999999998295 0.030000000000006823 4.440892098500626e-16 0.04898979485566356 0.045825756949558406 0.21354156504062624 0.04898979485566339 0.039999999999997725
95.45 2.633 114.85499999999999 2.607 15.359000000000004 48.1821556 11.613917500000001 49.28 592.48 2.54 0.69 -0.02 1.94 -5.42 103.92 0.2872281323269024 0.04733920151417847 0.7647385174031699 0.035510561809129385 0.7250441365875592 6.726068688663384e-06 2.8722813232839662e-06 0.039999999999997725 0.0400000000000091 0.048989794855663606 0.029999999999999992 0.04 0.11135528725660046 2.994929047573582 0.039999999999997725
96.45 1.24 116.80900000000001 0.495 17.259999999999998 48.1821731 11.6139241 49.3 592.5 0.9799999999999999 0.26 0.0 1.54 9.120000000000001 104.35 0.2872281323269024 0.6883894246718204 0.2535527558517179 0.7511624325004547 0.23929061828663434 2.300000001205806e-06 9.433981131021599e-07 0.0 0.0 0.7236021006050217 0.21999999999999997 0.0 0.6666333324999584 5.0712523108202765 0.27294688127912037
97.45 0.030000000000000006 117.30499999999999 0.125 17.32 48.18217500000001 11.6139212 49.3 592.5 0.01 -0.04 -0.02 -0.39 -1.45 104.26000000000002 0.2872281323269024 0.045825756949558406 0.10993179703798034 0.1412975583653164 0.05422176684690386 7.105427357601002e-15 1.469693845923684e-06 0.0 0.0 0.03 0.048989794855663564 0.04 0.7475961476626268 0.9583840566286566 0.048989794855660775
98.45 0.04 117.497 0.05600000000000001 17.241000000000003 48.18217500000001 11.613919099999999 49.3 592.5 0.0 0.04 0.0 0.18 -3.2300000000000004 104.2 0.2872281323269024 0.048989794855663564 0.01846618531262037 0.03136877428271625 0.003000000000000469 7.105427357601002e-15 3.000000003083869e-07 0.0 0.0 0.0 0.048989794855663564 0.0 0.6523802572120037 0.31 0.0
99.45 0.09 117.57600000000002 0.10800000000000001 17.271 48.18217500000001 11.6139203 49.25 592.4499999999999 0.0 0.09 0.0 1.2100000000000002 -3.3299999999999996 104.14000000000001 0.2872281323269024 0.030000000000000002 0.031999999999998696 0.03458323293158117 0.022113344387495886 7.105427357601002e-15 4.5825756915262385e-07 0.049999999999997165 0.05000000000001137 0.0 0.030000000000000002 0.0 0.19209372712298545 0.2685144316419511 0.04898979485566774
100.45 0.0 117.702 0.11200000000000002 17.293 48.18217440000001 11.6139217 49.24 592.4399999999999 0.0 0.0 -0.06999999999999999 1.23 -2.88 104.1 0.2872281323269024 0.0 0.0324961536185428 0.026381811916545834 0.014866068747318202 4.898979473197623e-07 4.582575699666528e-07 0.048989794855660775 0.0489897948556747 0.0 0.0 0.045825756949558406 0.17916472867168912 0.14 0.0
101.45 0.0 117.777 0.05600000000000001 17.253 48.18217400000001 11.613922 49.3 592.5 0.0 0.0 0.0 1.05 -2.56 104.08 0.2872281323269024 0.0 0.016763054614239714 0.011135528725660045 0.004582575694956556 7.105427357601002e-15 0.0 0.0 0.0 0.0 0.0 0.0 0.06708203932499372 0.11135528725660045 0.039999999999997725
102.45 0.0 117.85100000000003 0.069 17.265 48.18217400000001 11.613922800000001 48.940000000000005 592.14 0.0 0.0 0.6300000000000001 1.1600000000000001 -2.8400000000000003 104.13 0.2872281323269024 0.0 0.02808914381037532 0.04323193264243458 0.012041594578792555 7.105427357601002e-15 3.9999999970063985e-07 0.2727636339397165 0.2727636339397133 0.0 0.0 0.31 0.07999999999999996 0.2416609194718914 0.10049875621120954
103.43333333333334 0.0 117.93111111111112 0.03333333333333333 17.305555555555557 48.182174 11.613924 47.96666666666667 591.1666666666665 0.0 0.0 0.9222222222222223 1.6555555555555554 -3.1777777777777776 104.1888888888889 0.29814239699997336 0.0 0.020245407953651356 0.025819888974716116 0.01422916497207294 0.0 0.0 0.29814239699997125 0.29814239699997197 0.0 0.0 0.0415739709641549 0.13425606637327306 0.16850834320114555 0.031426968052738126
104.45 0.0 117.98299999999999 0.043000000000000003 17.337 48.18217400000001 11.613924 46.89 590.0899999999999 0.0 0.0 0.95 1.25 -2.95 104.10999999999999 0.2872281323269024 0.0 0.014177446878759265 0.024919871588754226 0.004582575694956556 7.105427357601002e-15 0.0 0.32999999999999974 0.3299999999999951 0.0 0.0 0.04999999999999999 0.36124783736376886 0.2109502310972899 0.0700000000000015
105.45 0.0 118.04400000000001 0.040999999999999995 17.344 48.18217400000001 11.6139238 45.8 589.0 0.0 0.0 0.99 0.26 -3.25 104.04 0.2872281323269024 0.0 0.016852299546352905 0.03014962686336267 0.0048989794855671225 7.105427357601002e-15 4.0000000041118254e-07 0.3316624790355404 0.33166247903553314 0.0 0.0 0.029999999999999992 0.21071307505705478 0.3694590640382234 0.04898979485566078
106.45 0.0 118.102 0.05 17.37 48.18217400000001 11.6139242 44.650000000000006 587.8499999999999 0.0 0.0 0.99 0.32999999999999996 -3.0799999999999996 104.02000000000001 0.2872281323269024 0.0 0.021817424229270604 0.02932575659723036 0.017888543819998135 7.105427357601002e-15 3.9999999970063985e-07 0.3612478373637691 0.3612478373637723 0.0 0.0 0.029999999999999992 0.14177446878757824 0.25612496949731395 0.039999999999997725
107.45 0.0 118.232 0.093 17.464000000000002 48.182174800000006 11.6139257 43.55 586.75 0.0 0.0 0.9400000000000001 0.8 -2.3499999999999996 104.11000000000001 0.2872281323269024 0.0 0.03026549190084207 0.04267317658670374 0.021540659228537193 3.999999989900971e-07 4.5825756915262385e-07 0.2872281323269009 0.28722813232691724 0.0 0.0 0.04898979485566356 0.33763886032268264 0.12041594578792292 0.07000000000000149
108.45 0.0 118.30999999999999 0.05900000000000001 17.494999999999997 48.18217500000001 11.613926199999998 42.55 585.75 0.0 0.0 0.9 1.0399999999999998 -2.8899999999999997 104.07000000000001 0.2872281323269024 0.0 0.01673320053067988 0.024269322199023193 0.01024695076596016 7.105427357601002e-15 4.0000000041118254e-07 0.2872281323269009 0.28722813232691724 0.0 0.0 0.0 0.22449944320643647 0.28442925306655786 0.04582575694955579
109.45 0.0 118.35300000000002 0.046 17.484 48.18217500000001 11.613925999999998 41.55 584.75 0.0 0.0 0.93 0.9700000000000001 -3.38 104.05 0.2872281323269024 0.0 0.013453624047073938 0.03746998799039039 0.0066332495807103365 7.105427357601002e-15 1.7763568394002505e-15 0.2872281323269009 0.28722813232691724 0.0 0.0 0.04582575694955839 0.09000000000000001 0.17204650534085256 0.049999999999997165
110.45 0.0 118.421 0.083 17.525 48.18217510000001 11.613925999999998 40.53 583.73 0.0 0.0 0.9800000000000001 0.5599999999999998 -3.19 104.03 0.2872281323269024 0.0 0.021189620100415994 0.03950949253027682 0.012041594578792112 2.9999999924257296e-07 1.7763568394002505e-15 0.3163858403911273 0.3163858403911319 0.0 0.0 0.039999999999999994 0.21071307505705478 0.22561028345356957 0.04582575694955579
111.45 0.0 118.5 0.068 17.581 48.182176000000005 11.613925599999998 39.45 582.65 0.0 0.0 0.95 0.65 -2.6900000000000004 104.08 0.2872281323269024 0.0 0.015491933384829338 0.0331058907144937 0.01445683229480118 7.105427357601002e-15 4.898979481899958e-07 0.2872281323269009 0.2872281323269014 0.0 0.0 0.04999999999999999 0.2765863337187866 0.14456832294800953 0.039999999999997725
112.45 0.0 118.55799999999999 0.036 17.615 48.182176000000005 11.6139257 38.36 581.56 0.0 0.0 0.9800000000000001 0.72 -2.9999999999999996 104.12 0.2872281323269024 0.0 0.013266499161419818 0.02289104628451919 0.008062257748298487 7.105427357601002e-15 4.5825756915262385e-07 0.3039736830714134 0.3039736830714098 0.0 0.0 0.039999999999999994 0.208806130178211 0.282842712474619 0.04000000000000341
113.45 0.0 118.602 0.019 17.630999999999993 48.182176000000005 11.613925999999998 37.29 580.49 0.0 0.0 0.9800000000000001 0.89 -3.31 104.19000000000001 0.2872281323269024 0.0 0.013266499161423459 0.018138357147217055 0.00538516480713462 7.105427357601002e-15 1.7763568394002505e-15 0.33000000000000046 0.32999999999999236 0.0 0.0 0.039999999999999994 0.24677925358506134 0.21189620100417092 0.053851648071346736
114.40000000000002 0.0 118.66444444444444 0.03222222222222223 17.671111111111113 48.182177 11.613926 36.26666666666667 579.4666666666667 0.0 0.0 0.9666666666666666 1.0666666666666669 -2.988888888888889 104.1 0.2581988897471611 0.0 0.019499920860870924 0.03258417399692263 0.009938079899999206 0.0 0.0 0.2981423969999731 0.2981423969999607 0.0 0.0 0.04714045207910316 0.3464101615137754 0.27666443551086073 0.04714045207910384
115.45000000000002 0.0 118.73500000000001 0.05700000000000001 17.711999999999996 48.182177100000004 11.6139251 35.12 578.3199999999999 0.0 0.0 0.96 1.1300000000000001 -2.71 104.13 0.2872281323269024 0.0 0.021563858652846334 0.03551056180912941 0.012489995996796644 2.999999992425728e-07 2.999999997754799e-07 0.32496153618543805 0.3249615361854472 0.0 0.0 0.04898979485566356 0.24515301344262524 0.19209372712298536 0.045825756949562306
116.45000000000002 0.0 118.806 0.054000000000000006 17.744 48.18217800000001 11.613924999999998 34.03 577.23 0.0 0.0 0.95 1.0 -2.71 104.09 0.2872281323269024 0.0 0.014966629547092977 0.029393876913398138 0.0048989794855671225 7.105427357601002e-15 1.7763568394002505e-15 0.3163858403911273 0.3163858403911319 0.0 0.0 0.04999999999999999 0.3924283374069717 0.3014962686336268 0.029999999999998295
117.45000000000002 0.0 118.85700000000001 0.038 17.749000000000002 48.18217800000001 11.613924999999998 32.94 576.1400000000001 0.0 0.0 0.9200000000000002 1.0699999999999998 -2.7199999999999998 104.08 0.2872281323269024 0.0 0.014177446878758363 0.026758176320519304 0.003000000000000469 7.105427357601002e-15 1.7763568394002505e-15 0.30397368307141304 0.3039736830714158 0.0 0.0 0.039999999999999994 0.25317977802344327 0.3280243893371345 0.039999999999997725
118.45000000000002 0.0 118.91000000000001 0.049 17.781000000000002 48.18217800000001 11.613924999999998 31.85 575.05 0.0 0.0 0.95 1.32 -2.21 104.08999999999999 0.2872281323269024 0.0 0.017888543820001115 0.02879236009777594 0.0164012194668563 7.105427357601002e-15 1.7763568394002505e-15 0.2872281323269016 0.28722813232689354 0.0 0.0 0.049999999999999996 0.24413111231467402 0.2844292530665578 0.05385164807134488
119.4888888888889 0.0 118.95333333333332 0.008888888888888889 17.796666666666667 48.182178 11.613925 30.72222222222222 573.9222222222222 0.0 0.0 0.9777777777777779 0.7777777777777778 -2.488888888888889 104.12222222222222 0.27666443551086095 0.0 0.009428090415819317 0.011967032904743342 0.004714045207911054 0.0 0.0 0.29731307022799236 0.29731307022799425 0.0 0.0 0.0415739709641549 0.24393887111222387 0.3142696805273544 0.04157397096415845
120.45000000000002 0.0 118.994 0.021 17.814999999999998 48.182178400000005 11.613924999999998 29.659999999999997 572.8599999999999 0.0 0.0 0.96 1.1 -2.64 104.10999999999999 0.2872281323269024 0.0 0.021071307505704524 0.03330165161069343 0.012041594578791523 4.898979473197623e-07 1.7763568394002505e-15 0.3039736830714132 0.3039736830714158 0.0 0.0 0.04898979485566355 0.39496835316262996 0.3555277766926236 0.05385164807134673
121.45000000000002 0.0 119.04199999999999 0.01 17.836 48.182179000000005 11.613924999999998 28.560000000000002 571.76 0.0 0.0 0.97 1.04 -2.5199999999999996 103.97999999999999 0.2872281323269024 0.0 0.022271057451320887 0.02 0.011135528725660763 7.105427357601002e-15 1.7763568394002505e-15 0.3039736830714133 0.30397368307141354 0.0 0.0 0.04582575694955839 0.3072458299147443 0.34871191548325386 0.10770329614268871
122.31666666666666 0.0 119.07833333333333 0.0033333333333333335 17.861666666666668 48.182179 11.613925 27.633333333333336 570.8333333333334 0.0 0.0 0.9500000000000001 0.7000000000000001 -2.6166666666666667 103.98333333333333 0.29107081994288575 0.0 0.0106718737290554 0.007453559924999299 0.003726779962500232 0.0 0.0 0.329983164553722 0.32998316455371685 0.0 0.0 0.04999999999999999 0.1414213562373095 0.06871842709362774 0.03726779962499438
123.45000000000002 0.0 119.13700000000001 0.05900000000000001 17.877999999999997 48.182179000000005 11.613925899999998 26.409999999999997 569.6099999999999 0.0 0.0 0.99 1.33 -2.53 104.02000000000001 0.2872281323269024 0.0 0.021000000000001472 0.02913760456866693 0.00871779788708108 7.105427357601002e-15 2.999999997754799e-07 0.33 0.3299999999999965 0.0 0.0 0.029999999999999992 0.1268857754044952 0.29 0.09797958971132416
124.45000000000002 0.0 119.2 0.06799999999999999 17.897999999999996 48.182179000000005 11.613925999999998 25.330000000000002 568.53 0.0 0.0 0.93 1.11 -2.61 104.08 0.2872281323269024 0.0 0.022803508501980093 0.039698866482558416 0.009797958971132795 7.105427357601002e-15 1.7763568394002505e-15 0.31638584039112755 0.31638584039112505 0.0 0.0 0.04582575694955839 0.37000000000000005 0.6236184731067546 0.07483314773547912
125.45000000000002 0.0 119.274 0.05800000000000001 17.933 48.182179000000005 11.6139264 24.229999999999997 567.43 0.0 0.0 0.9800000000000001 1.7499999999999996 -2.3000000000000003 104.08 0.2872281323269024 0.0 0.016248076809272538 0.0116619037896906 0.004582575694956556 7.105427357601002e-15 4.898979490602293e-07 0.3163858403911275 0.3163858403911265 0.0 0.0 0.039999999999999994 0.30083217912982646 0.4242640687119285 0.05999999999999943
126.45000000000002 0.0 119.32699999999997 0.039999999999999994 17.951 48.18217930000001 11.6139263 23.15 566.35 0.0 0.0 0.93 1.9599999999999997 -1.8400000000000003 104.88999999999999 0.2872281323269024 0.0 0.016763054614239714 0.0232379000772445 0.010440306508910039 4.5825757159471084e-07 4.582575699666528e-07 0.2872281323269017 0.2872281323269014 0.0 0.0 0.04582575694955839 0.16248076809271922 0.19595917942265426 0.7621679604916494
127.45000000000002 0.0 119.38300000000001 0.038 17.954 48.18218 11.613925999999998 22.15 565.35 0.0 0.0 0.93 1.9600000000000002 -2.0799999999999996 107.9 0.2872281323269024 0.0 0.016155494421404213 0.027129319932501072 0.004898979485567122 0.0 1.7763568394002505e-15 0.2872281323269017 0.2872281323269014 0.0 0.0 0.04582575694955839 0.15620499351813313 0.2521904042583698 0.9787747442593709
128.45 0.0 119.429 0.048 17.957 48.18218 11.613925799999999 21.15 564.35 0.0 0.0 0.9 1.42 -2.15 111.14000000000001 0.2872281323269034 0.0 0.016999999999999918 0.0331058907144937 0.004582575694956556 0.0 3.999999997006398e-07 0.2872281323269017 0.2872281323269014 0.0 0.0 0.0 0.20396078054371142 0.22912878474779197 0.9645724441429978
129.45 0.0 119.49600000000001 0.05600000000000001 17.984 48.18218 11.6139254 20.18 563.38 0.0 0.0 0.93 1.03 -1.4 114.14999999999998 0.2872281323269034 0.0 0.01428285685708644 0.022891046284519195 0.007999999999999651 0.0 4.898979481899958e-07 0.29933259094191605 0.2993325909419051 0.0 0.0 0.04582575694955839 0.26476404589747454 0.1414213562373095 0.8980534505250789
130.45 0.0 119.53799999999998 0.045 17.976999999999997 48.18218 11.613925499999999 19.21 562.4100000000001 0.0 0.0 0.93 1.4300000000000002 -1.3599999999999999 117.33999999999999 0.2872281323269034 0.0 0.016613247725836264 0.03383784863137727 0.004582575694956556 0.0 4.999999996257998e-07 0.2467792535850615 0.24677925358505662 0.0 0.0 0.04582575694955839 0.09000000000000001 0.26907248094147423 0.8464041587799528
131.45 0.0 119.61300000000001 0.05900000000000001 17.967999999999996 48.18218 11.6139245 18.25 561.45 0.0 0.0 0.95 0.9400000000000001 -1.57 119.2 0.2872281323269034 0.0 0.016763054614239714 0.042766809560686195 0.007483314773547534 0.0 4.999999996257998e-07 0.2872281323269014 0.2872281323268935 0.0 0.0 0.04999999999999999 0.1854723699099141 0.15524174696260024 0.0774596669241476
132.45 0.0 119.66400000000002 0.048 17.969 48.18218 11.613924699999998 17.25 560.45 0.0 0.0 0.97 1.2000000000000002 -1.14 119.10999999999999 0.2872281323269034 0.0 0.017999999999999104 0.028913664589601925 0.009433981132055931 0.0 4.5825756915262385e-07 0.2872281323269014 0.2872281323268935 0.0 0.0 0.04582575694955839 0.21908902300206642 0.26907248094147423 0.030000000000002556
133.45 0.0 119.724 0.034 17.99 48.18218 11.613924999999998 16.25 559.45 0.0 0.0 0.95 1.2899999999999998 -1.1099999999999999 119.02000000000001 0.2872281323269034 0.0 0.014282856857086442 0.032 0.008944271909999366 0.0 1.7763568394002505e-15 0.2872281323269012 0.2872281323268935 0.0 0.0 0.04999999999999999 0.10440306508910546 0.22999999999999998 0.039999999999997725
134.45 0.0 119.776 0.051000000000000004 17.965 48.18218 11.613924999999998 15.25 558.45 0.0 0.0 0.9400000000000001 1.0699999999999998 -1.15 119.10999999999999 0.2872281323269034 0.0 0.014282856857086442 0.012206555615733703 0.004999999999999005 0.0 1.7763568394002505e-15 0.2872281323269012 0.2872281323268935 0.0 0.0 0.04898979485566354 0.1268857754044952 0.2247220505424423 0.08306623862918219
135.45 0.0 119.84 0.064 17.997 48.1821805 11.613924999999998 14.25 557.45 0.0 0.0 0.96 0.8699999999999999 -0.33999999999999997 119.0 0.2872281323269034 0.0 0.018973665961011743 0.027640549922170504 0.012688577540449908 4.999999987376214e-07 1.7763568394002505e-15 0.2872281323269012 0.2872281323268935 0.0 0.0 0.04898979485566354 0.14866068747318506 0.31368774282716244 0.07745966692414394
136.45 0.0 119.917 0.07999999999999999 17.999000000000002 48.182181 11.6139241 13.280000000000001 556.48 0.0 0.0 0.9400000000000001 0.74 -0.15 118.94999999999997 0.2872281323269034 0.0 0.02647640458974758 0.0322490309931942 0.021656407827707655 0.0 2.999999997754799e-07 0.2521904042583697 0.25219040425836403 0.0 0.0 0.04898979485566356 0.06633249580710804 0.2202271554554524 0.09219544457292594
137.45 0.0 120.005 0.06000000000000001 17.958000000000002 48.182181 11.6139231 12.36 555.56 0.0 0.0 0.8300000000000001 0.45999999999999996 -0.01 119.16999999999999 0.2872281323269034 0.0 0.022912878474781 0.02863564212655271 0.0040000000000006255 0.0 3.000000003083869e-07 0.2727636339397172 0.27276363393970665 0.0 0.0 0.17349351572897473 0.21540659228538017 0.11357816691600546 0.10999999999999995
138.45 0.0 120.07099999999998 0.067 17.979999999999997 48.182181 11.613923199999999 11.89 555.0899999999999 0.0 0.0 0.27 0.85 0.13999999999999999 119.00000000000003 0.2872281323269034 0.0 0.022113344387494824 0.03226453160980335 0.017888543819998333 0.0 4.0000000041118254e-07 0.08306623862918086 0.08306623862919964 0.0 0.0 0.19519221295943134 0.20615528128088306 0.06633249580710801 0.1183215956619904
139.45 0.0 120.13300000000001 0.044 18.009 48.182181 11.613924 11.36 554.56 0.0 0.0 0.75 0.6599999999999999 0.17 119.17999999999999 0.2872281323269034 0.0 0.014866068747317603 0.014282856857085705 0.009433981132056835 0.0 0.0 0.22449944320643644 0.22449944320642776 0.0 0.0 0.06708203932499372 0.0916515138991168 0.11 0.08717797887081406
140.45 0.0 120.17999999999999 0.03200000000000001 17.977 48.182181 11.613924 10.56 553.76 0.0 0.0 0.71 0.7999999999999999 0.08 119.62 0.2872281323269034 0.0 0.013416407864999248 0.028565713714171402 0.006403124237433128 0.0 0.0 0.2244994432064366 0.2244994432064369 0.0 0.0 0.12206555615733704 0.1897366596101028 0.12489995996796796 0.13999999999999813
141.45 0.0 120.22 0.05 17.964 48.1821806 11.613924 10.129999999999999 553.3299999999999 0.0 0.0 0.06999999999999999 1.01 0.45 119.12 0.2872281323269034 0.0 0.014142135623730148 0.011832159566199233 0.007999999999999651 4.898979473197622e-07 0.0 0.04582575694955824 0.04582575694956882 0.0 0.0 0.11874342087037916 0.13000000000000003 0.206155281280883 0.23579652245102925
142.45 0.0 120.282 0.08099999999999999 17.917 48.18218 11.613924 10.15 553.3499999999999 0.0 0.0 0.0 0.4 0.11000000000000001 118.92999999999999 0.2872281323269034 0.0 0.02638181191654447 0.02343074902771996 0.02531797780234451 0.0 0.0 0.04999999999999983 0.050000000000011376 0.0 0.0 0.0 1.3145341380123985 0.3477067730142742 0.06403124237432774
