"avg_OSD.flyTime [s]" "avg_CUSTOM.hSpeed [m/s]" "avg_CUSTOM.distance [m]" "avg_CALC.hSpeed [m/s]" "avg_CALC.distance [m]" avg_OSD.latitude avg_OSD.longitude "avg_OSD.height [m]" "avg_OSD.altitude [m]" "avg_OSD.xSpeed [m/s]" "avg_OSD.ySpeed [m/s]" "avg_OSD.zSpeed [m/s]" avg_OSD.pitch avg_OSD.roll avg_OSD.yaw "stdDev_OSD.flyTime [s]" "stdDev_CUSTOM.hSpeed [m/s]" "stdDev_CUSTOM.distance [m]" "stdDev_CALC.hSpeed [m/s]" "stdDev_CALC.distance [m]" stdDev_OSD.latitude stdDev_OSD.longitude "stdDev_OSD.height [m]" "stdDev_OSD.altitude [m]" "stdDev_OSD.xSpeed [m/s]" "stdDev_OSD.ySpeed [m/s]" "stdDev_OSD.zSpeed [m/s]" stdDev_OSD.pitch stdDev_OSD.roll stdDev_OSD.yaw
0.45 0.0 0.008 0.015000000000000003 3.3199999999999994 48.074667999999996 11.649250999999998 0.0 533.2 0.0 0.0 0.0 1.0499999999999998 3.3699999999999997 174.20999999999998 0.2872281323269014 0.0 0.007483314773547883 0.0191049731745428 1.1066706827236366 7.105427357601002e-15 1.7763568394002505e-15 0.0 0.0 0.0 0.0 0.0 0.0806225774829855 0.06403124237432854 0.6007495318350203
1.45 0.0 0.027000000000000003 0.011 3.6910000000000003 48.074667999999996 11.649250999999998 0.0 533.2 0.0 0.0 0.0 1.1300000000000001 3.3600000000000003 173.8 0.2872281323269014 0.0 0.006403124237432849 0.012206555615733703 0.003000000000000069 7.105427357601002e-15 1.7763568394002505e-15 0.0 0.0 0.0 0.0 0.0 0.06403124237432846 0.10198039027185568 0.0
2.45 0.02 0.072 0.07999999999999999 3.707 48.074667999999996 11.649251600000001 0.04 533.24 0.0 0.02 -0.22000000000000003 0.36 0.68 174.82 0.2872281323269014 0.04 0.029257477676655586 0.050199601592044535 0.007810249675906636 7.105427357601002e-15 4.898979490602293e-07 0.048989794855663564 0.048989794855619 0.0 0.04 0.16613247725836153 0.6053098380168622 0.8072174428244226 0.4791659420284329
3.45 0.0 0.174 0.08600000000000001 0.4860000000000001 48.074667999999996 11.649253 0.39 533.59 0.0 0.0 -0.45 0.3 1.5 174.89000000000001 0.2872281323269014 0.0 0.027640549922170504 0.03527038417709679 1.0814730694751487 7.105427357601002e-15 0.0 0.15132745950421556 0.15132745950421841 0.0 0.0 0.0670820393249937 0.21908902300206645 0.23237900077244503 0.09433981132056067
4.45 0.19 0.336 0.302 0.268 48.07466699999999 11.649254800000001 0.9 534.1000000000001 0.0 0.19 -0.37 0.47000000000000003 0.12000000000000019 174.8 0.2872281323269015 0.15132745950421556 0.1041345283755585 0.18285513391753597 0.10205880657738459 7.105427357601002e-15 1.3999999999673004e-06 0.14142135623730953 0.1414213562373095 0.0 0.15132745950421556 0.0640312423743285 0.26851443164195105 3.907121702737195 0.06324555320337298
5.45 0.06000000000000001 0.6130000000000001 0.123 0.525 48.074666099999995 11.6492579 1.14 534.3399999999999 0.0 0.06000000000000001 -0.02 0.7499999999999999 2.5799999999999996 174.25000000000003 0.2872281323269015 0.048989794855663564 0.032572994949804666 0.06034069936618235 0.021563858652847843 2.9999999924257285e-07 2.999999997754799e-07 0.048989794855663495 0.0489897948556747 0.0 0.048989794855663564 0.04 0.12041594578792299 0.5564171097297422 1.0623088063270467
6.45 0.0 0.671 0.027000000000000003 0.567 48.07466599999999 11.649258 1.1999999999999997 534.3999999999999 0.0 0.0 0.0 0.8099999999999999 1.8400000000000003 162.43 0.2872281323269015 0.0 0.008306623862918082 0.015524174696260024 0.006403124237432806 7.105427357601002e-15 0.0 2.220446049250313e-16 1.1368683772161603e-13 0.0 0.0 0.0 0.42532340636273475 0.25768197453450253 5.33761182552647
7.450000000000001 0.0 0.704 0.047 0.595 48.07466599999999 11.6492587 1.1999999999999997 534.3999999999999 0.0 0.0 0.0 1.12 1.43 155.58999999999997 0.28722813232690153 0.0 0.012806248474865708 0.016155494421403512 0.008062257748298557 7.105427357601002e-15 4.582575699666528e-07 2.220446049250313e-16 1.1368683772161603e-13 0.0 0.0 0.0 0.17204650534085253 0.14177446878757827 0.053851648071341976
8.45 0.0 0.7710000000000001 0.085 0.6 48.07466599999999 11.649259 1.3599999999999999 534.56 0.0 0.0 -0.51 0.7900000000000001 1.48 155.62 0.28722813232690153 0.0 0.0277308492477241 0.046097722286464436 0.019493588689617924 7.105427357601002e-15 0.0 0.17435595774162696 0.17435595774162876 0.0 0.0 0.37269290307168446 0.1135781669160055 0.18867962264113208 0.05999999999999659
9.45 0.0 0.8639999999999999 0.06900000000000002 0.543 48.074666799999996 11.6492582 2.4 535.5999999999999 0.0 0.0 -1.2700000000000002 0.8700000000000001 1.36 155.68 0.28722813232690153 0.0 0.01907878402833893 0.021656407827707714 0.007810249675906661 3.999999989900971e-07 4.000000004111826e-07 0.3872983346207417 0.38729833462075053 0.0 0.0 0.04582575694955844 0.11874342087037917 0.2727636339397171 0.039999999999997725
10.45 0.0 0.9540000000000001 0.10100000000000002 0.5970000000000001 48.07466699999999 11.6492594 3.75 536.95 0.0 0.0 -1.31 1.2100000000000002 2.24 155.67 0.28722813232690153 0.0 0.03261901286060017 0.03269556544854363 0.02282542442102665 7.105427357601002e-15 4.898979481899958e-07 0.4031128874149275 0.4031128874149303 0.0 0.0 0.02999999999999996 0.15779733838059498 0.46946778377222015 0.04582575694955579
11.45 0.0 1.041 0.06200000000000001 0.641 48.07466699999999 11.64926 5.26 538.46 0.0 0.0 -1.6199999999999999 1.69 2.73 155.7 0.28722813232690153 0.0 0.01757839583124696 0.03026549190084311 0.009433981132056613 7.105427357601002e-15 0.0 0.48826222462934815 0.48826222462935154 0.0 0.0 0.09797958971132713 0.27730849247724093 0.33778691508109077 0.07745966692415494
12.45 0.0 1.111 0.07400000000000001 0.6579999999999999 48.07466699999999 11.64926 7.1 540.3 0.0 0.0 -1.9 1.77 2.6999999999999997 155.65 0.28722813232690153 0.0 0.02118962010041702 0.02244994432064365 0.018330302779823376 7.105427357601002e-15 0.0 0.5744562646538027 0.5744562646538108 0.0 0.0 0.0894427190999916 0.20518284528683192 0.19493588689617927 0.04999999999999716
13.45 0.0 1.1880000000000002 0.076 0.688 48.07466699999999 11.6492605 9.1 542.3 0.0 0.0 -1.9499999999999997 2.5900000000000003 2.5600000000000005 155.71999999999997 0.28722813232690153 0.0 0.02088061301782112 0.03611094017053558 0.016613247725836118 7.105427357601002e-15 4.999999996257998e-07 0.574456264653803 0.5744562646538108 0.0 0.0 0.050000000000000044 0.33600595232822883 0.3292415526630866 0.0400000000000091
14.45 0.0 1.259 0.051000000000000004 0.7489999999999999 48.07466699999999 11.649261199999998 10.87 544.0699999999999 0.0 0.0 -1.1199999999999999 3.0500000000000003 2.71 155.77000000000004 0.28722813232690153 0.0 0.017000000000000015 0.03014962686336267 0.013747727084867531 7.105427357601002e-15 4.0000000041118254e-07 0.349428104193123 0.34942810419312237 0.0 0.0 0.6554387843269576 0.3827531841800928 0.25475478405713997 0.04582575694956882
15.45 0.0 1.322 0.05800000000000001 0.805 48.07466699999999 11.649261999999998 11.3 544.5 0.0 0.0 -0.02 2.57 2.42 155.67 0.28722813232690153 0.0 0.016613247725836167 0.016613247725836153 0.014999999999999973 7.105427357601002e-15 1.7763568394002505e-15 0.0 0.0 0.0 0.0 0.04 0.07810249675906661 0.14000000000000004 0.04582575694955579
16.45 0.0 1.37 0.04 0.845 48.07466699999999 11.649263000000001 11.3 544.5 0.0 0.0 0.0 2.82 2.8 155.67 0.2872281323269012 0.0 0.014832396974191248 0.027568097504180444 0.006708203932499375 7.105427357601002e-15 1.7763568394002505e-15 0.0 0.0 0.0 0.0 0.0 0.10770329614269003 0.07745966692414823 0.04582575694955579
17.45 0.0 1.424 0.044 0.877 48.074666699999995 11.649263000000001 11.3 544.5 0.0 0.0 0.0 2.81 2.81 155.68 0.2872281323269012 0.0 0.016248076809271934 0.019595917942265426 0.009000000000000008 4.5825756833859485e-07 1.7763568394002505e-15 0.0 0.0 0.0 0.0 0.0 0.18138357147217055 0.09433981132056597 0.039999999999997725
18.45 0.0 1.467 0.032999999999999995 0.8940000000000001 48.07466599999999 11.649263000000001 11.3 544.5 0.0 0.0 0.0 2.5 2.6599999999999997 155.7 0.2872281323269012 0.0 0.009000000000000008 0.011874342087037916 0.006633249580710806 7.105427357601002e-15 1.7763568394002505e-15 0.0 0.0 0.0 0.0 0.0 0.08944271909999167 0.16852299546352711 0.0
19.45 0.0 1.496 0.031 0.882 48.07466599999999 11.649263000000001 11.3 544.5 0.0 0.0 0.0 2.45 2.12 155.71999999999997 0.2872281323269012 0.0 0.011135528725660053 0.024269322199023193 0.0040000000000000036 7.105427357601002e-15 1.7763568394002505e-15 0.0 0.0 0.0 0.0 0.0 0.10246950765959607 0.18867962264113203 0.0400000000000091
20.45 0.0 1.5490000000000002 0.046 0.9199999999999999 48.07466599999999 11.6492634 11.3 544.5 0.0 0.0 0.0 2.38 2.05 155.7 0.2872281323269012 0.0 0.013000000000000012 0.018 0.010000000000000009 7.105427357601002e-15 4.898979490602293e-07 0.0 0.0 0.0 0.0 0.0 0.18867962264113208 0.11180339887498958 0.0
21.45 0.0 1.596 0.068 0.9520000000000002 48.074666099999995 11.649264 11.38 544.5800000000002 0.0 0.0 0.0 2.2800000000000002 2.2600000000000002 155.02 0.2872281323269012 0.0 0.020591260281973972 0.03487119154832539 0.011661903789690613 2.9999999924257285e-07 0.0 0.039999999999999855 0.0400000000000091 0.0 0.0 0.0 0.13999999999999993 0.3954743986657038 1.144377560073594
22.45 0.0 1.6800000000000002 0.07500000000000002 0.994 48.07466699999999 11.6492647 11.39 544.5900000000001 0.0 0.0 0.0 2.48 2.62 142.79 0.2872281323269012 0.0 0.02144761058952724 0.010246950765959597 0.012806248474865708 7.105427357601002e-15 4.5825756915262385e-07 0.0299999999999999 0.030000000000006823 0.0 0.0 0.0 0.27495454169735034 0.21354156504062619 5.855160117366561
23.45 0.0 1.75 0.06000000000000001 1.052 48.07466699999999 11.649265399999999 11.379999999999999 544.58 0.0 0.0 0.02 3.47 1.16 115.95 0.2872281323269012 0.0 0.018973665961010293 0.01264911064067352 0.018330302779823376 7.105427357601002e-15 4.898979490602294e-07 0.039999999999999855 0.0400000000000091 0.0 0.0 0.04 0.268514431641951 0.7323933369440222 8.767696390728865
24.45 0.0 1.807 0.07100000000000001 1.069 48.07466699999999 11.6492657 11.370000000000001 544.57 0.0 0.0 -0.01 3.6100000000000003 -1.15 86.72999999999999 0.2872281323269012 0.0 0.02100000000000002 0.04548626166217664 0.020712315177207997 7.105427357601002e-15 4.582575699666528e-07 0.04582575694955824 0.04582575694956882 0.0 0.0 0.03 0.49284886121406424 0.6168468205316454 8.277566067389618
25.45 0.0 1.9209999999999998 0.10800000000000001 0.9600000000000002 48.07466699999999 11.649264300000002 11.33 544.53 0.0 0.0 0.02 2.19 -2.02 72.18999999999998 0.2872281323269012 0.0 0.03419064199455751 0.04093897898091744 0.03464101615137754 7.105427357601002e-15 4.5825756915262385e-07 0.04582575694955824 0.04582575694956882 0.0 0.0 0.04 0.20712315177207977 0.11661903789690611 0.32695565448543545
26.45 0.0 2.0189999999999997 0.07 0.869 48.07466699999999 11.649263000000001 11.3 544.5 0.0 0.0 0.0 1.7 -2.4 72.08 0.2872281323269012 0.0 0.019723082923316024 0.026076809620810597 0.015779733838059515 7.105427357601002e-15 1.7763568394002505e-15 0.0 0.0 0.0 0.0 0.0 0.1732050807568877 0.33466401061363016 0.05999999999999943
27.45 0.0 2.072 0.06599999999999999 0.8539999999999999 48.0746671 11.649263000000001 11.78 544.98 0.0 0.0 -1.1800000000000002 2.3200000000000003 -2.9 72.03999999999999 0.2872281323269012 0.0 0.023999999999999997 0.05953150426454887 0.004898979485566361 3.00000001374201e-07 1.7763568394002505e-15 0.39191835884530846 0.3919183588453083 0.0 0.0 0.5362835071116769 0.3944616584663204 0.4669047011971501 0.17435595774162646
28.45 0.0 2.2649999999999997 0.16899999999999998 0.8399999999999999 48.0746688 11.649262499999997 13.5 546.7 0.0 0.0 -1.48 2.4799999999999995 -2.29 71.62 0.2872281323269012 0.0 0.08102468759581855 0.09449338601193207 0.006324555320336764 7.483314754654329e-07 4.999999996257998e-07 0.45825756949558405 0.45825756949558893 0.0 0.0 0.5706137047074842 0.21817424229271432 0.5127377497317708 0.19899748742132325
29.449999999999996 0.458 2.574 0.48600000000000004 0.9829999999999999 48.074671 11.6492637 14.190000000000001 547.39 0.22000000000000003 0.43 -0.09 -8.129999999999999 -3.6799999999999997 72.17 0.2872281323269012 0.5648681262029218 0.17459667808981935 0.5341011140224293 0.16577394246382635 1.0000000003174137e-06 1.9519221294803757e-06 0.02999999999999989 0.030000000000006816 0.25612496949731395 0.49203658400570177 0.12206555615733701 7.406220358590474 1.770197729068705 0.4337049688440284
30.449999999999996 2.2460000000000004 4.228 1.9780000000000002 2.6529999999999996 48.0746785 11.6492835 14.209999999999999 547.4099999999999 1.02 2.0 0.0 -5.510000000000001 -3.749999999999999 71.53999999999999 0.2872281323269012 0.2217295650110738 0.7089541593079202 0.7512762474616111 0.7192781103300725 2.872281323685957e-06 8.616843969790054e-06 0.03000000000000043 0.030000000000006823 0.09797958971132716 0.20000000000000007 0.0 2.473641041056685 0.4499999999999999 0.24576411454888822
31.449999999999996 2.6439999999999997 6.8469999999999995 2.596 5.2509999999999994 48.074688800000004 11.6493147 14.24 547.4399999999999 1.1999999999999997 2.3599999999999994 0.0 -2.13 -3.15 71.35 0.2872281323269012 0.044090815370097354 0.7696109406706741 0.05351635264103864 0.7717052546147397 3.2496153623960707e-06 9.317188417162614e-06 0.04898979485566426 0.0489897948556747 2.220446049250313e-16 0.048989794855663606 0.0 0.4605431575867782 0.1431782106327635 0.05000000000000426
32.45 2.725 9.581999999999999 2.71 7.992000000000002 48.0747 11.6493474 14.300000000000002 547.5 1.1999999999999997 2.45 0.0 -1.13 -2.9899999999999998 71.47 0.2872281323269009 0.04499999999999993 0.8059999999999998 0.05744562646538021 0.8084281044100333 3.3166247901227216e-06 9.718024490621762e-06 1.7763568394002505e-15 0.0 2.220446049250313e-16 0.050000000000000044 0.0 0.33481338085566414 0.14456832294800964 0.04582575694955579
33.45 2.68 12.333 2.3770000000000002 10.777 48.07471120000001 11.6493809 14.300000000000002 547.5 1.1999999999999997 2.3999999999999995 0.0 -1.1300000000000001 -3.09 71.47999999999999 0.2872281323269009 0.0 0.8011373165693879 0.793776416883243 0.7849337551666384 3.2496153623960707e-06 9.491575211498764e-06 1.7763568394002505e-15 0.0 2.220446049250313e-16 4.440892098500626e-16 0.0 0.2238302928559939 0.1577973383805951 0.039999999999997725
34.45 2.637 15.034 2.575 13.457999999999998 48.074721499999995 11.6494135 14.300000000000002 547.5 1.1599999999999997 2.37 0.0 -1.23 -3.79 71.55 0.2872281323269009 0.034942810419312416 0.7565474208534452 0.030083217912982605 0.760378852941085 2.872281323685957e-06 9.351470472596522e-06 1.7763568394002505e-15 0.0 0.048989794855663495 0.04582575694955844 0.0 0.10049875621120886 0.4459820624195552 0.049999999999997165
35.45 2.62 17.686 2.5970000000000004 16.114 48.0747319 11.649445400000001 14.300000000000002 547.5 1.2600000000000002 2.3 0.0 -0.8200000000000001 -4.220000000000001 71.69000000000001 0.2872281323269009 0.024494897427831914 0.7656004179727183 0.026095976701399775 0.7676874363958294 3.2999999992689553e-06 9.057593499437367e-06 1.7763568394002505e-15 0.0 0.048989794855663606 0.0 0.0 0.23151673805580456 0.1077032961426903 0.030000000000002556
36.45 2.568 20.368000000000002 2.6119999999999997 18.797 48.074743999999995 11.649476499999999 14.300000000000002 547.5 1.3000000000000003 2.21 0.0 -0.5199999999999999 -3.9899999999999998 71.61 0.2872281323269009 0.024000000000000018 0.7683853200055297 0.03124099870362664 0.7668252734489127 3.633180424544762e-06 8.616843969697285e-06 1.7763568394002505e-15 0.0 2.220446049250313e-16 0.0299999999999999 0.0 0.208806130178211 0.06999999999999992 0.030000000000002556
37.45 2.6049999999999995 23.01 2.5460000000000003 21.436999999999998 48.074756300000004 11.6495073 14.280000000000001 547.4799999999999 1.3900000000000001 2.2 0.0 -0.66 -3.94 71.72999999999999 0.2872281323269009 0.014999999999999946 0.7541087454737551 0.022449944320643647 0.7525430220259836 3.5791060345245423e-06 8.900000000179206e-06 0.04000000000000057 0.0400000000000091 0.029999999999999964 0.0 0.0 0.12000000000000002 0.1743559577416268 0.0458257569495558
38.45 2.61 25.613 2.307 24.068 48.0747686 11.6495375 14.280000000000001 547.48 1.4 2.2 0.0 -0.33999999999999997 -3.8600000000000003 71.75000000000001 0.2872281323269009 0.0 0.8013245285151325 0.7695069850235279 0.7589835307831126 3.527038418192609e-06 8.616843969790054e-06 0.04000000000000057 0.0400000000000091 0.0 0.0 0.0 0.20591260281974 0.14966629547095756 0.04999999999999716
39.45 2.517 28.254999999999995 2.377 26.686999999999994 48.0747803 11.6495675 14.300000000000002 547.5 1.3400000000000003 2.1300000000000003 0.0 -0.18999999999999997 -3.91 71.67 0.2872281323269009 0.06261788881781294 0.7345100407754815 0.39646059072750217 0.7372658950473695 3.1638584029976045e-06 8.61684396975913e-06 1.7763568394002505e-15 0.0 0.048989794855663495 0.04582575694955844 0.0 0.1972308292331602 0.09433981132056601 0.06403124237433107
40.45 2.466 30.729000000000003 2.165 29.192 48.074791399999995 11.6495971 14.34 547.5400000000001 1.3400000000000003 2.0700000000000003 0.0 -0.25 -4.01 71.62 0.2872281323269009 0.02244994432064369 0.7418281472147035 0.7219175853239759 0.7085026464311905 3.0397368300520767e-06 8.203048213631808e-06 0.04898979485566339 0.0489897948556747 0.048989794855663495 0.04582575694955844 0.0 0.12041594578792296 0.08306623862918064 0.04000000000000341
41.45 2.4200000000000004 33.144000000000005 1.752 31.631000000000007 48.0748028 11.6496252 14.300000000000002 547.5 1.36 2.0 0.0 -0.51 -3.69 71.64000000000001 0.2872281323269009 0.024494897427831695 0.6776606820526032 0.9404764749848875 0.6957937912916435 3.2496153613465296e-06 8.047359815257384e-06 1.7763568394002505e-15 0.0 0.048989794855663495 0.0 0.0 0.20223748416156684 0.06999999999999992 0.09165151389911749
42.45 1.746 35.336 1.1789999999999998 33.841 48.074813 11.649650600000001 14.290000000000001 547.49 0.9200000000000002 1.4300000000000002 0.0 9.52 -0.1099999999999999 71.78 0.2872281323269009 0.6408307108745648 0.5163370991900537 0.835038322473885 0.4906414169227871 2.280350850361222e-06 5.834380858508162e-06 0.030000000000000426 0.03000000000000682 0.3762977544445356 0.48590122453025364 0.0 5.9030161781922965 2.21153792642134 0.20396078054371192
43.45 0.095 36.153 0.251 34.563 48.074816799999994 11.649658800000001 14.2 547.3999999999999 0.05 0.08 0.0 5.339999999999999 -1.35 72.03999999999999 0.2872281323269009 0.14136831328130076 0.06708949247087848 0.08030566605165541 0.04337049688440357 7.483314785038415e-07 3.9999999970063985e-07 0.0 1.1368683772161603e-13 0.0670820393249937 0.12489995996796796 0.0 2.2668039174132377 0.304138126514911 0.048989794855660775
44.45 0.0 36.333 0.11300000000000002 34.588 48.0748177 11.649658300000002 14.229999999999999 547.43 0.0 0.0 -0.04 2.12 -1.8399999999999999 71.94 0.2872281323269009 0.0 0.038483762809787644 0.05330103188494572 0.03458323293158131 4.5825756833859485e-07 4.5825756915262385e-07 0.04582575694955905 0.04582575694956882 0.0 0.0 0.09165151389911681 0.5688585061331156 0.36110940170535577 0.07999999999999793
45.45 0.0 36.483999999999995 0.134 34.451 48.0748165 11.649657000000001 14.9 548.1 0.0 0.0 -1.3 2.08 -3.03 71.91000000000001 0.2872281323269009 0.0 0.04152107898405403 0.04079215610874228 0.03330165161069373 5.00000002290335e-07 1.7763568394002505e-15 0.4195235392680605 0.41952353926804764 0.0 0.0 0.31937438845342625 0.45999999999999996 0.5532630477449221 0.15779733838059443
46.45 0.0 36.614 0.11300000000000002 34.36900000000001 48.0748166 11.649655599999999 16.54 549.74 0.0 0.0 -1.6599999999999997 2.0500000000000003 -2.9499999999999997 71.73 0.2872281323269009 0.0 0.049030602688523876 0.0684178339323893 0.015779733838059196 4.898979508006965e-07 4.898979490602293e-07 0.4882622246293481 0.4882622246293473 0.0 0.0 0.048989794855663495 0.4080441152620633 0.5044799302251776 0.06403124237432863
47.45 0.0 36.754 0.08800000000000001 34.373999999999995 48.0748178 11.649655 18.240000000000002 551.4399999999999 0.0 0.0 -1.69 2.21 -2.0900000000000003 71.70000000000002 0.2872281323269009 0.0 0.02107130750570587 0.04935585071701227 0.014282856857085843 3.999999989900971e-07 0.0 0.4882622246293479 0.4882622246293525 0.0 0.0 0.029999999999999957 0.33600595232822883 0.34190641994557514 1.4210854715202004e-14
48.45 0.0 36.8 0.031 34.403999999999996 48.074818 11.649655 19.95 553.1499999999999 0.0 0.0 -1.65 2.67 -2.2699999999999996 71.68 0.2872281323269009 0.0 0.010000000000000852 0.022113344387495983 0.00663324958070948 0.0 0.0 0.47592016137163173 0.47592016137163246 0.0 0.0 0.04999999999999993 0.28653097563788804 0.20518284528683195 0.040000000000003415
49.45 0.0 36.831 0.037 34.38 48.074818 11.649655 21.67 554.8700000000001 0.0 0.0 -1.6599999999999997 2.48 -2.47 71.59 0.2872281323269009 0.0 0.009433981132057513 0.029681644159311658 0.007745966692416045 0.0 0.0 0.49000000000000016 0.49000000000000377 0.0 0.0 0.048989794855663495 0.18867962264113208 0.10049875621120899 0.05385164807134488
50.45 0.0 36.907 0.06800000000000002 34.370999999999995 48.074817 11.649655 23.38 556.58 0.0 0.0 -1.6599999999999997 2.8899999999999997 -3.21 71.63000000000001 0.2872281323269009 0.0 0.017916472867169162 0.059126981996377934 0.003000000000001535 0.0 0.0 0.4812483766206385 0.4812483766206431 0.0 0.0 0.048989794855663495 0.18681541692269413 0.28089143810376277 0.045825756949562306
51.45 0.0 36.95700000000001 0.043000000000000003 34.399 48.0748172 11.6496558 25.009999999999998 558.21 0.0 0.0 -1.4 3.5599999999999996 -2.9400000000000004 71.50999999999999 0.2872281323269009 0.0 0.012688577540448899 0.019000000000000003 0.009433981132054728 3.999999989900971e-07 4.0000000041118254e-07 0.42532340636273464 0.42532340636273364 0.0 0.0 0.32863353450309973 0.42237424163885745 0.22891046284519195 0.11357816691600164
52.45 0.0 37.026 0.08900000000000001 34.422000000000004 48.074817100000004 11.6496563 25.78 558.98 0.0 0.0 -0.13000000000000003 3.08 -2.2 71.55 0.2872281323269009 0.0 0.04431703961232113 0.06759437846448475 0.007483314773548672 2.999999992425728e-07 4.5825756915262385e-07 0.04000000000000057 0.0400000000000091 0.0 0.0 0.16155494421403513 0.3187475490101846 0.14142135623730942 0.06708203932498988
53.45 0.0 37.178000000000004 0.099 34.432 48.074816 11.6496571 25.8 559.0 0.0 0.0 0.0 3.7 -2.54 77.70000000000002 0.2872281323269009 0.0 0.029257477676654865 0.05068530358989675 0.003999999999999204 0.0 3.000000003083869e-07 0.0 0.0 0.0 0.0 0.0 0.27568097504180433 0.3261901286060019 4.727578661429127
54.45 0.0 37.31 0.09100000000000001 34.456999999999994 48.0748151 11.649658 25.78 558.9799999999999 0.0 0.0 0.02 4.5600000000000005 -2.0599999999999996 97.84 0.2872281323269009 0.0 0.03162277660168424 0.07368174807915459 0.004582575694954928 2.999999992425728e-07 0.0 0.04000000000000057 0.0400000000000091 0.0 0.0 0.04 0.24576411454889022 0.6636264009214823 6.51171252436715
55.45 0.1 37.389 0.05000000000000001 34.440000000000005 48.074815 11.649658 25.7 558.8999999999999 0.09 0.0 -0.05 4.529999999999999 0.18 121.09 0.2872281323269009 0.0 0.028442925306655372 0.04049691346263318 0.008944271910000558 0.0 0.0 0.0 1.1368683772161603e-13 0.03 0.0 0.05000000000000001 0.41 0.4707440918375928 6.794328517226701
56.45 0.02 37.480000000000004 0.12699999999999997 34.468999999999994 48.074815 11.649658400000002 25.8 559.0 0.02 0.0 -0.030000000000000006 2.9 1.6900000000000002 144.32999999999998 0.2872281323269009 0.04 0.04123105625617667 0.05728001396647875 0.031128764832546982 0.0 4.898979481899958e-07 0.0 0.0 0.04 0.0 0.045825756949558406 0.5000000000000001 0.2879236009777593 6.557751138919499
57.45 0.0 37.736000000000004 0.294 34.605 48.0748143 11.6496613 25.74 558.9399999999999 0.0 0.0 0.02 1.7600000000000002 3.13 133.20999999999998 0.2872281323269009 0.0 0.09520504188329554 0.09478396488858228 0.03981205847478861 4.582575683385948e-07 1.004987561660438e-06 0.04898979485566426 0.0489897948556747 0.0 0.0 0.04 0.463033476111609 0.6388270501473775 103.92196543560942
58.45 0.0 37.986000000000004 0.22500000000000003 34.676 48.0748126 11.6496636 25.7 558.8999999999999 0.0 0.0 -0.01 -0.4 4.62 -160.57 0.2872281323269009 0.0 0.06590902821313586 0.02459674775249769 0.006633249580711194 4.898979473197622e-07 4.898979481899958e-07 0.0 1.1368683772161603e-13 0.0 0.0 0.03 0.7949842765740717 0.09797958971132717 9.298822506102592
59.45 0.030000000000000006 38.213 0.219 34.712 48.074811 11.6496654 25.7 558.8999999999999 -0.030000000000000006 0.0 -0.02 -3.4299999999999997 3.7699999999999996 -128.51999999999998 0.2872281323269009 0.045825756949558406 0.0667907179179869 0.10662551289442879 0.016613247725835924 6.324555326838126e-07 4.898979481899958e-07 0.0 1.1368683772161603e-13 0.045825756949558406 0.0 0.04 0.8866228059327146 0.6017474553332153 7.762834533854247
60.45 0.1 38.532 0.29100000000000004 34.682 48.0748085 11.649666999999999 25.770000000000003 558.97 -0.1 0.0 -0.030000000000000006 -3.4 3.5699999999999994 -120.12 0.2872281323269009 0.0 0.10571660229122092 0.11361778029868388 0.054000000000000575 1.0246950771292377e-06 1.7763568394002505e-15 0.04582575694955905 0.04582575694956882 0.0 0.0 0.045825756949558406 0.41231056256176607 0.20999999999999994 0.6910861017268402
61.45 0.030000000000000006 38.867000000000004 0.271 34.436 48.07480650000001 11.6496647 25.8 559.0 -0.030000000000000006 0.0 0.0 -3.11 3.1699999999999995 -114.9 0.2872281323269009 0.045825756949558406 0.07733692520394127 0.049081564767232105 0.06406246951218797 4.999999987376214e-07 7.81024967802183e-07 0.0 0.0 0.045825756949558406 0.0 0.0 0.18681541692269402 0.3579106033634657 0.7999999999999995
62.45 0.0 39.202999999999996 0.34500000000000003 34.322 48.07480389999999 11.6496648 25.8 559.0 0.0 0.0 0.0 -3.1700000000000004 3.1900000000000004 -114.49000000000001 0.2872281323269009 0.0 0.10459923517884831 0.08581957818586619 0.018330302779824288 8.306623841945866e-07 4.0000000041118254e-07 0.0 0.0 0.0 0.0 0.0 0.10999999999999999 0.15779733838059495 0.029999999999998295
63.45 0.0 39.432 0.11500000000000002 34.24 48.074801799999996 11.649665 25.8 559.0 0.0 0.0 0.0 -2.95 2.9699999999999998 -114.49000000000001 0.2872281323269009 0.0 0.03815756805667843 0.05835237784358063 0.021447610589528248 3.999999989900971e-07 0.0 0.0 0.0 0.0 0.0 0.0 0.06708203932499375 0.11874342087037928 0.02999999999999829
64.45 0.0 39.541999999999994 0.094 34.17399999999999 48.074800999999994 11.649665 25.8 559.0 0.0 0.0 0.0 -2.7500000000000004 3.3699999999999997 -114.5 0.2872281323269024 0.0 0.025219040425836923 0.017435595774162694 0.018000000000001473 7.105427357601002e-15 0.0 0.0 0.0 0.0 0.0 0.0 0.12845232578665122 0.1187434208703791 0.0
65.45 0.0 39.652 0.12800000000000003 34.098 48.0747999 11.649664300000001 25.8 559.0 0.0 0.0 0.0 -2.31 3.2400000000000007 -114.46 0.2872281323269024 0.0 0.039446165846631645 0.019390719429665318 0.025219040425836923 3.00000001374201e-07 4.582575699666528e-07 0.0 0.0 0.0 0.0 0.0 0.157797338380595 0.1280624847486569 0.04898979485566078
66.45 0.0 39.763999999999996 0.094 34.028 48.074799 11.649664 25.8 559.0 0.0 0.0 0.0 -2.54 3.4099999999999993 -114.50999999999999 0.2872281323269024 0.0 0.028354893757516122 0.013564659966250536 0.016613247725836524 0.0 0.0 0.0 0.0 0.0 0.0 0.0 0.1854723699099141 0.09433981132056612 0.029999999999998295
67.45 0.0 39.84 0.03699999999999999 33.992000000000004 48.074798 11.649664 25.8 559.0 0.0 0.0 0.0 -2.3299999999999996 3.45 -114.48000000000002 0.2872281323269024 0.0 0.012649110640673809 0.030347981810987038 0.006000000000000227 0.0 0.0 0.0 0.0 0.0 0.0 0.0 0.07810249675906647 0.050000000000000044 0.05999999999999659
68.45 0.0 39.873 0.038 33.983000000000004 48.074798 11.649664 25.8 559.0 0.0 0.0 0.0 -2.4699999999999998 3.46 -114.50999999999999 0.2872281323269024 0.0 0.011000000000000912 0.025219040425836982 0.004582575694958184 0.0 0.0 0.0 0.0 0.0 0.0 0.0 0.1268857754044953 0.09165151389911688 0.02999999999999829
69.45 0.0 39.952999999999996 0.087 34.011 48.0747979 11.649664699999999 25.8 559.0 0.0 0.0 0.0 -2.5200000000000005 3.29 -114.50999999999999 0.2872281323269024 0.0 0.030347981810987062 0.047968739820845825 0.009433981132057513 3.00000001374201e-07 4.582575699666528e-07 0.0 0.0 0.0 0.0 0.0 0.07483314773547889 0.14456832294800956 0.029999999999998295
70.45 0.0 40.067 0.11800000000000002 34.045 48.074797 11.6496656 25.8 559.0 0.0 0.0 0.0 -2.56 3.2600000000000002 -114.55 0.2872281323269024 0.0 0.03689173349139316 0.017776388834631177 0.012041594578792555 0.0 4.898979481899958e-07 0.0 0.0 0.0 0.0 0.0 0.048989794855663606 0.14966629547095758 0.049999999999997165
71.45 0.0 40.171 0.092 34.023 48.074796199999994 11.6496657 25.8 559.0 0.0 0.0 0.0 -2.65 3.34 -114.53 0.2872281323269024 0.0 0.03176476034853672 0.045343136195018535 0.0296816441593121 3.999999989900971e-07 4.5825756915262385e-07 0.0 0.0 0.0 0.0 0.0 0.1688194301613413 0.10198039027185567 0.04582575694955579
72.45 0.0 40.262 0.068 33.93900000000001 48.074796 11.649664699999999 25.8 559.0 0.0 0.0 0.0 -2.66 3.4799999999999995 -114.56999999999998 0.2872281323269024 0.0 0.019390719429665634 0.02135415650406262 0.013747727084867524 0.0 4.582575699666528e-07 0.0 0.0 0.0 0.0 0.0 0.07999999999999999 0.060000000000000046 0.0458257569495558
73.45 0.0 40.364999999999995 0.08800000000000001 33.914 48.074797 11.6496639 25.8 559.0 0.0 0.0 0.0 -2.7399999999999998 3.2699999999999996 -114.55 0.2872281323269024 0.0 0.030083217912981977 0.041904653679513924 0.004898979485568862 0.0 2.999999997754799e-07 0.0 0.0 0.0 0.0 0.0 0.07999999999999988 0.06403124237432835 0.049999999999997165
74.45 0.679 40.577999999999996 0.6529999999999999 33.744 48.0747964 11.649661499999999 25.8 559.0 -0.25 -0.63 0.0 -14.870000000000001 3.2299999999999995 -114.96 0.2872281323269024 0.675225147635957 0.2192167876783171 0.7094652916105199 0.21864125868646042 1.0198039018159865e-06 2.4999999998698286e-06 0.0 0.0 0.261725046566048 0.6229767250869008 0.0 7.836076824534073 0.1099999999999999 0.22891046284519245
75.45 2.504 42.42100000000001 1.5619999999999998 31.817999999999994 48.0747895 11.649638000000001 25.72 558.9199999999998 -0.95 -2.3600000000000003 -0.01 -10.67 2.9000000000000004 -114.9 0.2872281323269024 0.2664657576500215 0.8292219244568972 1.1405332086353295 0.7916287008440269 2.8722813226964405e-06 9.929753269837728e-06 0.04000000000000057 0.0400000000000091 0.0806225774829855 0.22449944320643653 0.030000000000000002 1.9763855899090137 0.24083189157584586 0.08944271909999287
76.45 2.9779999999999998 45.375 2.8649999999999998 28.943 48.07477949999999 11.6496022 25.73 558.93 -1.1099999999999999 -2.7600000000000002 -0.030000000000000006 -6.909999999999999 2.51 -114.62 0.2872281323269024 0.0487442304278157 0.8521296849658506 0.06530696746902272 0.853171143440752 2.87228132269644e-06 1.0552724766760188e-05 0.04582575694955905 0.04582575694956882 0.02999999999999996 0.04898979485566339 0.045825756949558406 0.4742362280551749 0.07000000000000006 0.060000000000002274
77.45 3.05 48.370999999999995 2.934 25.937 48.0747689 11.649565200000001 25.8 559.0 -1.1999999999999997 -2.8 0.0 -5.96 2.54 -114.52000000000001 0.2872281323269024 0.0 0.8688319745497403 0.043174066289845756 0.8709196288980977 3.299999999957966e-06 1.055272476657839e-05 0.0 0.0 2.220446049250313e-16 0.0 0.0 0.16248076809271922 0.048989794855663606 0.039999999999997725
78.45 3.05 51.385000000000005 2.9610000000000003 22.887 48.0747573 11.649528 25.8 559.0 -1.1999999999999997 -2.8 0.0 -5.54 2.63 -114.49000000000001 0.2872281323269024 0.0 0.8366271571016569 0.03389690251335662 0.883448357290906 3.40734500765667e-06 1.076104084183717e-05 0.0 0.0 2.220446049250313e-16 0.0 0.0 0.0799999999999999 0.07810249675906661 0.029999999999998295
79.45 2.95 54.43300000000001 2.212 19.834000000000003 48.074746100000006 11.6494907 25.7 558.8999999999999 -1.1999999999999997 -2.7 0.0 -5.54 2.56 -114.50999999999999 0.2872281323269024 0.0 0.9139152039439973 1.1922315211400847 0.8749194248615124 3.2999999993335496e-06 1.0640018796936355e-05 0.0 1.1368683772161603e-13 2.220446049250313e-16 0.0 0.0 0.0799999999999999 0.08000000000000007 0.053851648071341976
80.45 2.95 57.50100000000001 2.935 16.791 48.074734799999995 11.649453400000002 25.76 558.96 -1.1999999999999997 -2.7 0.0 -5.380000000000001 2.56 -115.0 0.2872281323269024 0.0 0.86812959861993 0.0320156211871643 0.8705682052544764 3.249615361915031e-06 1.0622617379975005e-05 0.04898979485566426 0.0489897948556747 2.220446049250313e-16 0.0 0.0 0.10770329614269022 0.10198039027185578 0.6511528238439908
81.45 2.9170000000000003 60.50600000000001 2.9200000000000004 13.776 48.0747227 11.6494172 25.75 558.95 -1.2600000000000002 -2.6300000000000003 0.0 -5.090000000000001 2.6 -117.43000000000002 0.2872281323269024 0.02609597670139985 0.8644790338695326 0.023664319132398505 0.8658660404473663 3.5791060345245423e-06 1.0274239631593769e-05 0.05000000000000071 0.05000000000001137 0.048989794855663606 0.04582575694955844 0.0 0.07000000000000003 0.15491933384829668 0.1268857754044954
82.42222222222222 2.89 63.38444444444445 2.9866666666666664 10.895555555555555 48.07471122222222 11.649382444444445 25.72222222222222 558.9222222222221 -1.3 -2.577777777777778 0.0 -4.955555555555556 2.6333333333333333 -117.4888888888889 0.2897423291201185 0.03741657386773954 0.840252754448341 1.053027381726927 0.840252754448341 3.3259176779929084e-06 1.0122703976716748e-05 0.04157397096415549 0.041573970964164354 0.0 0.041573970964154945 0.0 0.06849348892187727 0.09428090415820632 0.031426968052733664
83.45 2.82 66.321 2.279 7.892 48.074699 11.6493465 25.75 558.95 -1.3000000000000003 -2.5 0.0 -4.9799999999999995 2.7700000000000005 -118.53999999999999 0.2872281323269024 0.0 0.896710098080755 1.1398109492367583 0.8401047553728047 3.3166247896942483e-06 1.001249219734149e-05 0.05000000000000071 0.05000000000001137 2.220446049250313e-16 0.0 0.0 0.10770329614269 0.10999999999999989 1.4277254638059773
84.45 2.8049999999999997 69.27 2.788 4.9959999999999996 48.074687 11.649312 25.8 559.0 -1.3599999999999999 -2.4499999999999997 0.0 -4.6899999999999995 1.7899999999999998 -127.7 0.2872281323269024 0.020615528128088347 0.8181809090904048 0.034292856398964525 0.816433708270304 3.4641016152117278e-06 9.612491872238778e-06 0.0 0.0 0.06633249580710796 0.050000000000000044 0.0 0.13000000000000006 0.40360872141221127 3.3015148038438373
85.45 2.0680000000000005 71.95 2.1290000000000004 2.368 48.07467419999999 11.6492816 25.8 559.0 -1.1999999999999997 -1.6800000000000002 0.0 7.85 -0.19 -136.68 0.2872281323269024 0.688255766412458 0.6356728718452584 0.6756988974387927 0.5996465625683182 3.458323294165434e-06 6.931089380224515e-06 0.0 0.0 0.33466401061363027 0.6095900261651268 0.0 8.294244992764561 1.201207725582882 0.9997999799959998
86.45 0.191 72.905 0.225 1.6040000000000003 48.074668599999995 11.6492728 25.860000000000003 559.0600000000001 -0.15 -0.06999999999999999 0.0 3.09 3.62 -137.26000000000002 0.2872281323269024 0.16579806995257815 0.05408326913195979 0.1256383699353028 0.024979991993593527 4.898979473197623e-07 4.0000000041118254e-07 0.048989794855662516 0.0489897948556747 0.12041594578792295 0.14866068747318506 0.0 2.849017374464396 1.0961751684835777 0.08000000000000825
87.45 0.07 73.03599999999999 0.082 1.689 48.074667999999996 11.649274000000002 26.169999999999998 559.37 0.0 0.07 -0.76 -0.5700000000000001 4.639999999999999 -137.20999999999998 0.2872281323269024 0.045825756949558406 0.02457641145488644 0.03969886648255842 0.023000000000000024 7.105427357601002e-15 1.7763568394002505e-15 0.26095976701399776 0.2609597670139883 0.0 0.045825756949558406 0.6086049621881175 0.8497646733066749 0.6606057825965498 0.13000000000000464
88.45 0.0 73.112 0.078 1.688 48.0746681 11.649274000000002 27.7 560.9 0.0 0.0 -1.89 -0.78 4.619999999999999 -137.21999999999997 0.2872281323269024 0.0 0.03280243893371507 0.051923019942988674 0.02315167380558047 2.9999999924257285e-07 1.7763568394002505e-15 0.5744562646538028 0.574456264653795 0.0 0.0 0.1044030650891055 0.18867962264113208 0.08717797887081351 0.0400000000000091
89.45 0.0 73.25500000000001 0.15999999999999998 1.5950000000000002 48.074669199999995 11.649272700000001 29.7 562.9 0.0 0.0 -1.98 -0.75 3.6599999999999993 -137.20999999999998 0.2872281323269024 0.0 0.04904079934095477 0.018439088914585778 0.030413812651491068 3.999999989900971e-07 4.582575699666528e-07 0.5744562646538028 0.574456264653795 0.0 0.0 0.040000000000000036 0.1746424919657298 0.576541412215983 0.053851648071351475
90.45 0.0 73.40400000000001 0.13599999999999998 1.5830000000000002 48.07466999999999 11.649272399999997 31.7 564.9 0.0 0.0 -1.9899999999999998 -1.1400000000000001 3.17 -137.2 0.2872281323269024 0.0 0.04127953488109878 0.028 0.03522782990761704 7.105427357601002e-15 4.898979490602294e-07 0.5744562646538032 0.574456264653795 0.0 0.0 0.03000000000000003 0.3773592452822641 0.5000999900019995 0.0
91.45 0.0 73.503 0.06 1.674 48.07466999999999 11.6492736 33.730000000000004 566.93 0.0 0.0 -1.98 -1.5 4.319999999999999 -137.29 0.2872281323269024 0.0 0.01900000000000149 0.024899799195977464 0.015620499351813323 7.105427357601002e-15 4.898979481899958e-07 0.5916924876994814 0.5916924876994897 0.0 0.0 0.040000000000000036 0.21447610589527216 0.41424630354415953 0.07000000000000699
92.45 0.0 73.57900000000001 0.063 1.739 48.07466999999999 11.649274600000002 35.769999999999996 568.97 0.0 0.0 -1.94 -1.67 4.71 -137.35 0.2872281323269024 0.0 0.019723082923316815 0.02968164415931166 0.01757839583124696 7.105427357601002e-15 4.898979481899958e-07 0.5710516614107698 0.5710516614107745 0.0 0.0 0.048989794855663606 0.15524174696260026 0.1513274595042155 0.06708203932498988
93.45 0.0 73.619 0.022 1.7600000000000002 48.07466999999999 11.649275 37.8 571.0 0.0 0.0 -1.9799999999999998 -1.75 4.569999999999999 -137.31 0.2872281323269024 0.0 0.005385164807134356 0.013266499161421601 2.220446049250313e-16 7.105427357601002e-15 0.0 0.5744562646538034 0.5744562646538028 0.0 0.0 0.040000000000000036 0.23769728648009428 0.12688577540449508 0.07000000000000495
94.45 0.0 73.642 0.033999999999999996 1.777 48.07466999999999 11.649275 39.8 573.0 0.0 0.0 -1.9299999999999997 -1.85 4.720000000000001 -137.42000000000002 0.2872281323269024 0.0 0.011661903789692181 0.02107130750570548 0.0100498756211209 7.105427357601002e-15 0.0 0.5744562646538034 0.5744562646538028 0.0 0.0 0.04582575694955844 0.10246950765959598 0.1400000000000001 0.05999999999999659
95.45 0.0 73.68100000000001 0.027000000000000003 1.8059999999999998 48.07466999999999 11.6492755 41.74 574.94 0.0 0.0 -1.83 -1.8700000000000003 4.540000000000001 -137.35 0.2872281323269024 0.0 0.010440306508909767 0.016155494421403512 0.008000000000000007 7.105427357601002e-15 5.000000005139781e-07 0.5332916650389359 0.5332916650389321 0.0 0.0 0.06403124237432845 0.2002498439450079 0.09165151389911663 0.06708203932498988
96.45 0.0 73.722 0.063 1.8160000000000003 48.07466999999999 11.6492756 43.510000000000005 576.71 0.0 0.0 -1.6599999999999997 -1.95 4.58 -137.31000000000003 0.2872281323269024 0.0 0.021354156504064366 0.03769615364994153 0.015620499351813323 7.105427357601002e-15 4.898979490602294e-07 0.496890329952193 0.4968903299521935 0.0 0.0 0.048989794855663495 0.3354101966249684 0.3187475490101845 0.053851648071347784
97.45 0.0 73.78999999999999 0.039999999999999994 1.8719999999999999 48.07466999999999 11.6492761 45.14999999999999 578.35 0.0 0.0 -1.54 -2.1100000000000003 4.869999999999999 -137.35 0.2872281323269024 0.0 0.01183215956619928 0.027202941017470887 0.011661903789690516 7.105427357601002e-15 2.999999997754799e-07 0.4588027898781789 0.4588027898781849 0.0 0.0 0.048989794855663606 0.18138357147217055 0.134536240470737 0.04999999999999716
98.45 0.0 73.83500000000001 0.051000000000000004 1.9049999999999998 48.07466999999999 11.649277 46.69 579.89 0.0 0.0 -1.42 -2.27 4.8999999999999995 -137.41000000000003 0.2872281323269024 0.0 0.018574175621008562 0.03505709628591621 0.013601470508735456 7.105427357601002e-15 0.0 0.4205948168962616 0.42059481689624983 0.0 0.0 0.040000000000000036 0.22825424421026658 0.18973665961010264 0.029999999999998295
99.45 0.0 73.905 0.077 1.971 48.07466989999999 11.649277699999999 47.82 581.02 0.0 0.0 -0.5599999999999999 -2.32 5.07 -137.38000000000002 0.2872281323269024 0.0 0.022912878474780067 0.022825424421026655 0.022113344387495962 2.9999999924257296e-07 4.582575699666528e-07 0.15999999999999934 0.16000000000001363 0.0 0.0 0.5023942674832188 0.21354156504062624 0.39000000000000007 0.05999999999999659
100.45 0.0 73.99600000000001 0.06700000000000002 2.0439999999999996 48.07466899999999 11.649278700000002 48.33 581.53 0.0 0.0 -0.76 -2.2 5.16 -137.28000000000003 0.2872281323269024 0.0 0.030066592756746734 0.044283179650969055 0.02199999999999998 7.105427357601002e-15 4.5825756915262385e-07 0.31 0.3099999999999898 0.0 0.0 0.43863424398922624 0.37947331922020555 1.1951568934662928 0.09797958971133373
101.45 0.030000000000000006 74.057 0.047 2.0620000000000003 48.07466899999999 11.649279000000002 49.160000000000004 582.36 0.0 -0.030000000000000006 -0.4299999999999999 -2.2 5.39 -137.39000000000001 0.2872281323269024 0.045825756949558406 0.01676305461423751 0.02368543856465402 0.011661903789690672 7.105427357601002e-15 1.7763568394002505e-15 0.12806248474865645 0.1280624847486488 0.0 0.045825756949558406 0.26851443164195105 0.23664319132398462 0.32695565448543623 0.02999999999999829
102.45 0.0 74.115 0.071 2.08 48.07466899999999 11.6492793 49.3 582.5 0.0 0.0 0.0 -2.2 5.08 -137.35000000000005 0.2872281323269024 0.0 0.024596747752497268 0.034190641994557514 0.023237900077244564 7.105427357601002e-15 4.5825756915262385e-07 0.0 0.0 0.0 0.0 0.0 0.13416407864998733 0.08717797887081352 0.06708203932499623
103.45 0.0 74.197 0.07300000000000002 2.161 48.074669099999994 11.649280300000001 49.35 582.55 0.0 0.0 0.0 -2.3 5.409999999999999 -137.39000000000001 0.2872281323269024 0.0 0.021931712199461318 0.014866068747318505 0.01920937271229856 2.9999999924257285e-07 4.582575699666528e-07 0.05000000000000071 0.05000000000001137 0.0 0.0 0.0 0.09999999999999991 0.13747727084867525 0.02999999999999829
104.45 0.02 74.258 0.036000000000000004 2.1950000000000003 48.07466999999999 11.649281 49.3 582.5 0.0 -0.02 0.0 -2.6000000000000005 5.6 -137.39000000000001 0.2872281323269024 0.04 0.011661903789690719 0.017435595774162697 0.006708203932499425 7.105427357601002e-15 0.0 0.0 0.0 0.0 0.04 0.0 0.1000000000000001 0.09999999999999999 0.02999999999999829
105.45 0.1 74.328 0.076 2.1390000000000002 48.07466999999999 11.649279799999999 49.3 582.5 0.0 -0.1 0.0 -2.51 5.470000000000001 -137.38 0.2872281323269024 0.0 0.030265491900841414 0.043863424398922615 0.027730849247724124 7.105427357601002e-15 3.999999997006398e-07 0.0 0.0 0.0 0.0 0.0 0.10440306508910559 0.1734935157289746 0.039999999999997725
106.45 0.1 74.42100000000002 0.08399999999999999 2.053 48.07466999999999 11.6492787 49.3 582.5 0.0 -0.1 0.0 -2.51 5.140000000000001 -137.33 0.2872281323269024 0.0 0.022999999999998855 0.010198039027185569 0.023685438564654 7.105427357601002e-15 4.5825756915262385e-07 0.0 0.0 0.0 0.0 0.0 0.08306623862918082 0.12000000000000013 0.04582575694955579
107.45 0.04 74.508 0.07100000000000001 1.9729999999999996 48.07466999999999 11.6492776 49.3 582.5 0.0 -0.04 0.0 -2.38 4.92 -137.3 0.2872281323269024 0.048989794855663564 0.021817424229272558 0.021656407827707714 0.017916472867168933 7.105427357601002e-15 4.898979490602293e-07 0.0 0.0 0.0 0.048989794855663564 0.0 0.060000000000000046 0.10770329614269 0.0
108.45 0.0 74.575 0.06900000000000002 1.9209999999999998 48.074670600000005 11.649277 49.3 582.5 0.0 0.0 0.0 -2.38 4.8100000000000005 -137.3 0.2872281323269024 0.0 0.021095023109726305 0.012206555615733703 0.014456832294800973 4.898979508006965e-07 0.0 0.0 0.0 0.0 0.0 0.0 0.07483314773547889 0.17000000000000007 0.0
109.45 0.0 74.62899999999999 0.034999999999999996 1.8909999999999996 48.07467100000001 11.649276 49.3 582.5 0.0 0.0 0.0 -2.5000000000000004 4.779999999999999 -137.28 0.2872281323269024 0.0 0.011357816691600601 0.015000000000000001 0.0030000000000000027 7.105427357601002e-15 0.0 0.0 0.0 0.0 0.0 0.0 0.08944271909999167 0.07483314773547885 0.0400000000000091
110.45 0.0 74.67 0.03 1.9140000000000001 48.07467100000001 11.649277 49.22 582.4199999999998 0.0 0.0 0.0 -2.6199999999999997 4.9799999999999995 -137.48000000000002 0.2872281323269024 0.0 0.010000000000002274 0.01673320053068151 0.009165151389911688 7.105427357601002e-15 0.0 0.039999999999997725 0.0400000000000091 0.0 0.0 0.0 0.13266499161421605 0.08717797887081336 0.34292856398964233
111.45 0.04 74.713 0.061 1.9260000000000002 48.074670299999994 11.649277 49.2 582.3999999999999 -0.04 0.0 0.0 -1.04 5.71 -154.86 0.2872281323269024 0.048989794855663564 0.026476404589746934 0.04570557952810575 0.006633249580710806 4.5825757159471073e-07 0.0 0.0 1.1368683772161603e-13 0.048989794855663564 0.0 0.0 1.095627673984187 0.5467174773134659 10.025288025787589
112.45 0.02 74.79800000000002 0.06399999999999999 1.9330000000000003 48.07466999999999 11.649277 49.2 582.3999999999999 -0.02 0.0 -0.01 3.12 5.289999999999999 93.79000000000002 0.2872281323269024 0.04 0.015999999999999837 0.02690724809414742 0.0100498756211209 7.105427357601002e-15 0.0 0.0 1.1368683772161603e-13 0.04 0.0 0.030000000000000002 1.0989085494252924 0.7879720807236765 135.91599942611614
113.45 0.04 74.934 0.173 1.8039999999999998 48.07466959999999 11.6492754 49.339999999999996 582.5400000000001 0.0 -0.05 -0.04 4.67 1.6599999999999997 124.95 0.2872281323269024 0.048989794855663564 0.061838499334961244 0.07014983962918234 0.05969924622639719 4.898979473197623e-07 9.165151390805134e-07 0.04898979485566426 0.0489897948556747 0.0 0.05000000000000001 0.048989794855663564 0.11874342087037931 0.9318798205777395 11.372884418651237
114.45000000000002 0.0 75.046 0.048 1.698 48.074669799999995 11.649274000000002 49.33 582.5300000000001 0.0 0.0 0.01 4.449999999999999 -1.5 85.91 0.2872281323269024 0.0 0.012806248474863372 0.03280243893371345 0.008717797887081356 3.999999989900971e-07 1.7763568394002505e-15 0.04582575694955905 0.045825756949568815 0.0 0.0 0.03 0.21095023109728986 1.18911731969558 11.09418316055761
115.45000000000002 0.0 75.11699999999999 0.049 1.6510000000000002 48.0746693 11.649273299999999 49.33 582.53 0.0 0.0 0.030000000000000006 3.06 -3.53 59.78000000000001 0.2872281323269024 0.0 0.023685438564653598 0.03935733730830886 0.013747727084867533 4.5825756833859485e-07 4.5825756915262385e-07 0.045825756949559045 0.04582575694956882 0.0 0.0 0.045825756949558406 0.3746998799039039 0.1268857754044953 1.841086635658411
116.45000000000002 0.0 75.199 0.054000000000000006 1.6669999999999998 48.07466999999999 11.6492736 49.3 582.5 0.0 0.0 0.0 3.7199999999999998 -3.7000000000000006 59.980000000000004 0.2872281323269024 0.0 0.015779733838057485 0.024166091947189147 0.01100000000000001 7.105427357601002e-15 4.898979481899958e-07 0.0 0.0 0.0 0.0 0.0 0.13266499161421594 0.13416407864998733 1.8956792977716466
117.45000000000002 0.0 75.237 0.029000000000000005 1.661 48.07466999999999 11.649273399999998 49.32 582.5200000000001 0.0 0.0 0.0 4.26 -2.75 71.22 0.2872281323269024 0.0 0.013453624047074467 0.017578395831246946 0.011357816691600558 7.105427357601002e-15 4.898979481899958e-07 0.04000000000000057 0.0400000000000091 0.0 0.0 0.0 0.1280624847486571 0.48425200051213013 1.5580757362849875
118.45000000000002 0.0 75.28699999999999 0.052000000000000005 1.616 48.07466999999999 11.649272999999999 49.37 582.5699999999999 0.0 0.0 -0.13 4.21 -2.16 72.03 0.2872281323269024 0.0 0.016763054614240394 0.009797958971132711 0.013564659966250463 7.105427357601002e-15 1.7763568394002505e-15 0.07810249675906765 0.0781024967590843 0.0 0.0 0.1676305461424021 0.3753664875824692 0.2764054992217051 0.0781024967590652
119.45000000000002 0.0 75.35999999999999 0.07899999999999999 1.5599999999999998 48.07466999999999 11.6492721 49.720000000000006 582.92 0.0 0.0 -0.26 4.08 -2.63 71.9 0.2872281323269024 0.0 0.02449489742783387 0.015132745950421557 0.016733200530681527 7.105427357601002e-15 3.000000003083869e-07 0.08717797887081144 0.0871779788708333 0.0 0.0 0.1019803902718557 0.2315167380558045 0.16763054614240203 0.0
120.45000000000002 0.0 75.42600000000002 0.044 1.534 48.07466999999999 11.649272 49.89 583.0900000000001 0.0 0.0 -0.02 4.15 -2.12 71.95 0.2872281323269024 0.0 0.011999999999999745 0.029393876913398138 0.006633249580710806 7.105427357601002e-15 0.0 0.030000000000000426 0.030000000000006823 0.0 0.0 0.04 0.1284523257866513 0.09797958971132713 0.049999999999997165
121.45000000000002 0.0 75.478 0.06599999999999999 1.5020000000000002 48.07466989999999 11.649271100000002 49.89999999999999 583.1000000000001 0.0 0.0 0.0 4.15 -2.02 71.97 0.2872281323269024 0.0 0.02481934729198101 0.032310988842807024 0.00979795897113272 2.9999999924257296e-07 2.999999997754799e-07 7.105427357601002e-15 1.1368683772161603e-13 0.0 0.0 0.0 0.10246950765959607 0.17204650534085247 0.04582575694955579
122.45000000000002 0.0 75.548 0.043000000000000003 1.49 48.07466899999999 11.649271 49.94 583.14 0.0 0.0 0.0 4.2 -2.4299999999999997 71.94 0.2872281323269024 0.0 0.01400000000000087 0.024919871588754226 0.0 7.105427357601002e-15 0.0 0.04898979485566426 0.0489897948556747 0.0 0.0 0.0 0.1 0.07810249675906661 0.048989794855660775
123.45000000000002 0.0 75.57300000000001 0.007000000000000001 1.492 48.07466899999999 11.649271 50.0 583.2 0.0 0.0 0.0 4.11 -2.32 71.92 0.2872281323269024 0.0 0.004582575694958184 0.012688577540449521 0.0040000000000000036 7.105427357601002e-15 0.0 0.0 0.0 0.0 0.0 0.0 0.0700000000000001 0.11661903789690593 0.039999999999997725
124.45000000000002 0.0 75.60499999999999 0.011 1.501 48.07466899999999 11.649271500000001 50.0 583.2 0.0 0.0 0.0 3.88 -2.41 71.96000000000001 0.2872281323269024 0.0 0.010246950765961375 0.017578395831246946 0.0030000000000000027 7.105427357601002e-15 4.999999996257998e-07 0.0 0.0 0.0 0.0 0.0 0.6305553108173778 0.2165640782770772 0.048989794855660775
125.45000000000002 1.1599999999999997 76.027 0.867 1.922 48.0746699 11.6492769 49.94 583.1400000000001 0.32 1.1800000000000002 0.02 -11.419999999999998 -2.73 72.51 0.2872281323269024 0.8210602901127299 0.4331293109453574 1.000870121444336 0.4218246081015189 1.04403065118161e-06 5.467174773081691e-06 0.04898979485566426 0.0489897948556747 0.22271057451320087 0.7833262411026456 0.04 4.901795589373348 0.4360045871318328 0.14456832294800817
126.45000000000002 2.724 78.405 2.346 4.293000000000001 48.0746752 11.649308000000001 49.89999999999999 583.1000000000001 0.67 2.64 0.0 -2.74 -3.5100000000000002 72.01 0.2872281323269024 0.14340153416194687 0.851296070706308 0.8885403761225485 0.8242699800429467 1.661324773008295e-06 1.076104084183717e-05 7.105427357601002e-15 1.1368683772161603e-13 0.04582575694955839 0.13564659966250533 0.0 1.1525623627379127 0.14456832294800973 0.13747727084867234
127.45000000000002 2.962 81.30799999999999 2.457 7.206 48.074681 11.6493462 49.89999999999999 583.1000000000001 0.7 2.88 0.0 -0.6599999999999999 -3.8299999999999996 71.81999999999998 0.2872281323269024 0.03599999999999994 0.9000644421373393 0.9319232801041082 0.8537001815625908 1.8973665954300154e-06 1.1214276615030587e-05 7.105427357601002e-15 1.1368683772161603e-13 0.0 0.040000000000000036 0.0 0.29393876913398137 0.06403124237432846 0.04000000000000341
128.45 3.001 84.341 2.934 10.213 48.074688 11.6493851 49.81 583.01 0.7699999999999999 2.8999999999999995 0.0 -0.06000000000000001 -3.7400000000000007 71.82 0.2872281323269034 0.01374772708486743 0.869522282635701 0.031368774282716255 0.8702189379690607 2.1447610585071044e-06 1.1335342959016627e-05 0.030000000000000426 0.030000000000006816 0.04582575694955844 4.440892098500626e-16 0.0 0.048989794855663564 0.04898979485566339 0.040000000000003415
129.45 3.0099999999999993 87.29400000000001 2.077 13.256 48.0746958 11.649424300000002 49.8 583.0 0.8 2.8999999999999995 0.0 0.11000000000000001 -3.65 71.85999999999999 0.2872281323269034 4.440892098500626e-16 0.8272266920258323 1.1908824459198313 0.8752736714879522 2.3151673809123452e-06 1.1126994203279383e-05 0.0 0.0 0.0 4.440892098500626e-16 0.0 0.06999999999999999 0.050000000000000044 0.04898979485566774
130.45 2.93 90.384 2.5940000000000003 16.261000000000003 48.0747037 11.649462999999999 49.86999999999999 583.07 0.8 2.82 0.0 0.23000000000000004 -3.6800000000000006 71.89 0.2872281323269034 0.039999999999999855 0.8495198643939986 0.8655194971807394 0.8521202966717787 2.1931712194629873e-06 1.0761040841936213e-05 0.04582575694955905 0.04582575694956882 0.0 0.040000000000000036 0.0 0.04582575694955839 0.09797958971132706 0.030000000000002556
131.45 2.91 93.321 2.4690000000000003 19.232 48.0747116 11.6495012 49.89999999999999 583.1000000000001 0.8 2.8 0.0 0.29000000000000004 -3.6800000000000006 71.93 0.2872281323269034 0.0 0.8384324659744522 0.9291334672693693 0.8589039527211405 2.2449944313970127e-06 1.0970870521598225e-05 7.105427357601002e-15 1.1368683772161603e-13 0.0 0.0 0.0 0.06999999999999999 0.040000000000000036 0.04582575694955579
132.45 2.865 96.32300000000001 2.8520000000000003 22.212000000000003 48.0747195 11.6495394 49.89999999999999 583.1000000000001 0.8 2.75 0.0 0.3 -3.7600000000000002 72.0 0.2872281323269034 0.04500000000000015 0.8385469575402434 0.039949968710876395 0.8394140813686646 2.1563858647830262e-06 1.0901376060058252e-05 7.105427357601002e-15 1.1368683772161603e-13 0.0 0.04999999999999982 0.0 0.0632455532033676 0.07999999999999988 0.0
133.45 2.82 99.18299999999999 2.562 25.075 48.074726999999996 11.6495761 49.89999999999999 583.1000000000001 0.8 2.7 0.0 0.39 -3.849999999999999 71.92999999999999 0.2872281323269034 0.0 0.8068587236933101 0.5549918918326645 0.8085944595407516 2.1447610585071044e-06 1.0396634070961262e-05 7.105427357601002e-15 1.1368683772161603e-13 0.0 0.0 0.0 0.05385164807134505 0.05000000000000005 0.04582575694955579
134.44285714285715 2.805714285714285 101.89571428571428 2.5685714285714285 27.875714285714285 48.07473442857143 11.649612142857142 49.89999999999999 583.1 0.7999999999999999 2.685714285714286 0.0 0.32857142857142857 -3.8571428571428568 71.95714285714287 0.3155817433482101 0.03499271061118813 0.8185327839294795 2.1056551648998436 0.8937218669755176 2.441143928198519e-06 1.1482017884099615e-05 7.105427357601002e-15 0.0 1.1102230246251565e-16 0.03499271061118829 0.0 0.04517539514526257 0.07284313590846841 0.049487165930536536
135.45 2.7199999999999998 106.152 4.258 30.727000000000004 48.074742300000004 11.649648500000001 49.89999999999999 583.1000000000001 0.8 2.6000000000000005 0.0 0.38 -3.7300000000000004 72.0 0.2872281323269034 4.440892098500626e-16 2.246240414559405 7.93319960671607 0.8162603751254864 2.1931712195925795e-06 1.0500000000152318e-05 7.105427357601002e-15 1.1368683772161603e-13 0.0 4.440892098500626e-16 0.0 0.09797958971132713 0.04582575694955824 0.0
136.45 2.7199999999999998 112.55300000000003 0.842 33.539 48.0747496 11.6496847 49.89999999999999 583.1000000000001 0.8 2.6000000000000005 0.0 0.49000000000000005 -3.8 71.99 0.2872281323269034 4.440892098500626e-16 0.8406907873885631 1.0460764790396542 0.7950402505533913 2.1071307506458923e-06 1.0431203190352794e-05 7.105427357601002e-15 1.1368683772161603e-13 0.0 4.440892098500626e-16 0.0 0.09433981132056603 0.07745966692414824 0.029999999999998295
137.45 2.25 114.87100000000001 0.46299999999999997 36.056000000000004 48.07475589999999 11.649717200000001 49.89999999999999 583.1000000000001 0.4800000000000001 1.9600000000000002 0.0 11.33 -2.89 71.88 0.2872281323269034 0.5374941860150676 0.6916422485649641 0.8235903107735058 0.5620711698708629 1.135781668669754e-06 7.359347797387987e-06 7.105427357601002e-15 1.1368683772161603e-13 0.22271057451320087 0.52 0.0 4.396146039430446 0.8005623023850174 0.14000000000000118
138.45 0.314 116.204 0.21600000000000003 37.019999999999996 48.07475699999999 11.649730100000001 49.92999999999999 583.1299999999999 0.04 0.27999999999999997 -0.01 9.959999999999999 -3.5 71.83999999999999 0.2872281323269034 0.3403586343843799 0.0927577490024418 0.2735397594500661 0.075365774725667 7.105427357601002e-15 1.0440306504670047e-06 0.04582575694955905 0.04582575694956882 0.048989794855663564 0.3124099870362662 0.03 3.458959381085589 0.5477225575051661 0.06633249580711065
139.45 0.0 116.35000000000002 0.05500000000000001 37.117999999999995 48.0747575 11.649731 50.0 583.2 0.0 0.0 0.0 4.39 -1.9699999999999995 71.97999999999999 0.2872281323269034 0.0 0.02792848008753945 0.06606814663663572 0.01400000000000026 5.00000002290335e-07 0.0 0.0 0.0 0.0 0.0 0.0 0.3080584360149872 0.2325940669922601 0.039999999999997725
140.45 0.0 116.444 0.06 37.126999999999995 48.0747573 11.6497317 50.0 583.2 0.0 0.0 0.0 3.95 -2.55 71.97 0.2872281323269034 0.0 0.026153393661242207 0.0523450093132096 0.004582575694958184 4.5825757159471073e-07 4.582575699666528e-07 0.0 0.0 0.0 0.0 0.0 0.09219544457292882 0.2906888370749727 0.04582575694955579
141.45 0.0 116.51999999999998 0.005 37.107000000000006 48.074756199999996 11.649732 50.0 583.2 0.0 0.0 0.0 4.040000000000001 -3.1900000000000004 71.91 0.2872281323269034 0.0 0.04999999999999716 0.015 0.006403124237431575 3.999999989900971e-07 0.0 0.0 0.0 0.0 0.0 0.0 0.06633249580710797 0.14456832294800953 0.02999999999999829
142.45 0.0 116.582 0.0 37.159 48.07475649999999 11.6497321 50.0 583.2 0.0 0.0 0.0 4.19 -2.8 71.94 0.2872281323269034 0.0 0.036000000000001364 0.0 0.024677925358506516 4.999999987376214e-07 2.999999997754799e-07 0.0 0.0 0.0 0.0 0.0 0.11357816691600543 0.1264911064067351 0.048989794855660775
143.45 0.0 116.71399999999998 0.019999999999999997 37.251 48.07475699999999 11.6497333 49.989999999999995 583.19 0.0 0.0 0.0 4.19 -2.66 71.92 0.2872281323269034 0.0 0.03666060555964594 0.03714835124201342 0.02385372088375401 7.105427357601002e-15 4.582575699666528e-07 0.030000000000000426 0.03000000000000682 0.0 0.0 0.0 0.05385164807134515 0.06633249580710797 0.039999999999997725
144.45 0.0 116.79399999999998 0.025 37.274 48.07475699999999 11.649733999999999 49.75 582.95 0.0 0.0 0.48 3.9299999999999997 -2.71 71.84 0.2872281323269034 0.0 0.017435595774160855 0.024596747752497684 0.004898979485565382 7.105427357601002e-15 1.7763568394002505e-15 0.18027756377319887 0.18027756377320261 0.0 0.0 0.3627671429443411 0.46914816422959593 0.3477067730142743 0.08000000000000149
145.45 0.0 116.856 0.052000000000000005 37.294 48.074756799999996 11.649733999999999 48.85 582.05 0.0 0.0 0.9099999999999999 3.72 -2.54 71.9 0.2872281323269034 0.0 0.021071307505707085 0.04261455150532504 0.00663324958070948 3.999999989900971e-07 1.7763568394002505e-15 0.2872281323269014 0.28722813232689354 0.0 0.0 0.029999999999999995 0.13999999999999996 0.16852299546352723 0.0
146.45 0.0 116.931 0.05700000000000001 37.28099999999999 48.074755999999994 11.649733999999999 47.85 581.05 0.0 0.0 0.95 3.5900000000000007 -3.18 71.89 0.2872281323269034 0.0 0.01445683229480187 0.027221315177632398 0.005385164807133433 7.105427357601002e-15 1.7763568394002505e-15 0.2872281323269014 0.28722813232689354 0.0 0.0 0.04999999999999999 0.08306623862918083 0.10770329614269003 0.030000000000002556
147.45 0.0 116.973 0.019999999999999997 37.269 48.074755999999994 11.649733999999999 46.83 580.03 0.0 0.0 0.96 3.65 -3.08 71.9 0.2872281323269034 0.0 0.00781024967591065 0.019493588689617928 0.003000000000001535 7.105427357601002e-15 1.7763568394002505e-15 0.316385840391128 0.31638584039112505 0.0 0.0 0.04898979485566356 0.16881943016134132 0.17776388834631188 0.0
148.45 0.0 117.00899999999999 0.049 37.257999999999996 48.074755999999994 11.649733999999999 45.75 578.95 0.0 0.0 0.95 3.56 -2.71 71.93 0.2872281323269034 0.0 0.023853720883753232 0.043 0.003999999999999204 7.105427357601002e-15 1.7763568394002505e-15 0.2872281323269024 0.2872281323268935 0.0 0.0 0.049999999999999996 0.11135528725660054 0.25865034312755125 0.04582575694955579
