"avg_time (s)" avg_latitude avg_longitude avg_altitude(m) avg_ultrasonicHeight(m) avg_speed(mps) avg_distance(m) avg_time(millisecond) avg_velocityX(mps) avg_velocityY(mps) avg_velocityZ(mps) avg_pitch(deg) avg_roll(deg) avg_yaw(deg) avg_pitchRaw avg_rollRaw avg_yawRaw avg_uplinkSignalQuality "stdDev_time (s)" stdDev_latitude stdDev_longitude stdDev_altitude(m) stdDev_ultrasonicHeight(m) stdDev_speed(mps) stdDev_distance(m) stdDev_time(millisecond) stdDev_velocityX(mps) stdDev_velocityY(mps) stdDev_velocityZ(mps) stdDev_pitch(deg) stdDev_roll(deg) stdDev_yaw(deg) stdDev_pitchRaw stdDev_rollRaw stdDev_yawRaw stdDev_uplinkSignalQuality
0.45020000000000004 48.075009400000006 11.64864 0.6 0.5700000000000001 0.4 0.12700000000000003 450.2 0.0 0.0 -0.4 0.72 1.1700000000000002 -107.68000000000002 -7.2 11.7 -1076.8 100.0 0.2858271505648125 4.898979473197623e-07 0.0 0.11832159566199231 0.1268857754044952 0.0 0.023685438564654025 285.82715056481254 0.0 0.0 0.0 0.1469693845669907 0.38483762809787714 0.04000000000000341 1.4696938456699067 3.8483762809787714 0.4 0.0
1.468 48.07500971428572 11.648639428571428 1.0571428571428572 0.9857142857142858 0.45714285714285713 0.11857142857142858 1468.0 0.0 0.0 -0.45714285714285713 0.7142857142857143 0.7857142857142857 -107.67142857142858 -7.142857142857143 7.857142857142857 -1076.7142857142858 100.0 0.2853133615618348 4.5175395031205656e-07 4.948716598141e-07 0.1590789817951435 0.12453996981544779 0.04948716593053934 0.033563828927059225 285.3133615618348 0.0 0.0 0.04948716593053934 0.14568627181693675 0.3440455593940656 0.04517539514526641 1.456862718169367 3.440455593940656 0.45175395145262565 0.0
2.52675 48.075009 11.64864 1.725 1.525 1.125 0.19 2526.75 0.0 0.0 -1.125 0.08749999999999997 1.1125 -107.625 -0.875 11.125 -1076.25 100.0 0.28330626096152545 0.0 0.0 0.32691742076555047 0.2772634126602354 0.6514407110397692 0.01802775637731995 283.30626096152554 0.0 0.0 0.6514407110397692 0.6899954709996291 0.36550478793033614 0.043301270189225624 6.899954709996291 3.6550478793033614 0.4330127018922193 0.0
3.454 48.07500871428572 11.648639857142857 3.8428571428571425 2.914285714285714 3.0142857142857147 0.21285714285714286 3454.0 0.0 0.0 -3.0142857142857147 -0.07142857142857147 0.8999999999999998 -107.65714285714286 0.7142857142857143 9.0 -1076.5714285714287 100.0 0.2703547933470281 4.517539535219615e-07 3.4992710647159236e-07 0.9955000794391056 1.4045116807006233 0.23560603574958064 0.019794866372215742 270.35479334702814 0.0 0.0 0.23560603574958064 0.6860118402024554 0.23904572186687875 0.04948716593054357 6.860118402024554 2.390457218668787 0.4948716593053935 0.0
4.52 48.075008874999995 11.64864 7.112500000000001 0.0 2.125 0.2125 4520.0 0.0125 0.0 -2.125 -0.4125000000000001 0.5375000000000001 -107.65 4.125 5.375 -1076.5 100.0 0.3018960913956987 3.307189153979881e-07 7.071067812853854e-07 0.654670718758675 0.0 0.3733296130767019 0.02947456530637899 301.8960913956986 0.033071891388307385 0.0 0.3733296130767019 0.8237680195297703 0.5194648688795038 0.05000000000000426 8.237680195297703 5.194648688795037 0.5 0.0
5.456428571428572 48.07500900000001 11.648639000000001 8.72857142857143 0.0 1.342857142857143 0.15142857142857144 5456.428571428572 0.0 0.0 -1.3285714285714287 0.4571428571428572 0.18571428571428572 -107.60000000000001 -4.571428571428571 1.8571428571428572 -1076.0 100.0 0.30426814167904 7.105427357601002e-15 1.7763568394002505e-15 0.35340905362437125 0.0 0.24411439272335803 0.011248582677159728 304.26814167903996 0.0 0.0 0.2602981022612657 0.44031528592635544 0.20303814862216993 1.4210854715202004e-14 4.403152859263554 2.030381486221699 0.0 0.0
6.477666666666667 48.075009333333334 11.648639166666667 9.633333333333333 0.0 0.3333333333333333 0.11499999999999999 6477.666666666667 0.0 0.0 -0.3333333333333333 -0.20000000000000004 -0.2833333333333334 -103.43333333333334 2.0 -2.8333333333333335 -1034.3333333333333 100.0 0.2733884090853566 4.714045196008497e-07 3.726779966330617e-07 0.11055415967851294 0.0 0.3248931448269655 0.016072751268321594 273.3884090853565 0.0 0.0 0.3248931448269655 0.5196152422706631 0.33870669054835967 4.70094553136801 5.196152422706632 3.3870669054835956 47.00945531368013 0.0
7.5265 48.075010125000006 11.64864 9.6 0.0 0.05 0.08625 7526.5 0.0 -0.075 0.0 -3.1 -0.3 -87.075 31.0 -3.0 -870.75 100.0 0.3225496085875783 3.307189153979881e-07 0.0 0.0707106781186545 0.0 0.1 0.006959705453537528 322.54960858757835 0.0 0.16393596310755001 0.0 5.389805191284746 0.31622776601683794 0.9743587634952515 53.898051912847464 3.1622776601683795 9.743587634952538 0.0
8.524666666666667 48.075011666666676 11.648631166666666 9.516666666666667 0.0 1.5116666666666667 0.5833333333333334 8524.666666666666 0.11666666666666665 -1.5 -0.13333333333333333 -14.200000000000001 -0.5166666666666667 -86.28333333333335 142.0 -5.166666666666667 -862.8333333333334 100.0 0.2555403860232057 7.453559906180869e-07 5.8713049845873135e-06 0.037267799624996364 0.0 0.5257190842603637 0.4511713150850302 255.5403860232055 0.06871842709362769 0.5196152422706631 0.07453559924999299 0.10000000000000024 0.13437096247164249 0.1462494064565373 1.0 1.3437096247164249 1.4624940645653537 0.0
9.509714285714285 48.075015 11.648594571428573 9.685714285714285 0.0 3.411428571428572 3.347142857142857 9509.714285714286 0.24285714285714285 -3.3999999999999995 -0.14285714285714285 -14.471428571428572 -1.2857142857142858 -86.3 144.71428571428572 -12.857142857142858 -863.0 100.0 0.3258293656351497 1.3093073412113338e-06 1.546292471737114e-05 0.08329931278350468 0.0 0.5115921526101088 1.150064771911494 325.8293656351497 0.04948716593053934 0.5126959555693246 0.04948716593053936 0.12777531299998754 0.3642156795423417 0.07559289460184652 1.2777531299998799 3.6421567954234177 0.7559289460184544 0.0
10.557428571428572 48.075018 11.648537285714285 9.857142857142858 0.0 4.418571428571428 7.6071428571428585 10557.42857142857 0.1285714285714286 -4.442857142857142 -0.08571428571428572 -3.157142857142857 -1.842857142857143 -86.37142857142858 31.571428571428573 -18.428571428571427 -863.7142857142857 100.0 0.296748020642265 7.559289441099173e-07 1.829687159628142e-05 0.04948716593053918 0.0 0.29997278788148063 1.3573999756437125 296.74802064226486 0.06998542122237653 0.2871393034605968 0.03499271061118826 10.535769975639742 0.5473498303048006 0.19059520091608909 105.35769975639742 5.4734983030480056 1.9059520091609048 0.0
11.5415 48.07501883333333 11.648493666666667 9.9 0.0 2.4166666666666665 10.845 11541.5 0.0 -2.4166666666666665 0.0 10.016666666666667 -0.7833333333333335 -86.38333333333334 -100.16666666666667 -7.833333333333333 -863.8333333333334 100.0 0.28825957630811394 3.7267799530904347e-07 7.3635740115224965e-06 0.0 0.0 0.7380529941828176 0.5515659525387696 288.2595763081139 0.0 0.7380529941828176 0.0 1.0699169230469356 0.7357913351548038 0.08975274678557657 10.699169230469355 7.357913351548039 0.8975274678557508 0.0
12.4845 48.075018 11.648477875 9.912500000000001 0.0 0.7625 12.025 12484.5 0.0 -0.7625 0.0 3.3000000000000003 0.8375 -86.3125 -33.0 8.375 -863.125 100.0 0.2933794471328899 0.0 2.8034576867292293e-06 0.03307189138830727 0.0 0.17984368212422697 0.193713706278105 293.37944713288965 0.0 0.17984368212422697 0.0 0.7858116822750855 0.34255474015111803 0.10532687216470799 7.858116822750856 3.42554740151118 1.0532687216470449 0.0
13.518624999999998 48.075018 11.648472125000001 9.9 0.0 0.09999999999999999 12.43375 13518.625 0.0 -0.09999999999999999 0.0 2.6125 -0.2 -69.23750000000001 -26.125 -2.0 -692.375 100.0 0.2931185500356468 0.0 3.3071891363556367e-07 0.0 0.0 0.15000000000000002 0.017275343701356537 293.1185500356468 0.0 0.15000000000000002 0.0 2.2323964141702075 0.4213074886588179 18.13483784735888 22.323964141702074 4.2130748865881795 181.34837847358878 0.0
14.51475 48.075018 11.648472 9.9 0.0 0.0 12.432500000000001 14514.75 0.0 0.0 0.0 0.6 -0.75 -14.275 -6.0 -7.5 -142.75 100.0 0.31385934349641426 0.0 0.0 0.0 0.0 0.0 0.0066143782776613355 313.859343496414 0.0 0.0 0.0 0.18708286933869708 0.2345207879911715 7.45633120240779 1.8708286933869707 2.345207879911715 74.5633120240779 0.0
15.507888888888889 48.07501744444445 11.648468555555556 9.9 0.0 0.7077777777777777 12.707777777777778 15507.888888888889 -0.16666666666666666 -0.7111111111111111 0.0 4.455555555555556 -8.722222222222221 -1.5555555555555554 -44.55555555555556 -87.22222222222223 -15.555555555555555 100.0 0.2719123406314141 6.849348891544234e-07 3.337034981673922e-06 0.0 0.0 0.4056757812664848 0.24247693030141057 271.9123406314144 0.1247219128924647 0.3899984172174277 0.0 1.2102443381502312 4.4095295233487155 1.174839101145449 12.102443381502313 44.09529523348716 11.74839101145449 0.0
16.480857142857143 48.07501442857143 11.648454428571428 9.9 0.0 1.0157142857142858 13.748571428571427 16480.85714285714 -0.3 -0.9714285714285715 0.0 1.7857142857142858 -1.0999999999999999 -0.042857142857142864 -17.857142857142858 -11.0 -0.42857142857142855 100.0 0.27089398483614985 9.035079022290653e-07 3.458205268056698e-06 0.0 0.0 0.06565214453186317 0.2601883148484448 270.8939848361498 0.0 0.06998542122237654 0.0 0.08329931278350428 0.3741657386773941 0.04948716593053936 0.8329931278350429 3.7416573867739413 0.4948716593053935 0.0
17.415857142857146 48.07501114285715 11.648442571428571 9.942857142857141 0.0 0.9500000000000001 14.625714285714285 17415.85714285714 -0.3 -0.9000000000000001 0.0 1.4142857142857144 -1.7285714285714289 0.0 -14.142857142857142 -17.285714285714285 0.0 100.0 0.2532674636886185 9.897433184561084e-07 2.664965443948926e-06 0.04948716593053918 0.0 1.1102230246251565e-16 0.20845397867272744 253.26746368861774 0.0 1.1102230246251565e-16 0.0 0.20995626366712958 0.10301575072754252 0.0 2.0995626366712954 1.0301575072754254 0.0 0.0
18.493000000000002 48.07500685714285 11.648428142857142 10.0 0.0 0.9500000000000001 15.702857142857141 18493.0 -0.3 -0.9000000000000001 0.0 1.3 -2.0 0.0 -13.0 -20.0 0.0 100.0 0.31350142401134795 1.2453996982703398e-06 4.389226141451564e-06 0.0 0.0 1.1102230246251565e-16 0.31743230035099157 313.50142401134775 0.0 1.1102230246251565e-16 0.0 0.17728105208558365 0.053452248382484926 0.0 1.7728105208558367 0.5345224838248488 0.0 0.0
19.528888888888886 48.07500377777777 11.648414888888887 9.911111111111113 0.0 0.9499999999999998 16.704444444444444 19528.88888888889 -0.3 -0.8999999999999999 0.0 1.677777777777778 -2.011111111111111 0.0 -16.77777777777778 -20.11111111111111 0.0 100.0 0.2726619577606606 6.285393594677996e-07 3.5101264444476877e-06 0.03142696805273533 0.0 1.1102230246251565e-16 0.26529275699419363 272.6619577606611 0.0 1.1102230246251565e-16 0.0 0.16178021976178927 0.07370277311900895 0.0 1.617802197617893 0.7370277311900888 0.0 0.0
20.4025 48.07500116666666 11.648403833333333 9.9 0.0 0.9500000000000001 17.543333333333333 20402.5 -0.3 -0.9 0.0 1.6166666666666665 -1.7666666666666666 0.0 -16.166666666666668 -17.666666666666668 0.0 100.0 0.20270483467347314 6.871842692013033e-07 2.114762923412191e-06 0.0 0.0 1.1102230246251565e-16 0.16499158227686087 202.70483467347296 0.0 0.0 0.0 0.06871842709362765 0.09428090415820632 0.0 0.6871842709362768 0.9428090415820634 0.0 0.0
21.463111111111107 48.07499833333334 11.648390333333332 9.9 0.0 0.9499999999999998 18.554444444444442 21463.11111111111 -0.3 -0.8999999999999999 0.0 2.011111111111111 -2.0 0.0 -20.11111111111111 -20.0 0.0 100.0 0.3033269026587377 9.428090405973371e-07 4.1899350300753695e-06 0.0 0.0 1.1102230246251565e-16 0.3123783713920994 303.3269026587375 0.0 1.1102230246251565e-16 0.0 0.18525924445036737 0.20548046676563253 0.0 1.852592444503674 2.0548046676563256 0.0 0.0
22.5325 48.07499525 11.648377125 9.9 0.0 0.95 19.57 22532.5 -0.3 -0.9 0.0 1.85 -1.9375 0.0 -18.5 -19.375 0.0 100.0 0.2905468981076897 9.682458380058222e-07 3.443744328684218e-06 0.0 0.0 0.0 0.2751817581163397 290.54689810768934 0.0 0.0 0.0 0.19364916731037082 0.16535945694153698 0.0 1.9364916731037085 1.653594569415369 0.0 0.0
23.484750000000002 48.074992124999994 11.648365375000001 10.0 0.0 0.95 20.4825 23484.75 -0.3 -0.9 0.0 1.7125 -2.1125 0.0 -17.125 -21.125 0.0 100.0 0.2598873554061446 5.994789405673331e-07 3.1598061649392165e-06 0.0 0.0 0.0 0.24231952046832786 259.88735540614516 0.0 0.0 0.0 0.11659223816361018 0.16153559979150106 0.0 1.165922381636102 1.6153559979150107 0.0 0.0
24.477285714285717 48.07498914285715 11.648353142857143 10.0 0.0 0.9500000000000001 21.41142857142857 24477.285714285714 -0.3 -0.9000000000000001 0.0 1.6285714285714286 -2.185714285714286 0.0 -16.285714285714285 -21.857142857142858 0.0 100.0 0.24867231121969896 9.897433184561084e-07 3.181579635686709e-06 0.0 0.0 1.1102230246251565e-16 0.25720634136975773 248.6723112196992 0.0 1.1102230246251565e-16 0.0 0.1385051387833237 0.14568627181693664 0.0 1.3850513878332367 1.4568627181693672 0.0 0.0
25.568714285714286 48.074985285714284 11.648339857142858 10.0 0.0 0.9500000000000001 22.454285714285714 25568.714285714286 -0.3 -0.9000000000000001 0.0 1.5142857142857145 -2.242857142857143 0.0 -15.142857142857142 -22.428571428571427 0.0 100.0 0.2882333946577299 1.030157507771328e-06 3.602720060914813e-06 0.0 0.0 1.1102230246251565e-16 0.28172210942483 288.2333946577293 0.0 1.1102230246251565e-16 0.0 0.17261494247992248 0.10497813183356468 0.0 1.7261494247992246 1.049781318335648 0.0 0.0
26.576999999999998 48.074982250000005 11.648327125 10.0 0.0 0.95 23.432499999999997 26577.0 -0.3 -0.9 0.0 1.4625 -2.075 0.0 -14.625 -20.75 0.0 100.0 0.28370627416396715 9.682458370885154e-07 3.6550478791801773e-06 0.0 0.0 0.0 0.2830083921017183 283.706274163967 0.0 0.0 0.0 0.15761900266148116 0.08291561975888508 0.0 1.5761900266148114 0.82915619758885 0.0 0.0
27.595857142857145 48.07497914285714 11.648314857142859 10.0 0.0 1.0271428571428571 24.381428571428568 27595.85714285714 -0.3 -0.9857142857142858 0.0 1.3285714285714285 -2.0 -0.014285714285714287 -13.285714285714286 -20.0 -0.14285714285714285 100.0 0.2330888417819808 9.897433180165741e-07 3.3563828923758e-06 0.0 0.0 0.03149343955006946 0.2677647459686837 233.08884178198088 0.0 0.034992710611188256 0.0 0.1385051387833237 0.21380899352993948 0.03499271061118826 1.385051387833237 2.138089935299395 0.34992710611188266 0.0
28.5315 48.074976 11.648302699999999 10.0 0.0 1.031 25.329 28531.5 -0.29999999999999993 -0.99 0.0 1.35 -2.0900000000000003 0.0 -13.5 -20.9 0.0 100.0 0.2897920806371355 7.745966672858148e-07 3.5791060337552573e-06 0.0 0.0 0.027000000000000024 0.27940830338413375 289.7920806371354 5.551115123125783e-17 0.029999999999999992 0.0 0.09219544457292886 0.19209372712298542 0.0 0.9219544457292888 1.9209372712298545 0.0 0.0
29.512875 48.074973125 11.648290750000001 10.0 0.0 1.0175 26.270000000000003 29512.875 -0.3 -0.975 0.0 1.5499999999999998 -1.9625 0.0 -15.5 -19.625 0.0 100.0 0.26454320889979416 7.806247478289117e-07 3.4186985826714067e-06 0.0 0.0 0.038971143170299774 0.2610076627227639 264.5432088997939 0.0 0.043301270189221926 0.0 0.21213203435596423 0.2595067436503336 0.0 2.1213203435596424 2.595067436503337 0.0 0.0
30.49675 48.07497012500001 11.648278625 10.0 0.0 1.0175 27.207500000000003 30496.75 -0.3 -0.975 0.0 1.4375 -2.05 0.0 -14.375 -20.5 0.0 100.0 0.29706512333156854 1.0532687205689077e-06 4.090767042830812e-06 0.0 0.0 0.038971143170299774 0.31621788374473675 297.0651233315685 0.0 0.043301270189221926 0.0 0.16535945694153695 0.2645751311064591 0.0 1.653594569415369 2.6457513110645907 0.0 0.0
31.476888888888887 48.07496677777778 11.648265777777778 10.0 0.0 1.01 28.214444444444446 31476.88888888889 -0.3 -0.9666666666666666 0.0 1.377777777777778 -1.8888888888888888 0.0 -13.777777777777779 -18.88888888888889 0.0 100.0 0.29932978633549695 1.0304020538156926e-06 4.021546904689167e-06 0.0 0.0 0.04242640687119289 0.30052217929283265 299.3297863354971 0.0 0.04714045207910316 0.0 0.18724777273725246 0.11967032904743344 0.0 1.872477727372524 1.1967032904743342 0.0 0.0
32.543000000000006 48.074963600000004 11.6482524 10.0 0.0 0.95 29.259999999999998 32543.0 -0.3 -0.9 0.0 1.48 -1.98 -0.04 -14.8 -19.8 -0.4 100.0 0.28409716647654193 1.0198039032094753e-06 4.127953488067389e-06 0.0 0.0 0.0 0.30410524493997104 284.097166476542 0.0 0.0 0.0 0.15999999999999998 0.16000000000000003 0.048989794855663564 1.6 1.5999999999999999 0.48989794855663565 0.0
33.4895 48.0749605 11.648239875 10.0 0.0 0.95 30.2525 33489.5 -0.3 -0.9 0.0 1.5 -2.0 -0.037500000000000006 -15.0 -20.0 -0.375 100.0 0.32783074901540293 1.118033989104774e-06 3.822221212855696e-06 0.0 0.0 0.0 0.29969776442275964 327.8307490154028 0.0 0.0 0.0 0.16583123951776998 0.11180339887498954 0.04841229182759271 1.6583123951777 1.118033988749895 0.4841229182759271 0.0
34.58757142857142 48.07495714285714 11.648225714285713 10.0 0.0 0.9500000000000001 31.340000000000003 34587.57142857143 -0.3 -0.9000000000000001 0.0 1.3571428571428574 -1.8714285714285712 0.0 -13.571428571428571 -18.714285714285715 0.0 100.0 0.24860229693391045 8.329931288654051e-07 3.325841921869248e-06 0.0 0.0 1.1102230246251565e-16 0.25906425016641266 248.60229693391076 0.0 1.1102230246251565e-16 0.0 0.1178030178747903 0.17496355305594133 0.0 1.1780301787479033 1.749635530559413 0.0 0.0
35.48414285714286 48.074954428571424 11.64821457142857 10.0 0.0 0.9500000000000001 32.21142857142857 35484.142857142855 -0.3 -0.9000000000000001 0.0 1.3857142857142857 -1.8142857142857145 0.0 -13.857142857142858 -18.142857142857142 0.0 100.0 0.2582232857550266 9.035079036735227e-07 3.331972511642707e-06 0.0 0.0 1.1102230246251565e-16 0.2472955762661681 258.22328575502723 0.0 1.1102230246251565e-16 0.0 0.0989743318610787 0.12453996981544778 0.0 0.989743318610787 1.2453996981544782 0.0 0.0
36.506 48.0749515 11.648201833333333 10.0 0.0 0.9500000000000001 33.205 36506.0 -0.3 -0.9 0.0 1.6500000000000001 -1.9333333333333333 -0.03333333333333333 -16.5 -19.333333333333332 -0.3333333333333333 100.0 0.30038086934201763 9.574271084313073e-07 3.5316033497877143e-06 0.0 0.0 1.1102230246251565e-16 0.2817652687374121 300.3808693420183 0.0 0.0 0.0 0.1118033988749895 0.12472191289246476 0.047140452079103175 1.118033988749895 1.2472191289246473 0.4714045207910317 0.0
37.568428571428576 48.074948142857146 11.648188000000001 10.0 0.0 0.9500000000000001 34.291428571428575 37568.42857142857 -0.3 -0.9000000000000001 0.0 1.5 -1.7428571428571427 0.0 -15.0 -17.428571428571427 0.0 100.0 0.2856820696122876 9.897433180165741e-07 3.7416573867543696e-06 0.0 0.0 1.1102230246251565e-16 0.2987320142310348 285.6820696122863 0.0 1.1102230246251565e-16 0.0 0.1927248223318863 0.18405855323893036 0.0 1.927248223318863 1.8405855323893037 0.0 0.0
38.54025 48.074945 11.648175625 10.0 0.0 0.95 35.275000000000006 38540.25 -0.3 -0.9 0.0 1.5125000000000002 -1.875 0.0 -15.125 -18.75 0.0 100.0 0.3027976841060717 9.999999992515995e-07 4.029190365412871e-06 0.0 0.0 0.0 0.3080584360149883 302.7976841060711 0.0 0.0 0.0 0.16909686573085855 0.09682458365518543 0.0 1.6909686573085854 0.9682458365518543 0.0 0.0
39.50957142857143 48.074942 11.648164 10.0 0.0 0.9500000000000001 36.19714285714286 39509.57142857143 -0.3 -0.9000000000000001 0.0 1.442857142857143 -2.0571428571428574 0.0 -14.428571428571429 -20.571428571428573 0.0 100.0 0.32850912452770425 1.0690449668496237e-06 3.9999999999246994e-06 0.0 0.0 1.1102230246251565e-16 0.32207870758178186 328.509124527705 0.0 1.1102230246251565e-16 0.0 0.13997084244475308 0.10497813183356487 0.0 1.3997084244475304 1.049781318335648 0.0 0.0
40.45614285714286 48.07493914285715 11.648151428571428 10.0 0.0 0.9500000000000001 37.16285714285714 40456.142857142855 -0.3 -0.9000000000000001 0.0 1.5142857142857142 -1.9 0.0 -15.142857142857142 -19.0 0.0 100.0 0.29337222995048784 8.329931257319375e-07 3.6196741310792045e-06 0.0 0.0 1.1102230246251565e-16 0.27803978573035115 293.37222995048876 0.0 1.1102230246251565e-16 0.0 0.06388765649999405 0.15118578920369094 0.0 0.6388765649999398 1.5118578920369088 0.0 0.0
41.51466666666667 48.07493588888889 11.648138222222222 10.0 0.0 0.9499999999999998 38.21333333333334 41514.666666666664 -0.3 -0.8999999999999999 0.0 1.4666666666666666 -2.0666666666666664 0.0 -14.666666666666666 -20.666666666666668 0.0 100.0 0.3018837156551819 9.938079889913365e-07 3.7646831879769905e-06 0.0 0.0 1.1102230246251565e-16 0.29522119767312693 301.88371565518037 0.0 1.1102230246251565e-16 0.0 0.10540925533894599 0.08164965809277268 0.0 1.0540925533894598 0.816496580927726 0.0 0.0
42.41642857142857 48.07493314285714 11.648127142857144 10.0 0.0 0.9500000000000001 39.07428571428572 42416.42857142857 -0.3 -0.9000000000000001 0.0 1.3857142857142857 -1.928571428571429 0.0 -13.857142857142858 -19.285714285714285 0.0 100.0 0.24507424947371095 6.388765652027281e-07 2.5872528964679052e-06 0.0 0.0 1.1102230246251565e-16 0.2072167355939299 245.07424947370956 0.0 1.1102230246251565e-16 0.0 0.1124858267715973 0.1484614977916181 0.0 1.124858267715973 1.4846149779161804 0.0 0.0
43.50775 48.074929999999995 11.648114249999999 10.0 0.0 0.95 40.0875 43507.75 -0.3 -0.9 0.0 1.5375 -1.9375 0.0 -15.375 -19.375 0.0 100.0 0.3170432738602092 1.224744871200184e-06 4.408798022199349e-06 0.0 0.0 0.0 0.35002678468940074 317.0432738602098 0.0 0.0 0.0 0.13169567191065926 0.0992156741649222 0.0 1.3169567191065923 0.9921567416492215 0.0 0.0
44.537499999999994 48.074927 11.6481 10.0 0.0 0.95 41.205 44537.5 -0.3 -0.9 0.0 1.6749999999999998 -1.8875000000000002 0.0 -16.75 -18.875 0.0 100.0 0.3189682586089097 8.66025404674675e-07 4.123105625709296e-06 0.0 0.0 0.0 0.32380549717384344 318.96825860890925 0.0 0.0 0.0 0.17853571071357127 0.1452368754827781 0.0 1.7853571071357126 1.4523687548277813 0.0 0.0
45.421571428571426 48.07492442857143 11.648088857142858 10.0 0.0 0.9500000000000001 42.09142857142857 45421.57142857143 -0.3 -0.9000000000000001 0.0 1.5999999999999999 -1.742857142857143 0.0 -16.0 -17.428571428571427 0.0 100.0 0.23463153919214247 7.284313592362696e-07 2.948538205614881e-06 0.0 0.0 1.1102230246251565e-16 0.22655359324505225 234.6315391921416 0.0 1.1102230246251565e-16 0.0 0.14142135623730953 0.19166296949998193 0.0 1.4142135623730951 1.9166296949998196 0.0 0.0
46.42488888888889 48.07492177777778 11.648076 10.0 0.0 0.9499999999999998 43.08222222222222 46424.88888888889 -0.3 -0.8999999999999999 0.0 1.8777777777777775 -1.5888888888888888 -0.011111111111111112 -18.77777777777778 -15.88888888888889 -0.1111111111111111 100.0 0.2905976387624671 9.162456938002437e-07 3.4641016148242864e-06 0.0 0.0 1.1102230246251565e-16 0.27344622781485334 290.59763876246654 0.0 1.1102230246251565e-16 0.0 0.13146843962443588 0.10999438818457405 0.03142696805273545 1.314684396244359 1.0999438818457405 0.31426968052735443 0.0
47.406125 48.074918999999994 11.648063375 10.0 0.0 0.95 44.06875 47406.125 -0.3 -0.9 0.0 1.7125 -1.8375 0.0 -17.125 -18.375 0.0 100.0 0.29258863507491184 1.000000000139778e-06 3.805834336883647e-06 0.0 0.0 0.0 0.31146578865101615 292.58863507491196 0.0 0.0 0.0 0.1832859787326897 0.16535945694153692 0.0 1.8328597873268975 1.653594569415369 0.0 0.0
48.44685714285715 48.07491557142857 11.64804942857143 10.0 0.0 0.9500000000000001 45.15571428571428 48446.857142857145 -0.3 -0.9000000000000001 0.0 1.4714285714285713 -1.7285714285714289 0.014285714285714287 -14.714285714285714 -17.285714285714285 0.14285714285714285 100.0 0.2477385883613301 9.035079036735227e-07 3.3319725111313417e-06 0.0 0.0 1.1102230246251565e-16 0.2537072071084602 247.7385883613316 0.0 1.1102230246251565e-16 0.0 0.06998542122237658 0.3493434074467852 0.03499271061118826 0.6998542122237652 3.493434074467852 0.34992710611188266 0.0
49.51811111111111 48.074912444444436 11.648036 10.0 0.0 0.9499999999999998 46.21555555555556 49518.11111111111 -0.3 -0.8999999999999999 0.0 1.4333333333333331 -1.5555555555555556 0.0 -14.333333333333334 -15.555555555555555 0.0 100.0 0.27921534677832965 1.0657403389509904e-06 4.216370213398217e-06 0.0 0.0 1.1102230246251565e-16 0.3211130334429198 279.21534677833023 0.0 1.1102230246251565e-16 0.0 0.08164965809277264 0.16405358955814892 0.0 0.816496580927726 1.640535895581489 0.0 0.0
50.516125 48.074909625000004 11.648022874999999 10.0 0.0 0.95 47.24125 50516.125 -0.3 -0.9 0.0 1.5875 -1.6625 0.0 -15.875 -16.625 0.0 100.0 0.29040249546965086 8.569568258662677e-07 3.655047879339646e-06 0.0 0.0 0.0 0.2873341913173585 290.40249546964986 0.0 0.0 0.0 0.13635890143294646 0.19960899278339142 0.0 1.3635890143294642 1.996089927833914 0.0 0.0
51.495125 48.074906874999996 11.6480105 10.0 0.0 0.95 48.21000000000001 51495.125 -0.3 -0.9 0.0 1.7 -1.475 0.0 -17.0 -14.75 0.0 100.0 0.23343973392505413 7.806247508155815e-07 2.9154759469543216e-06 0.0 0.0 0.0 0.21948804067648095 233.43973392505399 0.0 0.0 0.0 0.07071067811865474 0.22220486043288973 0.0 0.7071067811865476 2.222048604328897 0.0 0.0
52.577000000000005 48.074903500000005 11.647997833333333 10.0 0.0 0.9500000000000001 49.22 52577.0 -0.3 -0.9 0.0 1.25 -1.6833333333333333 -0.016666666666666666 -12.5 -16.833333333333332 -0.16666666666666666 100.0 0.22581039243872872 7.637626162234551e-07 3.287180487296036e-06 0.0 0.0 1.1102230246251565e-16 0.25324559884296827 225.8103924387302 0.0 0.0 0.0 0.25658007197234417 0.06871842709362765 0.037267799624996496 2.565800719723442 0.6871842709362768 0.372677996249965 0.0
53.493125 48.07490075 11.647985625 10.0 0.0 0.95 50.18 53493.125 -0.3 -0.9 0.0 1.25 -1.6625 0.0 -12.5 -16.625 0.0 100.0 0.26072132512512186 8.291561981733905e-07 3.3888604277786244e-06 0.0 0.0 0.0 0.26485845276298103 260.7213251251228 0.0 0.0 0.0 0.050000000000000044 0.14947825928876743 0.0 0.5 1.4947825928876748 0.0 0.0
54.467333333333336 48.074898000000005 11.647973111111112 10.0 0.0 0.9499999999999998 51.15111111111111 54467.333333333336 -0.3 -0.8999999999999999 0.0 1.4111111111111112 -1.588888888888889 0.0 -14.11111111111111 -15.88888888888889 0.0 100.0 0.2671840813621447 8.164965817670489e-07 3.2810717910066815e-06 0.0 0.0 1.1102230246251565e-16 0.265097233500986 267.18408136214504 0.0 1.1102230246251565e-16 0.0 0.1852592444503674 0.4700932400290262 0.0 1.852592444503674 4.700932400290262 0.0 0.0
55.54185714285715 48.07489600000001 11.647965714285712 10.214285714285714 0.0 0.8442857142857143 51.72857142857142 55541.857142857145 -0.042857142857142864 -0.09999999999999999 -0.6857142857142858 -0.15714285714285728 3.1000000000000005 0.014285714285714287 1.5714285714285714 31.0 0.14285714285714285 100.0 0.2686646494750481 7.105427357601002e-15 1.0301575072786552e-06 0.1807015805810504 0.0 0.2014842881401598 0.0699854212223776 268.66464947504915 0.07284313590846836 0.32513733362117264 0.4015276949301485 1.9219462924391013 5.636108079669365 0.09897433186107872 19.219462924391017 56.36108079669364 0.9897433186107869 0.0
56.5255 48.07489650000001 11.647966199999999 11.25 0.0 1.03 51.673 56525.5 0.0 0.0 -1.03 1.44 -0.42000000000000004 -0.09 -14.4 -4.2 -0.9 100.0 0.28927573351389074 4.999999987376214e-07 3.9999999970063985e-07 0.2872281323269012 0.0 0.04582575694955844 0.025317977802344984 289.27573351389157 0.0 0.0 0.04582575694955844 0.18 0.54 0.030000000000000002 1.8 5.4 0.3 0.0
57.5905 48.074896 11.647966 12.3875 0.0 1.0 51.708749999999995 57590.5 0.0 0.0 -1.0 1.125 -0.3125 0.0 -11.25 -3.125 0.0 100.0 0.28433826685833247 0.0 0.0 0.31399641717701166 0.0 0.0 0.0059947894041397064 284.33826685833196 0.0 0.0 0.0 0.19202864369671518 0.18328597873268976 0.0 1.920286436967152 1.8328597873268975 0.0 0.0
58.580714285714286 48.07489600000001 11.647965999999998 13.357142857142858 0.0 1.0 51.71 58580.71428571428 0.0 0.0 -1.0 0.8857142857142858 -0.5142857142857143 0.0 -8.857142857142858 -5.142857142857143 0.0 100.0 0.32078284345185937 7.105427357601002e-15 1.7763568394002505e-15 0.3331972511340171 0.0 0.0 0.020000000000001097 320.7828434518611 0.0 0.0 0.0 0.22314999074019015 0.21665358411575858 0.0 2.231499907401901 2.166535841157586 0.0 0.0
59.538714285714285 48.07489600000001 11.647966285714284 14.328571428571427 0.0 1.0 51.712857142857146 59538.71428571428 0.0 0.0 -1.0 0.9714285714285715 -0.21428571428571427 0.0 -9.714285714285714 -2.142857142857143 0.0 100.0 0.2621486570008456 7.105427357601002e-15 4.5175395111453266e-07 0.26572964625340373 0.0 0.0 0.02762725657973416 262.1486570008455 0.0 0.0 0.0 0.28139593719417444 0.28499910490371433 0.0 2.813959371941744 2.8499910490371434 0.0 0.0
60.5105 48.074896 11.647965875 15.35 0.0 0.95 51.7625 60510.5 0.0 0.0 -0.95 1.0374999999999999 -0.2625 0.0 -10.375 -2.625 0.0 100.0 0.2840937345314029 0.0 3.3071891422303846e-07 0.31224989991991986 0.0 0.04999999999999999 0.010897247358851758 284.09373453140427 0.0 0.0 0.04999999999999999 0.17275343701356566 0.28256636388643286 0.0 1.7275343701356567 2.8256636388643286 0.0 0.0
61.457625 48.074896 11.647966 16.299999999999997 0.0 0.9375 51.741249999999994 61457.625 0.0 0.0 -0.9375 1.1625 -0.6125 0.0 -11.625 -6.125 0.0 100.0 0.32229758667262665 0.0 0.0 0.2915475947422652 0.0 0.0484122918275927 0.016909686573085312 322.29758667262774 0.0 0.0 0.0484122918275927 0.2642796813983247 0.18328597873268976 0.0 2.6427968139832467 1.8328597873268975 0.0 0.0
62.48166666666667 48.074896111111116 11.647966222222221 17.311111111111114 0.0 0.9222222222222223 51.7011111111111 62481.666666666664 0.0 0.0 -0.9222222222222223 1.4333333333333331 -0.7000000000000001 0.0 -14.333333333333334 -7.0 0.0 100.0 0.2959339265594407 3.142696797338998e-07 4.1573970933040923e-07 0.33481153718487483 0.0 0.0415739709641549 0.025141574442187575 295.93392655944143 0.0 0.0 0.0415739709641549 0.30912061651652345 0.26246692913372704 0.0 3.0912061651652345 2.6246692913372702 0.0 0.0
63.474333333333334 48.07489655555556 11.647966555555554 18.322222222222223 0.0 0.9777777777777779 51.666666666666664 63474.333333333336 0.0 0.0 -0.9777777777777779 1.3888888888888888 -0.6444444444444445 0.0 -13.88888888888889 -6.444444444444445 0.0 100.0 0.30282888457565205 4.969039937453913e-07 4.969039946280701e-07 0.30102704853653484 0.0 0.0415739709641549 0.01763834207376371 302.8288845756516 0.0 0.0 0.0415739709641549 0.3314763086705844 0.14229164972073 0.0 3.314763086705844 1.4229164972072998 0.0 0.0
64.439 48.0748965 11.647966375 19.275 0.0 1.0 51.6875 64439.0 0.0 0.0 -1.0 1.2125 0.19999999999999996 0.0 -12.125 2.0 0.0 100.0 0.30076361149580577 4.999999987376214e-07 4.841229179136093e-07 0.2727178028658931 0.0 0.0 0.03031088913245467 300.7636114958058 0.0 0.0 0.0 0.4935521755599908 1.1947803145348521 0.0 4.9355217555999085 11.947803145348521 0.0 0.0
65.52362500000001 48.074897750000005 11.647971250000001 20.0375 0.0 0.89125 51.301249999999996 65523.625 0.2 0.7 -0.2375 -0.8875 6.7625 -0.1625 8.875 67.625 -1.625 100.0 0.3087689012433065 8.291561981733905e-07 3.4910600108577745e-06 0.11110243021644549 0.0 0.15152866890460037 0.2701590966449221 308.7689012433085 0.1224744871391589 0.35 0.31199959935871713 1.5885823082232788 4.940378907533308 0.19324531042175383 15.885823082232786 49.40378907533308 1.9324531042175384 0.0
66.577875 48.074900625 11.647984375 20.075000000000003 0.0 0.9612499999999999 50.265 66577.875 0.3 0.9125000000000001 0.0 0.8875 0.6375 -0.0625 -8.875 6.375 -0.625 100.0 0.26788730723010956 8.56956824311618e-07 2.912795049549276e-06 0.04330127018922255 0.0 0.02976470224947667 0.24202272620561938 267.8873072301112 0.0 0.03307189138830738 0.0 0.09270248108869579 0.4270172713134681 0.04841229182759271 0.9270248108869579 4.270172713134681 0.4841229182759271 0.0
67.51483333333333 48.074903 11.647996000000001 20.0 0.0 0.9500000000000001 49.36666666666667 67514.83333333333 0.3 0.9 0.0 0.9166666666666666 0.8500000000000001 -0.05000000000000001 -9.166666666666666 8.5 -0.5 100.0 0.284055990177209 8.164965788662703e-07 3.4156502551905573e-06 0.0 0.0 1.1102230246251565e-16 0.27499494944857167 284.0559901772106 0.0 0.0 0.0 0.16749792701868146 0.19790570145063197 0.05 1.674979270186815 1.9790570145063195 0.5 0.0
68.47144444444444 48.07490577777778 11.648008888888889 20.0 0.0 0.9499999999999998 48.354444444444454 68471.44444444444 0.3 0.8999999999999999 0.0 1.0222222222222221 0.6222222222222222 0.06666666666666668 -10.222222222222221 6.222222222222222 0.6666666666666666 100.0 0.28178719752919557 7.856742017910719e-07 3.5101264441040625e-06 0.0 0.0 1.1102230246251565e-16 0.28740645284301153 281.7871975291958 0.0 1.1102230246251565e-16 0.0 0.11331154474650633 0.16850834320114555 0.06666666666666668 1.1331154474650633 1.6850834320114558 0.6666666666666666 0.0
69.47988888888888 48.07490888888889 11.648022444444443 20.0 0.0 0.9499999999999998 47.30111111111111 69479.88888888889 0.3 0.8999999999999999 0.0 1.0111111111111108 0.2888888888888889 0.12222222222222223 -10.11111111111111 2.888888888888889 1.2222222222222223 100.0 0.28057498282572263 7.370277317096804e-07 3.6851386558049822e-06 0.0 0.0 1.1102230246251565e-16 0.2861019416006365 280.57498282572226 0.0 1.1102230246251565e-16 0.0 0.15234788000891208 0.17284832429004493 0.07856742013183862 1.5234788000891208 1.7284832429004495 0.7856742013183862 0.0
70.46214285714287 48.074911571428565 11.64803442857143 20.0 0.0 0.8928571428571427 46.36000000000001 70462.14285714286 0.3 0.8428571428571427 0.0 0.9285714285714287 0.29999999999999993 -0.028571428571428574 -9.285714285714286 3.0 -0.2857142857142857 100.0 0.2863975401786978 4.948716580559626e-07 2.9692299556857666e-06 0.0 0.0 0.04948716593053934 0.22456306781964733 286.39754017869666 0.0 0.04948716593053934 0.0 0.0880630571852711 0.1851640199545103 0.04517539514526256 0.8806305718527109 1.8516401995451028 0.4517539514526256 0.0
71.5001111111111 48.07491466666667 11.648047666666667 20.0 0.0 0.9388888888888888 45.31777777777777 71500.11111111111 0.3 0.8888888888888888 0.0 1.1 0.4222222222222222 -0.011111111111111112 -11.0 4.222222222222222 -0.1111111111111111 100.0 0.29914227177955294 9.428090414347197e-07 4.189935030059668e-06 0.0 0.0 0.03142696805273544 0.32051270655268566 299.14227177955325 0.0 0.03142696805273544 0.0 0.06666666666666665 0.12272623352430288 0.03142696805273545 0.6666666666666666 1.227262335243029 0.31426968052735443 0.0
72.460875 48.07491725 11.648059624999998 20.0 0.0 0.9249999999999999 44.38125 72460.875 0.3 0.875 0.0 0.75 0.675 0.0 -7.5 6.75 0.0 100.0 0.2674020556671176 6.614378260961777e-07 3.388860428130805e-06 0.0 0.0 0.043301270189221926 0.24715569485650174 267.4020556671171 0.0 0.043301270189221926 0.0 0.26925824035672524 0.10897247358851687 0.0 2.692582403567252 1.0897247358851685 0.0 0.0
73.37771428571429 48.07491985714286 11.648070714285714 19.985714285714288 0.0 0.9500000000000001 43.512857142857136 73377.71428571429 0.3 0.9000000000000001 0.0 0.9428571428571428 0.9 0.0 -9.428571428571429 9.0 0.0 100.0 0.22186077634776163 6.388765652027281e-07 2.8139593720258824e-06 0.034992710611188756 0.0 1.1102230246251565e-16 0.22159901274369337 221.86077634776422 0.0 1.1102230246251565e-16 0.0 0.1761261143705422 0.18516401995451034 0.0 1.761261143705422 1.8516401995451028 0.0 0.0
74.4565 48.074923125 11.648083750000001 19.9 0.0 0.95 42.4775 74456.5 0.3 0.9 0.0 1.125 0.8 0.0 -11.25 8.0 0.0 100.0 0.28593224721951166 7.806247508155815e-07 4.408798022010484e-06 0.0 0.0 0.0 0.3313136731256346 285.9322472195118 0.0 0.0 0.0 0.1299038105676658 0.20615528128088306 0.0 1.299038105676658 2.0615528128088303 0.0 0.0
75.40644444444445 48.074925666666665 11.64809611111111 19.9 0.0 0.9499999999999998 41.51888888888888 75406.44444444444 0.3 0.8999999999999999 0.0 0.48888888888888893 0.6 0.05555555555555555 -4.888888888888889 6.0 0.5555555555555556 100.0 0.26651625387628153 6.66666666562479e-07 3.2810717910066815e-06 0.0 0.0 1.1102230246251565e-16 0.24704675420946504 266.5162538762822 0.0 1.1102230246251565e-16 0.0 0.21314806770278755 0.047140452079103154 0.04969039949999533 2.1314806770278754 0.4714045207910317 0.4969039949999533 0.0
76.47822222222223 48.07492822222222 11.648109333333332 19.944444444444443 0.0 0.98 40.49444444444444 76478.22222222222 0.4 0.8999999999999999 0.0 0.6444444444444444 0.7222222222222222 0.0 -6.444444444444445 7.222222222222222 0.0 100.0 0.2977529840424321 1.0304020538156926e-06 3.59010987159496e-06 0.049690399499996034 0.0 0.0 0.2883713312577339 297.7529840424321 0.0 1.1102230246251565e-16 0.0 0.1892154040658489 0.12272623352430291 0.0 1.892154040658489 1.227262335243029 0.0 0.0
77.49487500000001 48.074931500000005 11.648122625 19.975 0.0 0.98 39.448750000000004 77494.875 0.4 0.9 0.0 0.7875000000000001 0.875 0.0125 -7.875 8.75 0.125 100.0 0.2553729809024419 8.660254031363048e-07 3.6379080529209445e-06 0.04330127018922255 0.0 0.0 0.27943861132635195 255.37298090244394 0.0 0.0 0.0 0.09270248108869582 0.14790199457749043 0.033071891388307385 0.9270248108869579 1.479019945774904 0.33071891388307384 0.0
78.50314285714285 48.074934999999996 11.648135285714286 19.942857142857147 0.0 0.9757142857142859 38.434285714285714 78503.14285714286 0.3857142857142857 0.9000000000000001 0.0 0.8714285714285713 0.6571428571428571 0.05714285714285715 -8.714285714285714 6.571428571428571 0.5714285714285714 100.0 0.27644499766625263 1.3093073412113338e-06 3.3685217493731053e-06 0.049487165930540054 0.0 0.010497813183356486 0.28177281339289495 276.4449976662516 0.03499271061118827 1.1102230246251565e-16 0.0 0.2185294077254051 0.07284313590846837 0.049487165930539354 2.1852940772540506 0.7284313590846835 0.4948716593053935 0.0
79.51299999999999 48.07493844444444 11.648148333333333 19.9 0.0 0.9499999999999998 37.42444444444445 79513.0 0.3 0.8999999999999999 0.0 0.7 0.6777777777777778 0.0 -7.0 6.777777777777778 0.0 100.0 0.30007036211899046 1.0657403379632678e-06 3.4960294938998846e-06 0.0 0.0 1.1102230246251565e-16 0.28265059353323674 300.0703621189907 0.0 1.1102230246251565e-16 0.0 0.17638342073763938 0.21487866228681907 0.0 1.7638342073763937 2.1487866228681907 0.0 0.0
80.5866 48.074942 11.648161 19.9 0.0 0.986 36.419999999999995 80586.6 0.3 0.96 0.0 0.9200000000000002 0.6599999999999999 0.0 -9.2 6.6 0.0 100.0 0.19721926883547783 6.324555304368792e-07 3.0331501776931995e-06 0.0 0.0 0.04409081537009724 0.24199173539606797 197.21926883547658 0.0 0.04898979485566354 0.0 0.0748331477354788 0.2576819745345025 0.0 0.7483314773547882 2.5768197453450252 0.0 0.0
81.53644444444444 48.07494511111111 11.648173888888888 19.9 0.0 0.9499999999999998 35.392222222222216 81536.44444444444 0.3 0.8999999999999999 0.0 0.7444444444444445 0.4222222222222222 0.0 -7.444444444444445 4.222222222222222 0.0 100.0 0.28613986910488076 8.748897615702057e-07 3.725123247805833e-06 0.0 0.0 1.1102230246251565e-16 0.29861821696971763 286.1398691048803 0.0 1.1102230246251565e-16 0.0 0.17069212773041353 0.1314684396244359 0.0 1.7069212773041351 1.314684396244359 0.0 0.0
82.54742857142857 48.074948 11.648186857142857 19.900000000000002 0.0 0.9500000000000001 34.4 82547.42857142857 0.3 0.9000000000000001 0.0 0.34285714285714286 0.7571428571428571 0.0 -3.4285714285714284 7.571428571428571 0.0 100.0 0.2848136519314505 7.559289441099173e-07 3.681171065046954e-06 3.552713678800501e-15 0.0 1.1102230246251565e-16 0.2829941947915433 284.81365193145257 0.0 1.1102230246251565e-16 0.0 0.13997084244475305 0.1590789817951435 0.0 1.3997084244475304 1.5907898179514348 0.0 0.0
83.59233333333333 48.074951 11.648198833333334 19.933333333333334 0.0 0.9500000000000001 33.43166666666667 83592.33333333333 0.3 0.9 0.0 0.6999999999999998 0.5833333333333334 0.03333333333333333 -7.0 5.833333333333333 0.3333333333333333 100.0 0.31796418386702663 1.1547005405918134e-06 3.975620147581045e-06 0.04714045207910384 0.0 1.1102230246251565e-16 0.3140284841999025 317.9641838670233 0.0 0.0 0.0 0.14142135623730953 0.23392781412697 0.047140452079103175 1.4142135623730951 2.3392781412697 0.4714045207910317 0.0
84.609125 48.074954375000004 11.648212125 20.0 0.0 0.95 32.40375 84609.125 0.3 0.9 0.0 0.6875 0.55 -0.05 -6.875 5.5 -0.5 100.0 0.24898566098271838 6.959705467870271e-07 3.099899192203826e-06 0.0 0.0 0.0 0.24591347563726543 248.98566098271604 0.0 0.0 0.0 0.20879116360612582 0.07071067811865474 0.05 2.0879116360612584 0.7071067811865476 0.5 0.0
85.50783333333334 48.074957500000004 11.648223166666666 20.0 0.0 0.995 31.521666666666665 85507.83333333333 0.3 0.9500000000000001 0.0 0.9166666666666665 0.5166666666666666 0.016666666666666666 -9.166666666666666 5.166666666666667 0.16666666666666666 100.0 0.2527227840056296 9.574271084313073e-07 3.184162195683078e-06 0.0 0.0 0.04500000000000004 0.2533388157301511 252.7227840056285 0.0 0.04999999999999999 0.0 0.27335365778094545 0.36704525909242064 0.037267799624996496 2.733536577809454 3.6704525909242065 0.372677996249965 0.0
86.42 48.074959875000005 11.648234875 19.912499999999998 0.0 0.95 30.615000000000002 86420.0 0.3 0.9 0.0 0.3625 0.35 -0.1375 -3.625 3.5 -1.375 100.0 0.30778726419395347 7.806247503889144e-07 3.854785986445317e-06 0.03307189138830785 0.0 0.0 0.30471297970385164 307.7872641939559 0.0 0.0 0.0 0.14086784586980805 0.08660254037844387 0.06959705453537528 1.4086784586980805 0.8660254037844386 0.6959705453537527 0.0
87.54155555555555 48.074963555555556 11.648249666666667 19.9 0.0 0.9499999999999998 29.45444444444444 87541.55555555556 0.3 0.8999999999999999 0.0 0.7333333333333333 0.4222222222222223 0.0 -7.333333333333333 4.222222222222222 0.0 100.0 0.30383332825420106 1.0657403389509904e-06 3.8586123010261134e-06 0.0 0.0 1.1102230246251565e-16 0.2982583187295169 303.83332825420035 0.0 1.1102230246251565e-16 0.0 0.09428090415820636 0.10304020550550781 0.0 0.9428090415820634 1.0304020550550783 0.0 0.0
88.57625 48.074966625 11.64826275 19.9 0.0 0.95 28.43625 88576.25 0.3 0.9 0.0 0.7875 0.6125 0.0 -7.875 6.125 0.0 100.0 0.2783427518366523 9.92156740598966e-07 3.7332961309319912e-06 0.0 0.0 0.0 0.29474300246146634 278.3427518366519 0.0 0.0 0.0 0.13635890143294643 0.12686114456365277 0.0 1.3635890143294642 1.2686114456365274 0.0 0.0
89.44049999999999 48.0749695 11.648272999999998 19.900000000000002 0.0 0.9116666666666666 27.636666666666667 89440.5 0.2833333333333333 0.8666666666666667 0.0 1.2333333333333334 0.6833333333333332 0.0 -12.333333333333334 6.833333333333333 0.0 100.0 0.2947308093837514 7.637626138976581e-07 2.380476142931615e-06 3.552713678800501e-15 0.0 0.054898896973335345 0.19163043135739707 294.7308093837494 0.03726779962499649 0.04714045207910316 0.0 0.07453559924999299 0.14624940645653536 0.0 0.7453559924999299 1.4624940645653537 0.0 0.0
90.44387499999999 48.074972625 11.648285125 19.9 0.0 0.9075 26.68625 90443.875 0.2 0.9 0.0 0.625 1.3624999999999998 0.0125 -6.25 13.625 0.125 100.0 0.3168779092568599 9.92156740598966e-07 4.196352583018885e-06 0.0 0.0 0.03307189138830741 0.31499751983150576 316.87790925686187 0.0 0.0 0.0 0.19843134832984433 0.14947825928876746 0.033071891388307385 1.984313483298443 1.4947825928876748 0.33071891388307384 0.0
91.49466666666666 48.07497555555555 11.648298222222223 19.98888888888889 0.0 1.03 25.666666666666668 91494.66666666667 0.3 0.9888888888888889 0.0 0.7555555555555556 1.0 0.07777777777777778 -7.555555555555555 10.0 0.7777777777777778 100.0 0.2942916165227201 1.0657403381278882e-06 3.99382239017247e-06 0.0314269680527359 0.0 0.02828427124746193 0.30912061651652323 294.2916165227198 0.0 0.03142696805273544 0.0 0.20608041101101565 0.2905932629027116 0.04157397096415491 2.060804110110156 2.9059326290271157 0.41573970964154905 0.0
92.413 48.074978875 11.648310500000001 20.0 0.0 0.9275 24.70875 92413.0 0.225 0.9 0.0 0.9999999999999999 0.8500000000000001 0.0 -10.0 8.5 0.0 100.0 0.2859195691099159 7.806247478289117e-07 2.872281322936089e-06 0.0 0.0 0.012990381056766543 0.21525783957849212 285.9195691099159 0.04330127018922192 0.0 0.0 0.09999999999999999 0.07071067811865477 0.0 1.0 0.7071067811865476 0.0 0.0
93.44466666666666 48.07498233333334 11.648324333333333 20.0 0.0 0.9200000000000002 23.63666666666667 93444.66666666667 0.2 0.8999999999999999 0.0 0.9444444444444444 0.8111111111111112 0.0 -9.444444444444445 8.11111111111111 0.0 100.0 0.29037523616482613 9.428090422721024e-07 3.590109871485006e-06 0.0 0.0 1.1102230246251565e-16 0.2721519183593363 290.3752361648248 0.0 1.1102230246251565e-16 0.0 0.0955813918560292 0.17284832429004499 0.0 0.9558139185602919 1.7284832429004495 0.0 0.0
94.462875 48.074985 11.648337 20.0 0.0 0.9237500000000001 22.6575 94462.875 0.21250000000000002 0.9 0.0 0.42500000000000004 1.0625 0.0 -4.25 10.625 0.0 100.0 0.32228343018995154 7.071067819134224e-07 3.80788655305603e-06 0.0 0.0 0.009921567416492187 0.2946502163583116 322.2834301899494 0.03307189138830737 0.0 0.0 0.2537222891273055 0.14947825928876748 0.0 2.537222891273055 1.4947825928876748 0.0 0.0
95.525 48.074987625000006 11.648350375 19.95 0.0 0.95 21.64 95525.0 0.3 0.9 0.0 0.36249999999999993 0.575 0.0 -3.625 5.75 0.0 100.0 0.2777476372536805 6.959705453513331e-07 2.9973947022255123e-06 0.05000000000000071 0.0 0.0 0.22583179581272433 277.7476372536767 0.0 0.0 0.0 0.25464435984329203 0.13919410907075053 0.0 2.54644359843292 1.3919410907075054 0.0 0.0
96.51714285714286 48.07499128571429 11.648363285714286 19.900000000000002 0.0 0.9500000000000001 20.627142857142854 96517.14285714286 0.3 0.9000000000000001 0.0 0.7142857142857143 0.7428571428571429 0.0 -7.142857142857143 7.428571428571429 0.0 100.0 0.28249724578755137 1.0301575077713281e-06 3.1493439552629757e-06 3.552713678800501e-15 0.0 1.1102230246251565e-16 0.25555062599997563 282.4972457875492 0.0 1.1102230246251565e-16 0.0 0.1355261854357877 0.17612611437054218 0.0 1.355261854357877 1.761261143705422 0.0 0.0
97.47557142857144 48.07499442857143 11.648375571428572 19.900000000000002 0.0 0.9500000000000001 19.69 97475.57142857143 0.3 0.9000000000000001 0.0 0.7142857142857143 1.1571428571428573 0.0 -7.142857142857143 11.571428571428571 0.0 100.0 0.232409034212686 9.035079036735227e-07 2.6649654435408284e-06 3.552713678800501e-15 0.0 1.1102230246251565e-16 0.2107130750570547 232.40903421268604 0.0 1.1102230246251565e-16 0.0 0.18070158058105026 0.10497813183356469 0.0 1.8070158058105024 1.0497813183356477 0.0 0.0
98.43366666666667 48.07499716666666 11.6483875 19.900000000000002 0.0 0.9500000000000001 18.786666666666665 98433.66666666667 0.3 0.9 0.0 0.65 0.9666666666666667 0.0 -6.5 9.666666666666666 0.0 100.0 0.26590328233317645 8.97527468668416e-07 3.593976442087621e-06 3.552713678800501e-15 0.0 1.1102230246251565e-16 0.2707192067232925 265.9032823331738 0.0 0.0 0.0 0.12583057392117913 0.074535599249993 0.0 1.2583057392117916 0.74535599249993 0.0 0.0
99.431125 48.0750005 11.648399874999999 19.912499999999998 0.0 0.95 17.84375 99431.125 0.3 0.9 0.0 0.8 0.75 0.037500000000000006 -8.0 7.5 0.375 100.0 0.27214630141708673 8.660254031363048e-07 3.7562448002741693e-06 0.03307189138830785 0.0 0.0 0.2773056752033752 272.14630141708705 0.0 0.0 0.0 0.11180339887498951 0.16583123951777 0.04841229182759271 1.118033988749895 1.6583123951777 0.4841229182759271 0.0
100.436 48.075003499999994 11.64841225 19.95 0.0 0.95 16.9075 100436.0 0.3 0.9 0.0 0.4875 1.05 0.0 -4.875 10.5 0.0 100.0 0.268937260341515 8.660254031363048e-07 3.3071891387223205e-06 0.05000000000000071 0.0 0.0 0.24473199627347464 268.93726034151535 0.0 0.0 0.0 0.20271593425283568 0.11180339887498947 0.0 2.027159342528357 1.118033988749895 0.0 0.0
101.479 48.07500642857143 11.648424714285714 20.0 0.0 0.9500000000000001 15.954285714285714 101479.0 0.3 0.9000000000000001 0.0 0.41428571428571426 1.2285714285714284 0.0 -4.142857142857143 12.285714285714286 0.0 100.0 0.2186392985195997 7.284313592362696e-07 2.8139593720258824e-06 0.0 0.0 1.1102230246251565e-16 0.2084539786727267 218.6392985196002 0.0 1.1102230246251565e-16 0.0 0.0989743318610787 0.0451753951452626 0.0 0.9897433186107868 0.45175395145262565 0.0 0.0
102.48714285714286 48.075009571428566 11.648436714285713 20.0 0.0 0.9500000000000001 15.058571428571428 102487.14285714286 0.3 0.9000000000000001 0.0 0.6857142857142857 1.442857142857143 -0.05714285714285715 -6.857142857142857 14.428571428571429 -0.5714285714285714 100.0 0.22848346521696086 9.035079039945132e-07 3.19438282503765e-06 0.0 0.0 1.1102230246251565e-16 0.2394295942698918 228.4834652169627 0.0 1.1102230246251565e-16 0.0 0.09897433186107872 0.10497813183356479 0.049487165930539354 0.989743318610787 1.0497813183356477 0.4948716593053935 0.0
103.49466666666666 48.07501277777778 11.648450222222221 19.933333333333334 0.0 0.9499999999999998 14.045555555555556 103494.66666666667 0.3 0.8999999999999999 0.0 0.5333333333333333 1.1444444444444446 0.07777777777777778 -5.333333333333333 11.444444444444445 0.7777777777777778 100.0 0.2991799904182519 9.162456943746835e-07 3.823255674345372e-06 0.04714045207910384 0.0 1.1102230246251565e-16 0.29219898513441156 299.1799904182542 0.0 1.1102230246251565e-16 0.0 0.14907119849998599 0.2114033065604494 0.0628539361054709 1.4907119849998598 2.1140330656044943 0.628539361054709 0.0
104.45683333333334 48.075015500000006 11.648463 19.900000000000002 0.0 0.9649999999999999 13.116666666666667 104456.83333333333 0.3499999999999999 0.9 0.0 0.35000000000000003 0.5166666666666667 0.05000000000000001 -3.5 5.166666666666667 0.5 100.0 0.24326762811539557 9.574271071944113e-07 3.0550504629556567e-06 3.552713678800501e-15 0.0 0.015000000000000012 0.23012074125457585 243.26762811539248 0.05000000000000002 0.0 0.0 0.22912878474779197 0.24776781245530843 0.05 2.29128784747792 2.4776781245530843 0.5 0.0
105.525375 48.075017875 11.648472625 19.9 0.0 0.22874999999999998 12.4175 105525.375 0.0875 0.2125 0.0 2.8875 -4.5375 0.037500000000000006 -28.875 -45.375 0.375 100.0 0.2819312582439203 3.3071891304808883e-07 6.959705448328881e-07 0.0 0.0 0.34093391955040203 0.06098155458825244 281.9312582439202 0.12686114456365274 0.3179524335494226 0.0 1.4878150926778502 3.932218680338112 0.17275343701356569 14.878150926778503 39.322186803381115 1.7275343701356567 0.0
106.497625 48.075018 11.648473124999999 19.9 0.0 0.0 12.35625 106497.625 0.0 0.0 0.0 1.1875 -0.5 0.125 -11.875 -5.0 1.25 100.0 0.3089599235742399 0.0 3.3071891422303846e-07 0.0 0.0 0.0 0.009921567416492003 308.95992357423967 0.0 0.0 0.0 0.11659223816361015 0.3774917217635375 0.04330127018922193 1.165922381636102 3.774917217635375 0.4330127018922193 0.0
107.59085714285713 48.075017714285714 11.648474000000002 19.900000000000002 0.0 0.0 12.315714285714288 107590.85714285714 0.0 0.0 0.0 1.0142857142857145 -0.31428571428571433 0.12857142857142856 -10.142857142857142 -3.142857142857143 1.2857142857142858 100.0 0.2568487206628078 4.517539503120565e-07 1.7763568394002505e-15 3.552713678800501e-15 0.0 0.0 0.013997084244475471 256.8487206628105 0.0 0.0 0.0 0.0989743318610787 0.0832993127835043 0.045175395145262566 0.989743318610787 0.8329931278350429 0.45175395145262565 0.0
108.60128571428571 48.075018 11.64847457142857 19.900000000000002 0.0 0.0 12.26142857142857 108601.28571428571 0.0 0.0 0.0 1.1142857142857143 -0.2571428571428572 0.09999999999999999 -11.142857142857142 -2.5714285714285716 1.0 100.0 0.25083558319329025 0.0 4.948716589350314e-07 3.552713678800501e-15 0.0 0.0 0.019587584572573993 250.83558319329092 0.0 0.0 0.0 0.08329931278350426 0.13997084244475305 1.3877787807814457e-17 0.8329931278350429 1.3997084244475304 0.0 0.0
109.55025 48.075018 11.648475 19.9 0.0 0.0 12.2125 109550.25 0.0 0.0 0.0 1.275 -0.225 0.1 -12.75 -2.25 1.0 100.0 0.2754041348636594 0.0 0.0 0.0 0.0 0.0 0.011989578808282237 275.40413486365816 0.0 0.0 0.0 0.043301270189221974 0.06614378277661476 0.0 0.4330127018922193 0.6614378277661477 0.0 0.0
110.485625 48.075018 11.6484755 19.9 0.0 0.0 12.19625 110485.625 0.0 0.0 0.0 1.275 -0.0875 0.1 -12.75 -0.875 1.0 100.0 0.23971803097597857 0.0 5.000000005139782e-07 0.0 0.0 0.0 0.008569568250501479 239.7180309759781 0.0 0.0 0.0 0.09682458365518538 0.07806247497997998 0.0 0.9682458365518543 0.7806247497997998 0.0 0.0
111.51362499999999 48.0750185 11.648476 19.9 0.0 0.0 12.166250000000002 111513.625 0.0 0.0 0.0 1.2125000000000001 -0.22499999999999998 0.1375 -12.125 -2.25 1.375 100.0 0.3178938256320792 4.999999987376214e-07 0.0 0.0 0.0 0.0 0.012183492931010946 317.89382563208113 0.0 0.0 0.0 0.09270248108869578 0.1299038105676658 0.04841229182759271 0.9270248108869579 1.299038105676658 0.4841229182759271 0.0
112.549 48.075019 11.648476500000001 19.9375 0.0 0.0 12.12875 112549.0 0.0 0.0 0.0 1.0875 -0.225 0.1875 -10.875 -2.25 1.875 100.0 0.28559280453120733 0.0 4.999999996257998e-07 0.0484122918275934 0.0 0.0 0.009270248108870218 285.59280453120664 0.0 0.0 0.0 0.0927024810886958 0.04330127018922192 0.033071891388307385 0.9270248108869579 0.4330127018922193 0.33071891388307384 0.0
113.50919999999999 48.075019 11.648477 19.9 0.0 0.0 12.123999999999999 113509.2 0.0 0.0 0.0 1.08 -0.18 0.14000000000000004 -10.8 -1.8 1.4 100.0 0.2907424289641946 0.0 0.0 0.0 0.0 0.0 0.0048989794855671225 290.742428964195 0.0 0.0 0.0 0.11661903789690602 0.04 0.04898979485566357 1.1661903789690602 0.4 0.48989794855663565 0.0
114.47028571428571 48.075019 11.648476857142857 19.900000000000002 0.0 0.0 12.125714285714286 114470.28571428571 0.0 0.0 0.0 1.2 -0.17142857142857146 0.09999999999999999 -12.0 -1.7142857142857142 1.0 100.0 0.3123138139233441 0.0 3.4992710584999697e-07 3.552713678800501e-15 0.0 0.0 0.010497813183357014 312.3138139233469 0.0 0.0 0.0 0.07559289460184543 0.08806305718527109 1.3877787807814457e-17 0.7559289460184544 0.880630571852711 0.0 0.0
115.54371428571429 48.075019 11.648476 19.900000000000002 0.0 0.0 12.134285714285713 115543.71428571429 0.0 0.0 0.0 0.9857142857142858 0.0 0.09999999999999999 -9.857142857142858 0.0 1.0 100.0 0.3143672621476415 0.0 0.0 3.552713678800501e-15 0.0 0.0 0.00494871659305383 314.3672621476417 0.0 0.0 0.0 0.09897433186107872 0.07559289460184546 1.3877787807814457e-17 0.989743318610787 0.7559289460184544 0.0 0.0
116.4748888888889 48.075019 11.648476555555556 19.9 0.0 0.0 12.134444444444446 116474.88888888889 0.0 0.0 0.0 1.1111111111111112 -0.08888888888888889 0.1444444444444445 -11.11111111111111 -0.8888888888888888 1.4444444444444444 100.0 0.25770588077817563 0.0 4.969039946280701e-07 0.0 0.0 0.0 0.004969039949999427 257.7058807781738 0.0 0.0 0.0 0.05665577237325314 0.09938079899999064 0.049690399499995326 0.5665577237325317 0.9938079899999066 0.4969039949999533 0.0
117.51928571428572 48.075019 11.648476285714287 19.900000000000002 0.0 0.0 12.134285714285713 117519.28571428571 0.0 0.0 0.0 1.2 -0.08571428571428573 0.028571428571428574 -12.0 -0.8571428571428571 0.2857142857142857 100.0 0.3211135599244394 0.0 4.5175395111453277e-07 3.552713678800501e-15 0.0 0.0 0.004948716593053829 321.11355992444004 0.0 0.0 0.0 0.07559289460184543 0.08329931278350429 0.04517539514526255 0.7559289460184544 0.8329931278350429 0.4517539514526257 0.0
118.5396 48.075019 11.6484766 19.9 0.0 0.0 12.133000000000001 118539.6 0.0 0.0 0.0 1.3099999999999998 -0.29999999999999993 0.0 -13.1 -3.0 0.0 100.0 0.2884604652287716 0.0 4.898979481899958e-07 0.0 0.0 0.0 0.011000000000000395 288.46046522877276 0.0 0.0 0.0 0.06999999999999998 0.0447213595499958 0.0 0.7 0.4472135954999579 0.0 0.0
119.556375 48.075019 11.648476 19.9875 0.0 0.0 12.17625 119556.375 0.0 0.0 0.0 1.1375 -0.2625 0.0125 -11.375 -2.625 0.125 100.0 0.3154175555909945 0.0 0.0 0.03307189138830785 0.0 0.0 0.012183492931010946 315.4175555909975 0.0 0.0 0.0 0.04841229182759264 0.0484122918275927 0.033071891388307385 0.4841229182759271 0.4841229182759271 0.33071891388307384 0.0
120.42 48.075019 11.648475857142857 20.0 0.0 0.0 12.197142857142856 120420.0 0.0 0.0 0.0 1.0857142857142856 -0.35714285714285715 0.014285714285714287 -10.857142857142858 -3.5714285714285716 0.14285714285714285 100.0 0.23334462557709526 0.0 3.4992710647159236e-07 0.0 0.0 0.0 0.006998542122237969 233.3446255770942 0.0 0.0 0.0 0.06388765649999399 0.07284313590846836 0.03499271061118826 0.6388765649999398 0.7284313590846836 0.3499271061118826 0.0
121.484 48.075019 11.648475 20.0 0.0 0.0 12.224444444444446 121484.0 0.0 0.0 0.0 1.088888888888889 -0.2777777777777778 0.0 -10.88888888888889 -2.7777777777777777 0.0 100.0 0.2988251067839593 0.0 0.0 0.0 0.0 0.0 0.004969039949999427 298.8251067839589 0.0 0.0 0.0 0.07370277311900887 0.0628539361054709 0.0 0.7370277311900888 0.6285393610547089 0.0 0.0
122.46970000000002 48.075019 11.6484752 19.9 0.0 0.0 12.212 122469.7 0.0 0.0 0.0 1.15 -0.43 0.0 -11.5 -4.3 0.0 100.0 0.29538214231737103 0.0 4.000000004111826e-07 0.0 0.0 0.0 0.007483314773548294 295.38214231737163 0.0 0.0 0.0 0.06708203932499365 0.11874342087037916 0.0 0.6708203932499369 1.1874342087037917 0.0 0.0
123.52442857142857 48.075019 11.648475142857142 19.985714285714288 0.0 0.0 12.212857142857144 123524.42857142857 0.0 0.0 0.0 1.114285714285714 -0.2857142857142857 0.0 -11.142857142857142 -2.857142857142857 0.0 100.0 0.29859043001737284 0.0 3.4992710647159236e-07 0.03499271061118875 0.0 0.0 0.008806305718527292 298.5904300173721 0.0 0.0 0.0 0.06388765649999396 0.09897433186107871 0.0 0.6388765649999398 0.9897433186107869 0.0 0.0
124.554375 48.075019 11.648474749999998 19.924999999999997 0.0 0.0 12.26625 124554.375 0.0 0.0 0.0 0.975 -0.08750000000000001 0.0 -9.75 -0.875 0.0 100.0 0.2842116014081756 0.0 4.330127015681524e-07 0.04330127018922255 0.0 0.0 0.017275343701356197 284.21160140817614 0.0 0.0 0.0 0.06614378277661478 0.033071891388307385 0.0 0.6614378277661477 0.33071891388307384 0.0 0.0
125.54171428571428 48.075019 11.648474000000002 19.900000000000002 0.0 0.0 12.301428571428572 125541.71428571429 0.0 0.0 0.0 0.9714285714285715 -0.1142857142857143 0.0 -9.714285714285714 -1.1428571428571428 0.0 100.0 0.213533345864103 0.0 1.7763568394002505e-15 3.552713678800501e-15 0.0 0.0 0.0034992710611187515 213.53334586410236 0.0 0.0 0.0 0.06998542122237654 0.03499271061118826 0.0 0.6998542122237652 0.3499271061118826 0.0 0.0
126.515 48.075019 11.648474000000002 19.900000000000002 0.0 0.0 12.29142857142857 126515.0 0.0 0.0 0.0 0.9571428571428573 -0.14285714285714285 0.0 -9.571428571428571 -1.4285714285714286 0.0 100.0 0.24042878363457398 0.0 1.7763568394002505e-15 3.552713678800501e-15 0.0 0.0 0.0034992710611193734 240.42878363457234 0.0 0.0 0.0 0.09035079029052515 0.09035079029052513 0.0 0.9035079029052512 0.9035079029052512 0.0 0.0
127.535875 48.075019 11.648474 19.8625 0.0 0.0 12.311250000000001 127535.875 0.0 0.0 0.0 1.0375 -0.05 0.0 -10.375 -0.5 0.0 100.0 0.2757727495148868 0.0 0.0 0.04841229182759168 0.0 0.0 0.00927024810886989 275.7727495148859 0.0 0.0 0.0 0.0695970545353753 0.05 0.0 0.6959705453537527 0.5 0.0 0.0
128.46099999999998 48.07502 11.648474 19.9 0.0 0.0 12.337777777777777 128461.0 0.0 0.0 0.0 1.1 -0.07777777777777778 1.4333333333333333 -11.0 -0.7777777777777778 14.333333333333334 100.0 0.26504465032644536 0.0 0.0 0.0 0.0 0.0 0.006285393610546955 265.04465032644345 0.0 0.0 0.0 0.047140452079103154 0.04157397096415491 2.1520016522091963 0.4714045207910317 0.41573970964154905 21.520016522091964 0.0
129.4625714285714 48.07501928571428 11.648474000000002 19.900000000000002 0.0 0.0 12.348571428571429 129462.57142857143 0.0 0.0 0.0 1.2285714285714289 0.07142857142857142 34.68571428571429 -12.285714285714286 0.7142857142857143 346.85714285714283 100.0 0.2706499358121128 4.517539535219614e-07 1.7763568394002505e-15 3.552713678800501e-15 0.0 0.0 0.0034992710611187515 270.64993581211513 0.0 0.0 0.0 0.0451753951452626 0.0880630571852711 16.860471826259243 0.4517539514526256 0.880630571852711 168.60471826259243 0.0
130.440625 48.075019 11.648474125 19.9 0.0 0.0625 12.3125 130440.625 0.0 0.0625 0.0 -1.975 0.2 78.6 19.75 2.0 786.0 100.0 0.26847343327599693 0.0 3.3071891363556367e-07 0.0 0.0 0.13169567191065923 0.025860201081971484 268.47343327599475 0.0 0.13169567191065923 0.0 5.228945878473022 0.09999999999999999 3.7593217473368776 52.289458784730215 1.0 37.59321747336878 0.0
