"avg_OSD.flyTime [s]" "avg_CUSTOM.hSpeed [m/s]" "avg_CUSTOM.distance [m]" "avg_CALC.hSpeed [m/s]" "avg_CALC.distance [m]" avg_OSD.latitude avg_OSD.longitude "avg_OSD.height [m]" "avg_OSD.altitude [m]" "avg_OSD.xSpeed [m/s]" "avg_OSD.ySpeed [m/s]" "avg_OSD.zSpeed [m/s]" avg_OSD.pitch avg_OSD.roll avg_OSD.yaw "stdDev_OSD.flyTime [s]" "stdDev_CUSTOM.hSpeed [m/s]" "stdDev_CUSTOM.distance [m]" "stdDev_CALC.hSpeed [m/s]" "stdDev_CALC.distance [m]" stdDev_OSD.latitude stdDev_OSD.longitude "stdDev_OSD.height [m]" "stdDev_OSD.altitude [m]" "stdDev_OSD.xSpeed [m/s]" "stdDev_OSD.ySpeed [m/s]" "stdDev_OSD.zSpeed [m/s]" stdDev_OSD.pitch stdDev_OSD.roll stdDev_OSD.yaw
0.45 0.0 0.027999999999999997 0.059 0.19 48.07462700000001 11.649013 0.0 431.5 0.0 0.0 0.0 7.2 -2.6000000000000005 -36.89999999999999 0.2872281323269014 0.0 0.02181742422927143 0.058898217290508884 0.15524174696260024 7.105427357601002e-15 0.0 0.0 0.0 0.0 0.0 0.0 0.0 4.440892098500626e-16 7.105427357601002e-15
1.45 0.0 0.093 0.043000000000000003 0.30399999999999994 48.07462700000001 11.649013 0.0 431.5 0.0 0.0 0.0 7.19 -2.5800000000000005 -36.800000000000004 0.2872281323269014 0.0 0.019 0.038742741255621035 0.004898979485566361 7.105427357601002e-15 0.0 0.0 0.0 0.0 0.0 0.0 0.05385164807134515 0.0748331477354789 0.18973665961010283
2.45 0.092 0.22100000000000003 0.16299999999999998 0.178 48.0746266 11.6490127 0.02 431.52 -0.08 -0.030000000000000006 -0.11000000000000001 2.13 -0.27999999999999997 -35.190000000000005 0.2872281323269014 0.09558242516278817 0.08092589202474075 0.17349639765712718 0.11276524287208357 4.898979473197622e-07 4.5825756915262385e-07 0.04 0.0400000000000091 0.08717797887081348 0.045825756949558406 0.09433981132056604 3.367209527190133 3.281402139330076 0.5940538696111654
3.45 0.0 0.44699999999999995 0.063 0.07200000000000001 48.074626800000004 11.649012899999999 0.27 431.7700000000001 0.0 0.0 -0.32999999999999996 0.8299999999999998 -0.06999999999999999 -32.6 0.2872281323269014 0.0 0.03769615364994153 0.07014983962918234 0.019390719429665314 3.999999989900971e-07 2.999999997754799e-07 0.1268857754044952 0.12688577540448687 0.0 0.0 0.0640312423743285 0.38999999999999996 0.35227829907617075 2.2208106627986095
4.45 0.0 0.5670000000000001 0.08199999999999999 0.092 48.0746261 11.649013199999999 0.7000000000000001 432.2 0.0 0.0 -0.42000000000000004 1.4 0.2899999999999999 -34.75 0.2872281323269015 0.0 0.03494281041931228 0.07896834808959853 0.015999999999999997 2.999999992425728e-07 3.9999999970063985e-07 0.14142135623730953 0.14142135623730148 0.0 0.0 0.09797958971132711 0.2607680962081059 0.4908156476723211 0.06708203932499146
5.45 0.0 0.718 0.21399999999999997 0.21400000000000002 48.07462519999999 11.649013399999998 0.95 432.45 0.0 0.0 -0.01 1.3699999999999999 0.35 -33.879999999999995 0.2872281323269015 0.0 0.07110555533852471 0.10846197490364998 0.06755738301621815 7.483314785038415e-07 4.898979481899958e-07 0.04999999999999999 0.05000000000001137 0.0 0.0 0.03 0.33481338085566414 0.6296824596572466 0.3399999999999987
6.45 0.0 0.9139999999999999 0.07799999999999999 0.395 48.074623499999994 11.649013 0.9 432.4 0.0 0.0 0.0 0.45 2.1799999999999997 -33.78 0.2872281323269015 0.0 0.03231098884280702 0.06029925372672534 0.020124611797498106 4.999999987376214e-07 0.0 0.0 0.0 0.0 0.0 0.0 0.16881943016134132 0.17776388834631174 0.039999999999997725
7.450000000000001 0.06 1.02 0.057999999999999996 0.38900000000000007 48.074623599999995 11.649013399999998 0.9 432.4 0.06 0.0 0.0 0.8399999999999999 1.1600000000000001 -27.359999999999996 0.28722813232690153 0.048989794855663564 0.03492849839314599 0.05268775948927796 0.024677925358506138 4.898979473197623e-07 4.898979481899958e-07 0.0 0.0 0.048989794855663564 0.0 0.0 0.2537715508089904 0.7102112361825882 6.069464556285011
8.45 0.02 1.153 0.132 0.33999999999999997 48.07462399999999 11.649014099999999 0.8300000000000001 432.33000000000004 0.02 0.0 0.0 1.31 0.06000000000000001 -7.24 0.28722813232690153 0.04 0.03742993454442575 0.07096477999684069 0.016733200530681506 7.105427357601002e-15 3.000000003083869e-07 0.04582575694955839 0.045825756949542766 0.04 0.0 0.0 0.08306623862918075 0.14282856857085702 1.3305637902783916
9.45 0.0 1.2730000000000001 0.083 0.43200000000000005 48.0746233 11.649015000000002 0.8 432.3 0.0 0.0 0.0 1.1300000000000001 -0.22999999999999998 -6.640000000000001 0.28722813232690153 0.0 0.03226453160980339 0.05367494760127857 0.028565713714171402 4.582575683385948e-07 1.7763568394002505e-15 0.0 0.0 0.0 0.0 0.0 0.14866068747318506 0.241039415863879 0.04898979485566382
10.45 0.0 1.3760000000000001 0.066 0.5189999999999999 48.0746228 11.649015300000002 0.8 432.3 0.0 0.0 0.0 1.35 0.37 -6.5699999999999985 0.28722813232690153 0.0 0.020099751242241705 0.05351635264103861 0.015779733838059515 4.00000001832268e-07 4.5825756915262385e-07 0.0 0.0 0.0 0.0 0.0 0.10246950765959598 0.5514526271584894 0.04582575694955823
11.45 0.0 1.4759999999999998 0.11100000000000002 0.5980000000000001 48.07462199999999 11.649016 0.8 432.3 0.0 0.0 0.0 1.3 0.10999999999999999 -6.609999999999999 0.28722813232690153 0.0 0.034409301068170535 0.04011234224026316 0.026381811916545844 7.105427357601002e-15 0.0 0.0 0.0 0.0 0.0 0.0 0.2280350850198276 0.2586503431275513 0.05385164807134515
12.45 0.0 1.5859999999999999 0.10300000000000001 0.681 48.074621199999996 11.6490167 0.8 432.3 0.0 0.0 0.0 1.12 -0.20999999999999996 -6.62 0.28722813232690153 0.0 0.03136877428271624 0.0473392015141785 0.023853720883753097 3.999999989900971e-07 4.582575699666528e-07 0.0 0.0 0.0 0.0 0.0 0.15362291495737213 0.2913760456866693 0.04000000000000021
13.45 0.0 1.6780000000000002 0.06899999999999999 0.755 48.07462099999999 11.649017 0.8 432.3 0.0 0.0 0.0 1.4200000000000002 -0.19 -6.6 0.28722813232690153 0.0 0.021817424229271448 0.04414748010928823 0.01627882059609972 7.105427357601002e-15 0.0 0.0 0.0 0.0 0.0 0.0 0.20396078054371136 0.11357816691600547 0.0
14.45 0.0 1.7559999999999998 0.072 0.8219999999999998 48.074619999999996 11.649017 0.8300000000000001 432.33000000000004 0.0 0.0 0.0 1.0299999999999998 -0.04 -6.5699999999999985 0.28722813232690153 0.0 0.02200000000000002 0.05381449618829484 0.020396078054371117 7.105427357601002e-15 0.0 0.04582575694955839 0.045825756949542766 0.0 0.0 0.0 0.2238302928559939 0.12000000000000001 0.04582575694955823
15.45 0.0 1.8519999999999999 0.086 0.8960000000000001 48.0746195 11.6490171 0.8800000000000001 432.38 0.0 0.0 0.0 1.4 0.18 -6.529999999999999 0.28722813232690153 0.0 0.029933259094191485 0.06118823416311342 0.018000000000000016 5.00000002290335e-07 2.999999997754799e-07 0.039999999999999994 0.03999999999998636 0.0 0.0 0.0 0.16733200530681513 0.18867962264113208 0.04582575694955823
16.45 0.0 1.9309999999999998 0.07 0.9239999999999998 48.074619 11.649017599999999 0.8 432.3 0.0 0.0 0.0 1.4100000000000001 0.33 -6.5699999999999985 0.2872281323269012 0.0 0.023000000000000024 0.030983866769659335 0.016852299546352686 0.0 4.898979481899958e-07 0.0 0.0 0.0 0.0 0.0 0.33 0.4196427051671457 0.04582575694955823
17.45 0.0 2.019 0.093 0.9959999999999999 48.0746189 11.649018 0.8800000000000001 432.38 0.0 0.0 0.0 1.0799999999999998 0.08 -6.540000000000001 0.2872281323269012 0.0 0.028792360097775895 0.07457211275000863 0.01959591794226544 2.999999992425728e-07 0.0 0.039999999999999994 0.03999999999998636 0.0 0.0 0.0 0.09797958971132711 0.16613247725836147 0.04898979485566339
18.45 0.0 2.106 0.053000000000000005 1.067 48.074618 11.649018 0.85 432.35 0.0 0.0 0.0 1.03 -0.02 -6.57 0.2872281323269012 0.0 0.02059126028197399 0.030016662039607272 0.017916472867168933 0.0 0.0 0.04999999999999999 0.04999999999998295 0.0 0.0 0.0 0.16155494421403513 0.132664991614216 0.04582575694955824
19.45 0.0 2.175 0.052000000000000005 1.123 48.074617599999996 11.649018 0.85 432.35 0.0 0.0 0.0 0.75 0.16999999999999998 -6.609999999999999 0.2872281323269012 0.0 0.015000000000000022 0.021354156504062624 0.015524174696259939 4.898979473197623e-07 0.0 0.049999999999999996 0.04999999999998295 0.0 0.0 0.0 0.1284523257866513 0.2609597670139978 0.030000000000000162
20.45 0.0 2.251 0.069 1.1829999999999998 48.074617 11.6490181 0.8 432.3 0.0 0.0 0.0 0.66 0.56 -6.67 0.2872281323269012 0.0 0.025475478405713924 0.06425729530566938 0.019000000000000017 0.0 2.999999997754799e-07 0.0 0.0 0.0 0.0 0.0 0.24166091947189147 0.4223742416388575 0.04582575694955865
21.45 0.0 2.333 0.026000000000000002 1.218 48.074617 11.649019 0.8300000000000001 432.33000000000004 0.0 0.0 0.0 1.04 -0.06000000000000001 -6.6800000000000015 0.2872281323269012 0.0 0.01951922129594315 0.024979991993593596 0.006000000000000005 0.0 0.0 0.04582575694955839 0.045825756949542766 0.0 0.0 0.0 0.2727636339397171 0.5388877434122993 0.04000000000000021
22.45 0.0 2.396 0.046 1.238 48.074617 11.649019 0.8200000000000001 432.32000000000005 0.0 0.0 0.0 1.02 -0.49000000000000005 -6.710000000000001 0.2872281323269012 0.0 0.02107130750570552 0.03352610922848042 0.010770329614269016 0.0 0.0 0.039999999999999994 0.03999999999998636 0.0 0.0 0.0 0.1777638883463118 0.3389690251335659 0.02999999999999989
23.45 0.0 2.4490000000000003 0.02 1.255 48.0746166 11.649019 0.8400000000000001 432.34000000000003 0.0 0.0 0.0 1.23 -0.26 -6.7 0.2872281323269012 0.0 0.013747727084867503 0.023664319132398467 0.0050000000000000044 4.898979508006965e-07 0.0 0.04898979485566354 0.048989794855646855 0.0 0.0 0.0 0.15524174696260024 0.2973213749463701 0.0
24.45 0.0 2.5010000000000003 0.049 1.2760000000000002 48.074616 11.649019 0.8400000000000001 432.34000000000003 0.0 0.0 0.0 1.2 -0.009999999999999998 -6.609999999999999 0.2872281323269012 0.0 0.017578395831246825 0.058043087443725806 0.009165151389911688 0.0 0.0 0.04898979485566356 0.048989794855646855 0.0 0.0 0.0 0.12649110640673514 0.1374772708486752 0.05385164807134515
25.45 0.0 2.5669999999999997 0.045 1.318 48.074616 11.649019 0.8 432.3 0.0 0.0 0.0 1.1 -0.019999999999999997 -6.56 0.2872281323269012 0.0 0.02282542442102667 0.060041652209112305 0.011661903789690611 0.0 0.0 0.0 0.0 0.0 0.0 0.0 0.14832396974191325 0.1777638883463118 0.04898979485566339
26.45 0.0 2.655 0.07600000000000001 1.3649999999999998 48.0746152 11.649019 0.8 432.3 0.0 0.0 0.0 1.1199999999999999 0.26 -6.609999999999999 0.2872281323269012 0.0 0.025787593916455333 0.06390618123468184 0.011180339887498898 3.999999989900971e-07 0.0 0.0 0.0 0.0 0.0 0.0 0.20880613017821098 0.33526109228480416 0.05385164807134515
27.45 0.0 2.7359999999999998 0.07300000000000001 1.3859999999999997 48.074615 11.6490187 0.8 432.3 0.0 0.0 0.0 1.2100000000000002 -0.2899999999999999 -6.659999999999999 0.2872281323269012 0.0 0.022891046284519136 0.03976179070414208 0.006633249580710806 0.0 4.5825756915262385e-07 0.0 0.0 0.0 0.0 0.0 0.11357816691600543 0.15132745950421556 0.04898979485566382
28.45 0.0 2.822 0.06400000000000002 1.394 48.074615 11.649018 0.8 432.3 0.0 0.0 0.0 1.17 0.33999999999999997 -6.640000000000001 0.2872281323269012 0.0 0.024413111231467437 0.05003998401278721 0.01019803902718558 0.0 0.0 0.0 0.0 0.0 0.0 0.0 0.10049875621120889 0.32 0.04898979485566382
29.449999999999996 0.0 2.8950000000000005 0.051000000000000004 1.4309999999999998 48.0746147 11.649018 0.8 432.3 0.0 0.0 0.0 1.01 2.7755575615628915e-18 -6.6 0.2872281323269012 0.0 0.020615528128088336 0.04182104733265297 0.01135781669160056 4.5825757159471073e-07 0.0 0.0 0.0 0.0 0.0 0.0 0.09433981132056604 0.20493901531919198 0.0
30.449999999999996 0.0 2.9650000000000003 0.063 1.459 48.074614 11.6490173 0.8 432.3 0.0 0.0 0.0 1.0100000000000002 0.43 -6.56 0.2872281323269012 0.0 0.02012461179749808 0.03796050579220461 0.007000000000000006 0.0 4.5825756915262385e-07 0.0 0.0 0.0 0.0 0.0 0.12206555615733702 0.15524174696260024 0.04898979485566339
31.449999999999996 0.0 3.032 0.063 1.4820000000000002 48.074614 11.649017 0.8 432.3 0.0 0.0 0.0 0.79 0.06000000000000001 -6.6 0.2872281323269012 0.0 0.023579652245103253 0.05532630477449222 0.00979795897113272 0.0 0.0 0.0 0.0 0.0 0.0 0.0 0.07000000000000003 0.5730619512757762 0.0
32.45 0.0 3.114 0.024 1.5 48.074614 11.649016900000001 0.8 432.3 0.0 0.0 0.0 0.77 0.51 -6.589999999999999 0.2872281323269009 0.0 0.014966629547095732 0.038781438859330636 0.007745966692414841 0.0 3.000000003083869e-07 0.0 0.0 0.0 0.0 0.0 0.06403124237432853 0.29137604568666936 0.02999999999999989
33.45 0.0 3.156 0.033 1.49 48.074614 11.6490167 0.8 432.3 0.0 0.0 0.0 0.78 0.07999999999999999 -6.6 0.2872281323269009 0.0 0.014966629547095725 0.05000999900019996 0.010000000000000009 0.0 4.582575699666528e-07 0.0 0.0 0.0 0.0 0.0 0.11661903789690603 0.22715633383201095 0.0
34.45 0.0 3.224 0.077 1.4549999999999998 48.074614 11.649016300000001 0.8 432.3 0.0 0.0 0.0 1.02 0.16999999999999998 -6.6 0.2872281323269009 0.0 0.02497999199359351 0.04050925820105819 0.011180339887498959 0.0 4.582575699666528e-07 0.0 0.0 0.0 0.0 0.0 0.12489995996796796 0.3001666203960727 0.0
35.45 0.0 3.3019999999999996 0.059 1.4409999999999998 48.074614 11.6490158 0.9600000000000002 432.46000000000004 0.0 0.0 -0.53 1.2800000000000002 1.12 -6.58 0.2872281323269009 0.0 0.02821347195933188 0.04657252408878007 0.009433981132056613 0.0 3.999999997006398e-07 0.17435595774162693 0.17435595774162682 0.0 0.0 0.45177427992306074 0.22271057451320087 0.5878775382679627 0.039999999999999855
36.45 0.0 3.444 0.142 1.4769999999999999 48.074614 11.6490167 2.08 433.58000000000004 0.0 0.0 -1.45 0.93 0.7500000000000001 -6.660000000000001 0.2872281323269009 0.0 0.06621178142898737 0.15249918032566603 0.018466185312619406 0.0 6.403124240408517e-07 0.44 0.4400000000000065 0.0 0.0 0.12041594578792299 0.35227829907617075 0.34713109915419565 0.04898979485566383
37.45 0.0 3.6380000000000003 0.15999999999999998 1.489 48.074614 11.649018 3.63 435.12999999999994 0.0 0.0 -1.6 0.6299999999999999 0.24000000000000005 -6.65 0.2872281323269009 0.0 0.05758472019555195 0.12312595177297109 0.018138357147217073 0.0 0.0 0.4517742799230607 0.4517742799230625 0.0 0.0 0.0 0.2830194339616981 0.20591260281974 0.050000000000000266
38.45 0.0 3.825 0.098 1.416 48.074614499999996 11.649016900000001 5.24 436.73999999999995 0.0 0.0 -1.6 1.3599999999999999 0.8800000000000001 -6.6 0.2872281323269009 0.0 0.059371710435189656 0.07704544113703289 0.03104834939252004 5.00000002290335e-07 7.000000001612858e-07 0.4673328578219168 0.4673328578219205 0.0 0.0 0.0 0.32 0.3187475490101846 0.0
39.45 0.0 4.0 0.146 1.3380000000000003 48.0746151 11.649015300000002 6.9 438.4 0.0 0.0 -1.67 1.6199999999999999 1.02 -6.590000000000001 0.2872281323269009 0.0 0.0549545266561362 0.1315446692192428 0.02400000000000002 2.999999992425728e-07 4.5825756915262385e-07 0.5019960159204454 0.5019960159204372 0.0 0.0 0.04582575694955834 0.12489995996796799 0.2712931993250107 0.07000000000000003
40.45 0.0 4.161 0.12600000000000003 1.26 48.074616 11.649014400000002 8.46 439.9599999999999 0.0 0.0 -1.0699999999999998 1.61 1.8400000000000003 -6.63 0.2872281323269009 0.0 0.04085339643163095 0.07310266752998826 0.011832159566199244 0.0 4.898979490602293e-07 0.35270384177096814 0.35270384177096564 0.0 0.0 0.6527633568147035 0.12206555615733704 0.6666333324999584 0.04582575694955865
41.45 0.0 4.289 0.13599999999999998 1.221 48.074616 11.649014699999999 8.790000000000001 440.28999999999996 0.0 0.0 0.0 1.5299999999999998 1.22 -6.57 0.2872281323269009 0.0 0.04437341546466753 0.09024411338142782 0.018138357147217073 0.0 4.582575699666528e-07 0.053851648071345445 0.053851648071345674 0.0 0.0 0.0 0.26476404589747454 0.30919249667480614 0.04582575694955824
42.45 0.0 4.4159999999999995 0.081 1.1829999999999998 48.074616500000005 11.649013999999998 8.68 440.18 0.0 0.0 -0.30999999999999994 1.72 1.65 -6.660000000000001 0.2872281323269009 0.0 0.0290516780926678 0.08971621926942752 0.011874342087037928 5.00000002290335e-07 1.7763568394002505e-15 0.09797958971132739 0.09797958971131343 0.0 0.0 0.35623026261113755 0.24819347291981714 0.24596747752497683 0.04898979485566383
43.45 0.030000000000000006 4.5569999999999995 0.135 1.2160000000000002 48.074616 11.6490147 8.95 440.45 0.0 0.030000000000000006 -0.11000000000000001 0.95 0.89 -6.6 0.2872281323269009 0.045825756949558406 0.055326304774492144 0.13872634933566153 0.02059126028197402 0.0 4.582575699666528e-07 0.04999999999999982 0.05000000000001137 0.0 0.045825756949558406 0.16401219466856726 0.206155281280883 0.44598206241955507 0.0
44.45 0.0 4.678 0.10200000000000001 1.1889999999999998 48.0746167 11.649015100000002 9.379999999999999 440.87999999999994 0.0 0.0 -0.74 1.23 1.4 -6.62 0.2872281323269009 0.0 0.028913664589601974 0.06046486583132389 0.012206555615733713 4.5825757159471073e-07 2.999999997754799e-07 0.2675817632051929 0.2675817632051923 0.0 0.0 0.40792156108742283 0.2368543856465402 0.9486832980505138 0.07483314773547894
45.45 0.0 4.787000000000001 0.08900000000000001 1.156 48.074617 11.649016 9.849999999999998 441.35 0.0 0.0 -0.5700000000000001 1.56 0.7999999999999999 -6.67 0.2872281323269009 0.0 0.030347981810986968 0.08141867107733951 0.019595917942265444 0.0 0.0 0.18027756377319956 0.1802775637732042 0.0 0.0 0.42673176586703737 0.3693237062523878 0.6942621983083912 0.04582575694955865
46.45 0.0 4.902 0.10700000000000001 1.1309999999999998 48.074617 11.649016800000002 10.39 441.89 0.0 0.0 -0.15 1.69 -0.020000000000000007 -6.7 0.2872281323269009 0.0 0.028565713714171468 0.0759012516365837 0.009433981132056537 0.0 4.0000000041118254e-07 0.0299999999999999 0.029999999999989764 0.0 0.0 0.23769728648009422 0.26999999999999996 0.5546169849544819 0.044721359549995836
47.45 0.0 5.002999999999999 0.099 1.101 48.074617 11.649016 10.35 441.85 0.0 0.0 0.0 1.64 0.67 -6.76 0.2872281323269009 0.0 0.03001666203960728 0.06363175307973215 0.01044030650891056 0.0 0.0 0.04999999999999982 0.04999999999998295 0.0 0.0 0.0 0.048989794855663495 0.20024984394500786 0.04898979485566339
48.45 0.0 5.102 0.07100000000000001 1.0650000000000002 48.0746178 11.6490155 10.3 441.8 0.0 0.0 0.0 1.61 0.4 -6.720000000000001 0.2872281323269009 0.0 0.030919249667480615 0.07286288492778749 0.012041594578792305 3.999999989900971e-07 4.999999996257998e-07 0.0 0.0 0.0 0.0 0.0 0.266270539113887 0.20976176963403032 0.039999999999999855
49.45 0.0 5.1770000000000005 0.047 1.0510000000000002 48.074618 11.649014900000001 10.3 441.8 0.0 0.0 0.0 1.27 0.8200000000000001 -6.76 0.2872281323269009 0.0 0.01615549442140358 0.05604462507680821 0.0030000000000000027 0.0 3.000000003083869e-07 0.0 0.0 0.0 0.0 0.0 0.10049875621120886 0.24413111231467408 0.04898979485566339
50.45 0.0 5.232000000000001 0.044 1.056 48.074618 11.649014399999999 10.3 441.8 0.0 0.0 0.0 1.53 1.19 -6.67 0.2872281323269009 0.0 0.021354156504062683 0.05782732917920385 0.008000000000000007 0.0 4.898979490602293e-07 0.0 0.0 0.0 0.0 0.0 0.241039415863879 1.2316249429107873 0.07810249675906666
51.45 0.08 5.34 0.06100000000000001 1.0570000000000002 48.074618 11.649014600000001 10.3 441.8 0.0 0.08 0.0 2.04 1.1199999999999999 -6.730000000000001 0.2872281323269009 0.04 0.03033150177620632 0.05467174773134659 0.004582575694955844 0.0 4.898979490602293e-07 0.0 0.0 0.0 0.04 0.0 0.10198039027185579 0.7345747068882784 0.04582575694955823
52.45 0.0 5.408 0.057999999999999996 1.0610000000000002 48.074618 11.6490148 10.3 441.8 0.0 0.01 0.0 1.7400000000000002 -0.63 -6.720000000000001 0.2872281323269009 0.0 0.019899748742132448 0.06289674077406554 0.0030000000000000027 0.0 4.000000004111826e-07 0.0 0.0 0.0 0.03 0.0 0.06633249580710801 1.7572990639046047 0.039999999999999855
53.45 0.5349999999999999 5.757 0.675 1.1640000000000001 48.074617 11.649010100000002 10.3 441.8 -0.05 -0.53 0.0 1.43 -5.27 -6.7700000000000005 0.2872281323269009 0.265377090194312 0.2190913051675032 0.26146701512810366 0.09789790600416333 6.324555326838126e-07 2.9137604567100517e-06 0.0 0.0 0.05000000000000001 0.2609597670139978 0.0 0.2238302928559939 0.27221315177632394 0.07810249675906657
54.45 0.6129999999999999 6.593999999999999 0.41600000000000004 1.703 48.0746153 11.648998899999999 10.3 441.8 -0.05 -0.5499999999999999 0.0 1.19 4.8100000000000005 -6.68 0.2872281323269009 0.36886447375696135 0.20436242316042344 0.450559651988502 0.14227086841655254 4.582575683385948e-07 2.467792535731275e-06 0.0 0.0 0.05000000000000001 0.3584689665786984 0.0 0.23853720883753127 4.466419147370743 0.060000000000000143
55.45 0.11499999999999999 6.9510000000000005 0.23400000000000004 1.8509999999999998 48.0746153 11.6489955 10.3 441.8 0.030000000000000006 0.09 0.0 1.3199999999999998 4.26 -6.7 0.2872281323269009 0.14375326083258078 0.06788961628997485 0.12117755567760888 0.03419064199455749 4.5825756833859485e-07 5.000000005139781e-07 0.0 0.0 0.045825756949558406 0.15132745950421558 0.0 0.2227105745132009 2.308332731648538 0.07745966692414841
56.45 0.7779999999999999 7.450999999999999 0.7369999999999999 1.427 48.0746175 11.6490007 10.31 441.81000000000006 0.21000000000000002 0.75 0.0 1.4500000000000002 6.34 -6.7 0.2872281323269009 0.20556264252047352 0.22735214975891477 0.16613548687742782 0.201 8.062257741163102e-07 2.900000000040897e-06 0.029999999999999895 0.02999999999998977 0.06999999999999999 0.19621416870348588 0.0 0.44102154142399885 0.6621178142898738 0.08944271909999167
57.45 1.3729999999999998 8.528 1.1440000000000001 0.8569999999999999 48.07462029999999 11.6490152 10.37 441.87 0.29999999999999993 1.3499999999999999 0.0 1.17 6.1899999999999995 -6.720000000000001 0.2872281323269009 0.1318370205974028 0.37878225935225646 0.45275158751792355 0.09077995373429093 8.999999997803975e-07 5.473572873620416e-06 0.04582575694955823 0.045825756949542766 5.551115123125783e-17 0.15 0.0 0.23685438564654024 0.40853396431631 0.05999999999999997
58.45 1.8200000000000003 10.245 1.6789999999999998 1.8259999999999998 48.074623499999994 11.649037100000001 10.290000000000001 441.7900000000001 0.38 1.78 0.0 1.35 5.380000000000001 -6.659999999999999 0.2872281323269009 0.09919677414109797 0.5532856405149154 0.5725111352628872 0.49916329993299785 1.0246950760891096e-06 7.3000000002039854e-06 0.030000000000000426 0.030000000000006823 0.040000000000000015 0.09797958971132709 0.0 0.22472205054244235 0.37094473981982806 0.10198039027185574
59.45 2.036 12.241 1.4709999999999999 3.776 48.0746271 11.6490639 10.209999999999999 441.7099999999999 0.25 2.0200000000000005 0.0 0.47000000000000003 5.619999999999999 -6.790000000000001 0.2872281323269009 0.05695612346359264 0.6592488149401559 0.8439603071235044 0.615697977908 1.0440306495482264e-06 8.203048213883004e-06 0.03000000000000043 0.030000000000006823 0.0670820393249937 0.060000000000000046 0.0 0.43139309220245986 0.3944616584663204 0.14456832294800973
60.45 2.25 14.567000000000002 1.7 6.069 48.0746319 11.6490945 10.2 441.7 0.37 2.22 0.0 0.65 5.399999999999999 -6.74 0.2872281323269009 0.07784600182411423 0.7393652683214164 0.9833615815151617 0.7102034919655071 1.813835715156417e-06 9.351470472596522e-06 0.0 0.0 0.04582575694955841 0.07483314773547871 0.0 0.35566838487557484 0.45387222871640853 0.06633249580710796
61.45 2.4 17.171999999999997 2.323 8.626999999999999 48.0746383 11.649128000000001 10.2 441.7 0.4 2.3699999999999997 0.0 1.16 4.609999999999999 -6.660000000000001 0.2872281323269009 0.04582575694955844 0.8046713614886513 0.7812432399707533 0.7721534821523501 1.9519221292892643e-06 1.009950493815562e-05 0.0 0.0 0.0 0.04582575694955844 0.0 0.11999999999999997 0.25475478405714 0.04898979485566383
62.45 2.4859999999999998 19.926 2.4770000000000003 11.364 48.074645600000004 11.649163399999999 10.2 441.7 0.48 2.44 0.0 1.6600000000000001 4.34 -6.68 0.2872281323269009 0.05276362383309151 0.8334290611683761 0.831204547629523 0.8095084928522986 2.244994433296018e-06 1.0518555034013663e-05 0.0 0.0 0.039999999999999994 0.048989794855663606 0.0 0.544426303552648 0.4630334761116089 0.10770329614269006
63.45 2.55 22.748 2.6079999999999997 14.174000000000001 48.0746537 11.6491994 10.2 441.7 0.5 2.5 0.0 2.1799999999999997 4.73 -6.58 0.2872281323269009 0.0 0.7801512673834479 0.4207802276723563 0.8192582010575179 2.3685438567252247e-06 1.051855503374008e-05 0.0 0.0 0.0 0.0 0.0 0.198997487421324 0.2147091055358387 0.05999999999999996
64.45 2.55 25.622000000000003 2.479 17.011 48.074661799999994 11.649235700000002 10.2 441.7 0.5 2.5 0.0 1.81 4.9 -6.65 0.2872281323269024 0.0 0.8241698853998488 0.8441972518315847 0.8202005852229075 2.521904043203866e-06 1.0363879582762093e-05 0.0 0.0 0.0 0.0 0.0 0.09433981132056599 0.23237900077244497 0.050000000000000266
65.45 2.5840000000000005 28.508 2.9 19.924 48.0746702 11.6492729 10.2 441.7 0.5599999999999999 2.5200000000000005 0.0 2.15 5.13 -6.709999999999999 0.2872281323269024 0.04386342439892266 0.8178850775017231 0.10344080432788598 0.8585825528159776 2.5219040424713196e-06 1.0848502200937738e-05 0.0 0.0 0.04898979485566355 0.040000000000000036 0.0 0.3324154027718932 0.25317977802344327 0.07000000000000003
66.45 2.57 31.392999999999994 1.073 22.892000000000003 48.0746786 11.6493108 10.28 441.78000000000003 0.5 2.5 0.0 1.8299999999999996 2.3499999999999996 -6.68 0.2872281323269024 0.040000000000000036 0.8124413825009166 1.0522171829047462 0.8461300136503851 2.244994432599716e-06 1.0970870521598225e-05 0.04000000000000057 0.0400000000000091 0.0 0.07745966692414841 0.0 0.3661966684720111 5.688804795385407 0.14000000000000015
67.45 0.9760000000000002 33.66799999999999 0.707 25.068 48.0746849 11.649338500000002 10.2 441.7 0.22000000000000003 0.9199999999999999 0.0 3.19 -9.59 -7.010000000000001 0.2872281323269024 0.6403311643204631 0.33186744341679586 0.6284433148661859 0.2903032896816707 1.1357816692327923e-06 3.584689666027886e-06 0.0 0.0 0.11661903789690602 0.5861740355901138 0.0 0.5940538696111659 3.806166049977326 0.12999999999999995
68.45 0.094 34.147 0.188 25.5 48.074686 11.6493439 10.2 441.7 0.02 0.09000000000000001 0.0 2.56 -2.24 -6.760000000000001 0.2872281323269024 0.07644605941446557 0.05367494760127962 0.1232720568498798 0.047539457296019404 0.0 7.000000000344033e-07 0.0 0.0 0.04 0.06999999999999999 0.0 0.24166091947189144 0.26907248094147423 0.04898979485566339
69.45 0.0 34.315999999999995 0.213 25.432 48.074686 11.649342899999999 10.229999999999999 441.73 0.0 0.0 0.0 2.0800000000000005 -0.48 -6.739999999999999 0.2872281323269024 0.0 0.07088018058667696 0.13145721737508367 0.06508456038109205 0.0 9.433981128573784e-07 0.04582575694955905 0.04582575694956882 0.0 0.0 0.0 0.12489995996796792 0.4935585071701227 0.04898979485566339
70.45 0.261 34.61900000000001 0.34700000000000003 25.137 48.074686 11.6493391 10.31 441.81000000000006 -0.01 -0.26 0.0 2.0599999999999996 -3.29 -6.8 0.2872281323269024 0.13743725841270263 0.1393161871427719 0.26057820323273395 0.1302344040566861 0.0 1.7000000000547622e-06 0.029999999999999895 0.02999999999998977 0.030000000000000002 0.13564659966250536 0.0 0.1854723699099141 0.9883825170448939 0.0
71.45 0.799 35.346000000000004 0.758 24.418 48.0746854 11.649329400000001 10.400000000000002 441.9 -0.1 -0.79 0.0 1.67 -3.16 -6.75 0.2872281323269024 0.12840950120610237 0.2724041115695574 0.300626013511805 0.28343605980890996 4.898979473197622e-07 3.7735924528417143e-06 1.7763568394002505e-15 0.0 0.0 0.13000000000000003 0.0 0.11 0.849941174435031 0.04999999999999982
72.45 1.01 36.44 0.991 23.336000000000002 48.0746843 11.649314800000003 10.400000000000002 441.9 -0.1 -1.01 0.0 1.92 -1.61 -6.76 0.2872281323269024 0.03000000000000003 0.3283291031876403 0.33744481030236634 0.33260186409579845 4.5825757159471073e-07 4.534313619336463e-06 1.7763568394002505e-15 0.0 0.0 0.03000000000000003 0.0 0.19390719429665315 0.18138357147217055 0.04898979485566339
73.45 1.1 37.621 0.8649999999999999 22.157999999999998 48.0746833 11.6492987 10.459999999999999 441.96000000000004 -0.1 -1.1 0.0 2.29 -1.51 -6.8 0.2872281323269024 0.0 0.3898833158779691 0.5000449979751822 0.35343457668994366 4.582575683385948e-07 4.899999999943554e-06 0.04898979485566339 0.0489897948556747 0.0 0.0 0.0 0.16999999999999998 0.2879236009777594 0.0
74.45 1.15 38.897000000000006 1.173 20.921999999999997 48.0746823 11.6492817 10.5 442.0 -0.08 -1.15 0.0 2.2800000000000002 -1.5199999999999998 -6.7700000000000005 0.2872281323269024 0.04999999999999993 0.3491718774471957 0.18011385288200352 0.36289943510565015 4.582575683385948e-07 4.899999999943554e-06 0.0 0.0 0.04 0.04999999999999993 0.0 0.22271057451320087 0.46861498055439926 0.04582575694955824
75.45 1.1999999999999997 40.177 0.788 19.654000000000003 48.0746812 11.6492646 10.5 442.0 -0.1 -1.1999999999999997 0.0 2.4800000000000004 -1.61 -6.739999999999999 0.2872281323269024 2.220446049250313e-16 0.3702985282174365 0.5438161454021019 0.36180657816021 4.00000001832268e-07 5.0239426749050554e-06 0.0 0.0 0.0 2.220446049250313e-16 0.0 0.15362291495737218 0.25079872407968906 0.04898979485566339
76.45 1.1999999999999997 41.455 0.845 18.404999999999994 48.07468 11.6492473 10.5 442.0 -0.1 -1.1999999999999997 0.0 2.9699999999999998 -1.16 -6.760000000000001 0.2872281323269024 2.220446049250313e-16 0.3733697898866488 0.4768070888734772 0.352569142155124 0.0 4.899999999943554e-06 0.0 0.0 0.0 2.220446049250313e-16 0.0 0.2193171219946131 0.4673328578219169 0.04898979485566339
77.45 1.1599999999999997 42.687 0.663 17.196 48.0746789 11.649230800000002 10.5 442.0 -0.1 -1.1799999999999997 0.0 2.41 -1.9100000000000001 -6.8 0.2872281323269024 0.048989794855663495 0.37778433000853734 0.5024350704319912 0.3503198538478801 5.385164817288275e-07 4.812483766303247e-06 0.0 0.0 0.0 0.03999999999999995 0.0 0.3112876483254676 0.3330165161069342 0.044721359549995836
78.45 1.17 43.919999999999995 0.533 15.982999999999999 48.0746776 11.6492142 10.5 442.0 -0.1 -1.1599999999999997 0.0 2.35 -1.6 -6.7700000000000005 0.2872281323269024 0.04582575694955834 0.38683329742926736 0.49175298677283086 0.34877069831050933 4.898979473197622e-07 4.812483766059631e-06 0.0 0.0 0.0 0.048989794855663495 0.0 0.1688194301613413 0.5176871642217914 0.04582575694955824
79.45 1.13 45.163 0.868 14.8 48.0746764 11.6491979 10.5 442.0 -0.1 -1.14 0.0 1.9300000000000002 -1.7899999999999998 -6.75 0.2872281323269024 0.04582575694955834 0.3717808494261107 0.46084270635434815 0.3402058200560362 4.898979508006965e-07 4.657252408970212e-06 0.0 0.0 0.0 0.048989794855663495 0.0 0.241039415863879 0.27 0.04999999999999982
80.45 1.1 46.38 0.9879999999999999 13.633 48.0746746 11.649182 10.5 442.0 -0.1 -1.1 0.0 1.4300000000000002 -2.02 -6.74 0.2872281323269024 0.0 0.332926418296896 0.38439042651970406 0.33304804458215936 4.898979473197622e-07 4.604345773430582e-06 0.0 0.0 0.0 0.0 0.0 0.20024984394500786 0.27495454169735045 0.04898979485566339
81.45 1.1 47.572 1.152 12.49 48.074673100000005 11.6491662 10.5 442.0 -0.1 -1.1 0.0 1.54 -1.8199999999999998 -6.74 0.2872281323269024 0.0 0.3370993918712991 0.0903105752390051 0.3249307618555066 5.385164817288276e-07 4.534313619555848e-06 0.0 0.0 0.0 0.0 0.0 0.128062484748657 0.15362291495737218 0.04898979485566339
82.45 1.1 48.727 0.9570000000000002 11.364999999999998 48.07467150000001 11.649150800000001 10.549999999999999 442.05 -0.1 -1.1 0.0 1.2799999999999998 -2.6000000000000005 -6.769999999999999 0.2872281323269024 0.0 0.33232664653921523 0.3497441922319798 0.322653064451587 4.999999987376214e-07 4.5343136194853316e-06 0.04999999999999982 0.05000000000001137 0.0 0.0 0.0 0.39191835884530846 0.5385164807134504 0.06403124237432845
83.45 1.1 49.879999999999995 0.619 10.248 48.07467009999999 11.649135000000001 10.599999999999998 442.1 -0.1 -1.1 0.01 1.6800000000000002 -2.73 -6.769999999999999 0.2872281323269024 0.0 0.35145412218382116 0.4591394123792903 0.32245309736456246 3.000000013742011e-07 4.604345773199102e-06 1.7763568394002505e-15 0.0 0.0 0.0 0.03 0.4894895300208167 0.5040833264451423 0.07810249675906661
84.45 1.1 51.084 0.806 9.135 48.074668599999995 11.649118999999999 10.540000000000001 442.03999999999996 -0.1 -1.1 0.0 1.8799999999999997 -2.27 -6.7700000000000005 0.2872281323269024 0.0 0.34076971696440395 0.46141521431352917 0.32296284616035936 4.898979473197623e-07 4.604345773199102e-06 0.04898979485566339 0.0489897948556747 0.0 0.0 0.0 0.45782092569038385 0.4172529209005013 0.04582575694955823
85.45 1.09 52.262 0.49399999999999994 8.051 48.0746672 11.649103399999998 10.5 442.0 -0.1 -1.09 0.0 1.86 -2.0800000000000005 -6.779999999999999 0.2872281323269024 0.03000000000000003 0.3387860681905317 0.4520442456220409 0.29857829793874835 6.000000013273165e-07 4.2941821107296045e-06 0.0 0.0 0.0 0.03000000000000003 0.0 0.27640549922170504 0.5075431016179808 0.039999999999999855
86.45 1.08 53.376999999999995 0.627 7.048 48.0746657 11.6490883 10.540000000000001 442.03999999999996 -0.1 -1.09 0.01 1.23 -2.8899999999999997 -6.779999999999999 0.2872281323269024 0.040000000000000036 0.3352327549628761 0.4808128534055636 0.2887143917438132 4.5825756833859485e-07 4.5177427992546e-06 0.04898979485566339 0.0489897948556747 0.0 0.030000000000000023 0.03 0.3163858403911275 0.31128764832546757 0.039999999999999855
87.45 1.1 54.599000000000004 1.0029999999999997 6.059 48.0746645 11.649072499999999 10.5 442.0 -0.1 -1.1 0.0 2.14 -2.12 -6.75 0.2872281323269024 0.0 0.3360491035548224 0.40501975260473405 0.2815830250565542 5.00000002290335e-07 4.75920161351375e-06 0.0 0.0 0.0 0.0 0.0 0.21999999999999997 0.38418745424597095 0.04999999999999982
88.45 1.1 55.811 0.8809999999999999 5.14 48.074663199999996 11.649056400000001 10.5 442.0 -0.09 -1.1 0.0 2.27 -1.94 -6.779999999999999 0.2872281323269024 0.0 0.3407183587657119 0.4791962019882879 0.2518729838628987 3.999999989900971e-07 4.77912125813838e-06 0.0 0.0 0.030000000000000002 0.0 0.0 0.24919871588754228 0.2416609194718915 0.039999999999999855
89.45 1.1099999999999999 57.05 1.1869999999999998 4.37 48.074662000000004 11.649040000000001 10.5 442.0 -0.07 -1.1099999999999999 0.0 2.88 -1.65 -6.83 0.2872281323269024 0.029999999999999964 0.3534119409414459 0.0756372923894027 0.1982422760159902 4.47213595959674e-07 4.71168759577357e-06 0.0 0.0 0.045825756949558406 0.029999999999999964 0.0 0.354400902933387 0.5296225070746144 0.06403124237432864
90.45 1.1199999999999999 58.247000000000014 0.954 3.8230000000000004 48.0746606 11.6490236 10.5 442.0 -0.05 -1.1099999999999999 0.0 2.87 -1.49 -6.760000000000001 0.2872281323269024 0.03999999999999995 0.36116616674323215 0.47756046737559843 0.1071494283699171 4.898979473197622e-07 4.673328578431475e-06 0.0 0.0 0.05000000000000001 0.029999999999999964 0.0 0.2282542442102665 0.35341194094144585 0.04898979485566339
91.45 1.13 59.471000000000004 0.944 3.6079999999999997 48.0746592 11.649007600000001 10.5 442.0 -0.09 -1.13 0.0 2.96 -1.1900000000000002 -6.789999999999999 0.2872281323269024 0.04582575694955834 0.34130484907191205 0.39774866435979395 0.017776388834631153 6.000000013273165e-07 4.67332857859112e-06 0.0 0.0 0.03 0.04582575694955834 0.0 0.15620499351813313 0.5374941860150676 0.02999999999999989
92.45 1.1 60.659000000000006 0.6969999999999998 3.78 48.0746575 11.648991500000001 10.440000000000001 441.93999999999994 -0.1 -1.1 0.0 3.0199999999999996 -1.1300000000000001 -6.789999999999999 0.2872281323269024 0.0 0.36689099198535713 0.5078198499468093 0.1140175425099138 4.999999987376214e-07 4.75920161351375e-06 0.04898979485566339 0.0489897948556747 0.0 0.0 0.0 0.14000000000000012 0.4148493702538308 0.02999999999999989
93.45 1.1 61.882999999999996 1.133 4.304 48.0746563 11.648975499999999 10.400000000000002 441.9 -0.1 -1.1 0.0 2.6599999999999997 -1.2200000000000002 -6.789999999999999 0.2872281323269024 0.0 0.3379067918820207 0.054781383699209305 0.1876272901259302 4.5825757159471073e-07 4.272001872642572e-06 1.7763568394002505e-15 0.0 0.0 0.0 0.0 0.19078784028338913 0.26381811916545833 0.02999999999999989
94.45 1.1 63.032000000000004 0.786 5.056 48.0746551 11.6489599 10.459999999999999 441.96000000000004 -0.1 -1.1 0.0 2.69 -1.4 -6.75 0.2872281323269024 0.0 0.3573177857314129 0.44389638430606754 0.24075713904264612 5.385164793538269e-07 4.482186966201346e-06 0.04898979485566339 0.0489897948556747 0.0 0.0 0.0 0.16401219466856723 0.2366431913239846 0.04999999999999982
95.45 1.1 64.211 0.8649999999999999 5.944 48.0746535 11.6489441 10.49 441.98999999999995 -0.1 -1.1 0.0 2.7199999999999998 -1.23 -6.75 0.2872281323269024 0.0 0.3852129281319619 0.4682787631315347 0.2719632328091427 5.00000002290335e-07 4.657252408985469e-06 0.0299999999999999 0.030000000000006823 0.0 0.0 0.0 0.13266499161421594 0.4382921400162225 0.04999999999999982
96.45 1.1 65.433 1.1480000000000001 6.919 48.074651900000006 11.6489282 10.5 442.0 -0.1 -1.1 0.0 2.43 -1.27 -6.75 0.2872281323269024 0.0 0.3452839411267164 0.07896834808959853 0.2958530040408581 5.38516479353827e-07 4.5343136196968814e-06 0.0 0.0 0.0 0.0 0.0 0.10049875621120899 0.29342801502242416 0.04999999999999982
97.45 1.1099999999999999 66.607 0.882 7.9670000000000005 48.074650600000005 11.648912399999999 10.5 442.0 -0.1 -1.1099999999999999 0.0 2.73 -1.65 -6.81 0.2872281323269024 0.02999999999999996 0.3427550145512097 0.48190870504692074 0.3045012315246032 4.898979508006965e-07 4.673328578431475e-06 0.0 0.0 0.0 0.02999999999999996 0.0 0.39509492530276824 0.46529560496527367 0.05385164807134515
98.45 1.1500000000000004 67.803 0.86 9.055 48.074648800000006 11.6488963 10.470000000000002 441.96999999999997 -0.15 -1.14 0.0 1.7800000000000005 -0.51 -6.739999999999999 0.2872281323269024 0.04123105625617653 0.3909999999999976 0.49081564767232105 0.3187867625859016 5.999999984851456e-07 4.691481642025965e-06 0.04582575694955824 0.04582575694956882 0.05 0.048989794855663495 0.0 0.4686149805543992 0.40853396431630995 0.04898979485566339
99.45 1.1160000000000003 69.02799999999999 1.145 10.133 48.0746467 11.648880600000002 10.459999999999999 441.96000000000004 -0.18 -1.1 0.0 1.24 -1.24 -6.710000000000001 0.2872281323269024 0.008000000000000007 0.33843167700438387 0.039560080889704925 0.3104206823006483 6.403124235692372e-07 4.431703961097963e-06 0.04898979485566339 0.0489897948556747 0.04 0.0 0.0 0.17999999999999997 0.6651315659326357 0.07000000000000003
100.45 1.1200000000000003 70.201 1.1280000000000001 11.228 48.0746447 11.648865 10.459999999999999 441.96000000000004 -0.2 -1.1 0.0 0.8099999999999999 -1.7899999999999998 -6.76 0.2872281323269024 2.220446049250313e-16 0.32690824400739404 0.07236021006050217 0.31723177646635586 6.403124235692372e-07 4.604345773199101e-06 0.04898979485566339 0.0489897948556747 0.0 0.0 0.0 0.20712315177207982 0.31764760348537185 0.04898979485566339
101.45 1.1160000000000003 71.362 0.678 12.332 48.07464259999999 11.6488495 10.5 442.0 -0.17 -1.1 0.0 0.7900000000000001 -2.0 -6.720000000000001 0.2872281323269024 0.008000000000000007 0.35002285639655123 0.5084840213812033 0.32002499902351383 4.898979508006966e-07 4.588027898542273e-06 0.0 0.0 0.045825756949558406 0.0 0.0 0.2211334438749598 0.13416407864998736 0.039999999999999855
102.45 1.1039999999999999 72.515 0.689 13.448999999999998 48.074640599999995 11.648834 10.47 441.96999999999997 -0.12000000000000002 -1.1 0.0 0.71 -1.8299999999999996 -6.710000000000001 0.2872281323269024 0.008000000000000007 0.33645950722189305 0.49204572958211923 0.3230309582687083 4.898979473197623e-07 4.358898943334903e-06 0.04582575694955824 0.04582575694956882 0.04 0.0 0.0 0.15132745950421558 0.17916472867168917 0.02999999999999989
103.45 1.1 73.723 1.076 14.576999999999998 48.074639000000005 11.648818600000002 10.400000000000002 441.9 -0.1 -1.1 0.0 1.5699999999999998 -1.44 -6.74 0.2872281323269024 0.0 0.3361562136864331 0.17141761869772898 0.32851331784267135 4.47213595959674e-07 4.431703960961681e-06 1.7763568394002505e-15 0.0 0.0 0.0 0.0 0.4561797891182818 0.38000000000000006 0.04898979485566339
104.45 1.1 74.87199999999999 0.835 15.719999999999999 48.0746376 11.648803000000001 10.400000000000002 441.9 -0.1 -1.1 0.0 1.83 -1.95 -6.7700000000000005 0.2872281323269024 0.0 0.3614636911226355 0.4503831702006637 0.32664965942122154 4.898979473197622e-07 4.358898943334903e-06 1.7763568394002505e-15 0.0 0.0 0.0 0.0 0.15524174696260024 0.21095023109728986 0.04582575694955823
105.45 1.1 76.021 0.734 16.857999999999997 48.0746362 11.648787500000001 10.400000000000002 441.9 -0.1 -1.1 0.0 2.3999999999999995 -1.73 -6.8 0.2872281323269024 0.0 0.3537640456575516 0.5066991217675436 0.33219873569897923 6.000000013273165e-07 4.588027898542273e-06 1.7763568394002505e-15 0.0 0.0 0.0 0.0 0.25298221281347033 0.31000000000000005 0.0
106.45 1.1 77.22900000000001 0.6649999999999999 18.038999999999998 48.0746344 11.648771499999999 10.34 441.84000000000003 -0.1 -1.1 0.0 2.1 -1.44 -6.76 0.2872281323269024 0.0 0.3744716277637076 0.5067987766362504 0.3511538124526059 4.898979473197622e-07 4.759201613719036e-06 0.04898979485566339 0.048989794855646855 0.0 0.0 0.0 0.49799598391954925 0.36110940170535577 0.04898979485566339
107.45 1.1199999999999999 78.46399999999998 0.885 19.258000000000003 48.0746326 11.648755099999999 10.39 441.89 -0.1 -1.1199999999999999 0.0 2.8099999999999996 -0.9999999999999998 -6.739999999999999 0.2872281323269024 0.03999999999999995 0.33299249240786083 0.5007843847405787 0.3454504305975035 4.898979473197622e-07 4.657252408924442e-06 0.0299999999999999 0.029999999999989764 0.0 0.03999999999999995 0.0 0.22113344387495984 0.48579831205964474 0.04898979485566339
108.45 1.1 79.70700000000001 1.1729999999999998 20.446 48.074631 11.6487391 10.400000000000002 441.9 -0.1 -1.1 0.0 2.96 -1.2399999999999998 -6.760000000000001 0.2872281323269024 0.0 0.3532718499965722 0.08355237878121725 0.34931933814204935 6.324555326838126e-07 4.657252408573538e-06 1.7763568394002505e-15 0.0 0.0 0.0 0.0 0.2870540018881465 0.2835489375751565 0.04898979485566339
109.45 1.1 80.898 1.034 21.633 48.074629400000006 11.648723100000002 10.400000000000002 441.9 -0.1 -1.1 0.0 2.73 -1.25 -6.74 0.2872281323269024 0.0 0.3497370440774027 0.34702161315975694 0.33373792112973916 4.898979473197623e-07 4.482186966066599e-06 1.7763568394002505e-15 0.0 0.0 0.0 0.0 0.3067572330035594 0.5142956348249517 0.06633249580710796
110.45 1.1 82.05 0.49700000000000005 22.803 48.074627500000005 11.6487072 10.400000000000002 441.9 -0.1 -1.1 0.0 2.2 -0.9800000000000001 -6.789999999999999 0.2872281323269024 0.0 0.3365412307578365 0.4802301531557551 0.33624544606581663 4.999999987376214e-07 4.53431361966554e-06 1.7763568394002505e-15 0.0 0.0 0.0 0.0 0.23664319132398468 0.66 0.07000000000000003
111.45 1.1 83.249 1.12 23.943 48.0746262 11.6486921 10.400000000000002 441.9 -0.1 -1.1 0.0 2.0 -1.73 -6.75 0.2872281323269024 0.0 0.33342015535957237 0.07974960814950754 0.32924307130143216 5.999999999062311e-07 4.4821869660666e-06 1.7763568394002505e-15 0.0 0.0 0.0 0.0 0.2190890230020664 0.241039415863879 0.04999999999999982
112.45 1.09 84.40200000000002 0.9940000000000001 25.098000000000003 48.07462459999999 11.6486765 10.45 441.95 -0.1 -1.09 0.0 1.81 -1.8199999999999998 -6.730000000000001 0.2872281323269024 0.030000000000000023 0.31520786792210814 0.332932425576122 0.3227630709979067 4.898979473197623e-07 4.27200187287127e-06 0.04999999999999982 0.05000000000001137 0.0 0.030000000000000023 0.0 0.49487372126634493 0.788416133777081 0.04582575694955823
113.45 1.11 85.534 0.7489999999999999 26.242 48.074622899999994 11.648661200000001 10.400000000000002 441.9 -0.15000000000000005 -1.1 0.0 1.05 -2.16 -6.6899999999999995 0.2872281323269024 0.010000000000000009 0.33580351397803665 0.4528012809169161 0.3387860681905326 7.000000009733347e-07 4.534313619336463e-06 1.7763568394002505e-15 0.0 0.05000000000000001 0.0 0.0 0.5608029957123981 0.6959885056522127 0.10440306508910545
114.45000000000002 1.1 86.74999999999999 1.0479999999999996 27.417999999999996 48.074621699999994 11.6486456 10.400000000000002 441.9 -0.1 -1.1 0.0 2.0300000000000002 -1.9400000000000002 -6.839999999999999 0.2872281323269024 0.0 0.3419064199455764 0.3547900787789873 0.34192981736022976 4.5825756833859485e-07 4.673328577929737e-06 1.7763568394002505e-15 0.0 0.0 0.0 0.0 0.29681644159311665 0.3231098884280702 0.04898979485566383
115.45000000000002 1.1 87.932 1.1310000000000002 28.594 48.074620499999995 11.6486298 10.459999999999999 441.96000000000004 -0.1 -1.1 0.0 1.8000000000000003 -2.52 -6.769999999999999 0.2872281323269024 0.0 0.3440871982506743 0.0960676844729798 0.3426718546948372 4.999999987376214e-07 4.534313619555848e-06 0.04898979485566339 0.0489897948556747 0.0 0.0 0.0 0.2792848008753788 0.33406586176980124 0.04582575694955823
116.40000000000002 1.1 89.05444444444444 0.9488888888888888 29.724444444444444 48.074618888888885 11.648614666666667 10.411111111111113 441.9111111111111 -0.1 -1.1 0.0 1.6333333333333335 -2.411111111111111 -6.777777777777778 0.2581988897471611 0.0 0.30434304880845464 0.41532970689814463 0.311666171518719 5.665577238504319e-07 4.055175020538502e-06 0.03142696805273533 0.03142696805274259 0.0 0.0 0.0 0.12472191289246473 0.23778816176702997 0.04157397096415475
117.45000000000002 1.19 90.34299999999999 1.181 31.012999999999998 48.0746169 11.648597500000001 10.34 441.84000000000003 -0.1 -1.19 0.0 1.6400000000000001 -1.5699999999999998 -6.790000000000001 0.2872281323269024 0.029999999999999957 0.4001762111870211 0.5381904867237992 0.3553322388976268 7.000000009733346e-07 4.75920161351375e-06 0.04898979485566339 0.048989794855646855 0.0 0.029999999999999957 0.0 0.09165151389911678 0.328785644455472 0.029999999999999895
118.45000000000002 1.13 91.592 1.0299999999999998 32.245000000000005 48.0746155 11.648580999999998 10.340000000000002 441.84000000000003 -0.1 -1.13 0.0 1.7999999999999996 -0.6000000000000002 -6.749999999999998 0.2872281323269024 0.04582575694955834 0.36460389465829934 0.3920969267923431 0.3594787893603744 4.999999987376214e-07 4.919349550356634e-06 0.04898979485566339 0.048989794855646855 0.0 0.04582575694955834 0.0 0.09999999999999996 2.2702422778197042 0.06708203932499365
119.45000000000002 0.311 92.483 0.391 33.09599999999999 48.074614 11.6485697 10.400000000000002 441.9 -0.02 -0.3 0.0 1.7600000000000002 5.220000000000001 -6.660000000000001 0.2872281323269024 0.3125523956075205 0.09089004345911675 0.35180818637433664 0.07227724399837003 0.0 1.0049875619962706e-06 1.7763568394002505e-15 0.0 0.04 0.31622776601683794 0.0 0.1356465996625054 4.031327324839797 0.04898979485566383
120.45000000000002 0.0 92.633 0.07800000000000001 33.174 48.074614499999996 11.648568699999998 10.379999999999999 441.88 0.0 0.0 0.0 2.57 0.44000000000000006 -6.7299999999999995 0.2872281323269024 0.0 0.03001666203960752 0.058103356185335804 0.00663324958071098 5.00000002290335e-07 4.582575699666528e-07 0.039999999999999855 0.03999999999998636 0.0 0.0 0.0 0.09000000000000008 0.3440930106817051 0.04582575694955824
121.45000000000002 0.0 92.719 0.062 33.152 48.074615 11.648568999999998 10.3 441.8 0.0 0.0 0.0 2.3900000000000006 -0.31 -6.730000000000001 0.2872281323269024 0.0 0.02343074902772164 0.023999999999999997 0.01248999599679636 0.0 1.7763568394002505e-15 0.0 0.0 0.0 0.0 0.0 0.15132745950421553 0.5337602458033007 0.04582575694955823
122.45000000000002 0.0 92.791 0.07100000000000001 33.153 48.074615 11.648568999999998 10.360000000000003 441.86 0.0 0.0 0.0 2.6600000000000006 -0.35 -6.7299999999999995 0.2872281323269024 0.0 0.02467792535850465 0.052239831546435904 0.00899999999999955 0.0 1.7763568394002505e-15 0.04898979485566339 0.04898979485564685 0.0 0.0 0.0 0.2835489375751565 0.4883646178829912 0.06403124237432845
123.45 0.0 92.869 0.051000000000000004 33.125 48.074615 11.648568999999998 10.400000000000002 441.9 0.0 0.0 0.0 2.62 -0.6599999999999999 -6.730000000000001 0.2872281323269024 0.0 0.023853720883755085 0.05629387178015027 0.012845232578665617 0.0 1.7763568394002505e-15 1.7763568394002505e-15 0.0 0.0 0.0 0.0 0.060000000000000046 0.2835489375751565 0.04582575694955823
124.45000000000002 0.0 92.91900000000001 0.03300000000000001 33.11899999999999 48.074615 11.648568999999998 10.400000000000002 441.9 0.0 0.0 0.0 2.56 -0.6 -6.76 0.2872281323269024 0.0 0.01813835714721466 0.04495553358597805 0.0104403065089114 0.0 1.7763568394002505e-15 1.7763568394002505e-15 0.0 0.0 0.0 0.0 0.19595917942265428 0.2280350850198276 0.04898979485566339
125.45000000000002 0.0 92.986 0.07 33.15299999999999 48.074615 11.648568999999998 10.430000000000001 441.92999999999995 0.0 0.0 0.0 2.34 -0.82 -6.789999999999999 0.2872281323269024 0.0 0.019595917942268924 0.05329165037789691 0.008999999999999552 0.0 1.7763568394002505e-15 0.04582575694955823 0.04582575694956882 0.0 0.0 0.0 0.18000000000000002 0.8863407922464136 0.05385164807134503
126.45000000000002 0.0 93.08 0.072 33.169 48.074615 11.648568999999998 10.420000000000002 441.91999999999996 0.0 0.0 0.0 2.28 -0.7 -6.730000000000001 0.2872281323269024 0.0 0.028982753492378013 0.04261455150532503 0.009433981132057513 0.0 1.7763568394002505e-15 0.039999999999999855 0.0400000000000091 0.0 0.0 0.0 0.05999999999999987 0.5458937625582473 0.04582575694955823
127.45000000000002 0.0 93.15299999999999 0.06100000000000001 33.199 48.074615 11.648568 10.400000000000002 441.9 0.0 0.0 0.0 2.1599999999999997 0.22999999999999998 -2.91 0.2872281323269024 0.0 0.016763054614242427 0.03726929030716845 0.012206555615734475 0.0 0.0 1.7763568394002505e-15 0.0 0.0 0.0 0.0 0.185472369909914 0.20518284528683192 6.351606096098844
128.45 0.0 93.22 0.064 33.239999999999995 48.074615 11.648567899999998 10.400000000000002 441.9 0.0 0.0 0.0 1.65 1.48 44.65 0.2872281323269034 0.0 0.019493588689617695 0.03611094017053558 0.010954451150104388 0.0 2.999999997754799e-07 1.7763568394002505e-15 0.0 0.0 0.0 0.0 0.3138470965295043 0.793473376995095 16.659426760846245
129.45 0.0 93.282 0.041999999999999996 33.24 48.074615 11.648568 10.42 441.91999999999996 0.0 0.0 -0.08 1.35 1.4200000000000002 80.96 0.2872281323269034 0.0 0.020880613017819533 0.03789459064299284 0.006324555320337748 0.0 0.0 0.03999999999999986 0.0400000000000091 0.0 0.0 0.16613247725836147 0.16278820596099708 0.357211421989835 3.808464257414007
130.45 0.0 93.391 0.148 33.277 48.0746146 11.648567 11.18 442.67999999999995 0.0 0.0 -1.3800000000000001 1.1800000000000002 2.04 86.6 0.2872281323269034 0.0 0.04846648326420897 0.17491712323268985 0.029681644159311595 4.898979508006965e-07 4.4721359516526307e-07 0.4166533331199932 0.41665333311998476 0.0 0.0 0.36 0.4556314299957807 0.4779121258139408 0.392428337406974
131.45 0.01 93.61200000000001 0.22199999999999998 33.382 48.0746128 11.648565900000001 12.9 444.4 0.01 0.0 -1.9199999999999995 0.29 0.55 87.03 0.2872281323269034 0.030000000000000002 0.06630233781700487 0.20033971149025848 0.029257477676655354 5.999999984851456e-07 3.000000003083869e-07 0.5440588203494177 0.544058820349415 0.030000000000000002 0.0 0.040000000000000036 0.18138357147217055 0.4716990566028302 0.0781024967590621
132.45 0.096 93.778 0.099 33.44799999999999 48.0746123 11.648565000000001 14.790000000000001 446.28999999999996 0.09 0.04 -1.8999999999999997 0.48 1.4899999999999998 87.19000000000001 0.2872281323269034 0.05122499389946279 0.03340658617697902 0.07687002016391047 0.012489995996797157 4.5825756833859485e-07 1.7763568394002505e-15 0.5185556864985669 0.5185556864985749 0.03 0.048989794855663564 2.220446049250313e-16 0.19390719429665318 0.6847627326307997 0.0700000000000015
133.45 0.14000000000000004 93.9 0.077 33.435 48.0746131 11.648565000000001 16.630000000000003 448.13 0.1 0.1 -1.8999999999999997 1.0399999999999998 1.69 87.22999999999999 0.2872281323269034 2.7755575615628914e-17 0.041472882706653016 0.06827151675479315 0.009219544457293366 2.999999992425728e-07 1.7763568394002505e-15 0.5177837386399846 0.5177837386399837 0.0 0.0 2.220446049250313e-16 0.2727636339397171 0.383275357934736 0.1004987562112111
134.45 0.13200000000000003 94.02699999999999 0.11200000000000002 33.398 48.0746141 11.6485655 18.44 449.93999999999994 0.08 0.1 -1.8999999999999997 1.7 2.13 87.53 0.2872281323269034 0.016000000000000004 0.045177427992306035 0.09271461589199408 0.021817424229272298 3.00000001374201e-07 5.000000005139781e-07 0.5332916650389352 0.5332916650389327 0.04 0.0 2.220446049250313e-16 0.2645751311064591 0.4980963762164909 0.04582575694955579
135.45 0.07 94.174 0.095 33.346000000000004 48.074615 11.648566 20.29 451.7900000000001 0.0 0.06000000000000001 -1.8999999999999997 2.0899999999999994 2.0699999999999994 87.63000000000001 0.2872281323269034 0.045825756949558406 0.03746998799039044 0.09728823155962905 0.010198039027184656 0.0 0.0 0.5356304696336832 0.5356304696336828 0.0 0.048989794855663564 2.220446049250313e-16 0.2844292530665578 0.21470910553583888 0.045825756949562306
136.45 0.0 94.28399999999999 0.073 33.33800000000001 48.074616 11.648566 22.1 453.6 0.0 0.0 -1.8999999999999997 1.7100000000000002 2.22 87.78 0.2872281323269034 0.0 0.03199999999999674 0.07335529974037322 0.006000000000001648 0.0 0.0 0.5196152422706626 0.5196152422706545 0.0 0.0 2.220446049250313e-16 0.2736786436680801 0.3124099870362662 0.09797958971132939
137.45 0.0 94.381 0.093 33.361000000000004 48.0746167 11.648566 23.94 455.44000000000005 0.0 0.0 -1.8999999999999997 0.8699999999999999 2.66 87.82999999999998 0.2872281323269034 0.0 0.030805843601501015 0.055506756345511665 0.020223748416156456 4.5825757159471073e-07 0.0 0.5332916650389352 0.5332916650389327 0.0 0.0 2.220446049250313e-16 0.49406477308142505 0.4903060268852505 0.0458257569495623
138.45 0.0 94.48799999999999 0.08700000000000001 33.388 48.074617 11.6485657 25.830000000000002 457.33000000000004 0.0 0.0 -1.95 0.95 3.2 88.03999999999999 0.2872281323269034 0.0 0.030265491900845824 0.060671245248470056 0.015362291495735824 0.0 4.582575699666528e-07 0.5386093203798095 0.5386093203798127 0.0 0.0 0.05000000000000005 0.8570297544426331 0.9486832980505138 0.128062484748655
139.45 0.0 94.59200000000001 0.05000000000000001 33.419 48.0746175 11.648565000000001 27.71 459.21000000000004 0.0 0.0 -1.9099999999999997 0.52 3.9899999999999998 87.97 0.2872281323269034 0.0 0.028565713714170892 0.03974921382870358 0.007000000000001348 4.999999987376214e-07 1.7763568394002505e-15 0.5107837115648854 0.5107837115648867 0.0 0.0 0.03000000000000003 0.5055689863905816 0.7422263805605402 0.1187434208703772
140.45 0.0 94.67800000000001 0.093 33.402 48.074618 11.648565000000001 29.329999999999995 460.8299999999999 0.0 0.0 -1.27 1.14 3.1 88.07000000000001 0.2872281323269034 0.0 0.02925747767665414 0.08706893820416096 0.008717797887079612 0.0 1.7763568394002505e-15 0.33181320046074153 0.3318132004607462 0.0 0.0 0.43139309220245986 0.290516780926679 0.5422176684690384 0.07810249675906683
141.45 0.0 94.851 0.171 33.374 48.074618799999996 11.6485657 29.97 461.46999999999997 0.0 0.0 -0.41000000000000003 0.8699999999999999 4.45 88.11999999999999 0.2872281323269034 0.0 0.061065538563087156 0.17119871494844816 0.01854723699099078 5.999999999062311e-07 4.582575699666528e-07 0.12688577540449542 0.12688577540449852 0.0 0.0 0.029999999999999992 1.1287603820120549 0.8369587803470372 0.12489995996796677
142.45 0.945 95.304 0.71 32.974000000000004 48.074619999999996 11.6485711 30.2 461.7 -0.1 0.9800000000000001 -0.030000000000000006 -11.99 5.07 87.77000000000001 0.2872281323269034 0.609462878278899 0.33184936341659654 0.6191607222684591 0.3528229017510059 7.105427357601002e-15 4.614108797966087e-06 0.0 0.0 0.0 0.6321392251711644 0.06403124237432849 1.8859745491389857 0.5254521862167861 0.23259406699225993
143.45 2.9000000000000004 97.45 1.9989999999999999 30.787 48.074619999999996 11.648600299999998 30.160000000000004 461.66 -0.05 2.9300000000000006 0.0 -12.45 3.9899999999999998 88.42999999999999 0.2872281323269034 0.47958315233127197 0.8883692925805117 1.2004953144431676 0.876824383785031 7.105427357601002e-15 1.1807201192201526e-05 0.048989794855662516 0.04898979485564685 0.05000000000000001 0.4517742799230607 0.0 0.1565247584249854 0.27 0.27586228448267536
144.45 4.290000000000001 101.17299999999999 3.9730000000000003 27.057000000000006 48.0746207 11.6486505 30.100000000000005 461.6000000000001 0.0 4.3 0.0 -12.61 3.85 88.8 0.2872281323269034 0.3330165161069343 1.1793646594671254 0.6162150598614091 1.258380308173964 4.582575683385948e-07 1.687749981495689e-05 3.552713678800501e-15 5.684341886080802e-14 0.0 0.3464101615137754 0.0 0.49487372126634505 0.42249260348555195 0.07745966692414943
145.45 4.8100000000000005 105.83100000000002 2.697 22.336 48.074622 11.6487137 30.01 461.51000000000005 0.0 4.800000000000001 0.0 -4.53 3.6900000000000004 88.91 0.2872281323269034 0.1044030650891057 1.443692834366095 1.93237185862349 1.3845302452456576 4.47213595959674e-07 1.8439360075627596e-05 0.030000000000000426 0.030000000000006823 0.0 0.10000000000000017 0.0 1.5530936868070773 0.17578395831246943 0.08306623862918167
146.45 4.3500000000000005 110.332 2.2489999999999997 17.79 48.074623499999994 11.648774699999999 29.97 461.46999999999997 0.0 4.340000000000001 -0.04 -2.56 3.8299999999999996 88.80999999999999 0.2872281323269034 0.15 1.2815911984716515 1.6935433268741606 1.247252981555867 4.999999987376214e-07 1.6805058762153193e-05 0.045825756949559045 0.04582575694956882 0.0 0.15620499351813308 0.048989794855663564 0.34698703145794946 0.17916472867168917 0.053851648071346736
147.45 3.84 114.31400000000001 1.1019999999999999 13.738999999999999 48.074624699999994 11.648829200000002 30.040000000000003 461.5400000000001 0.0 3.79 -0.02 -1.5699999999999998 4.159999999999999 88.96000000000001 0.2872281323269034 0.1685229954635271 1.1595447382485948 1.2368977322317314 1.1043319247400214 4.582575683385948e-07 1.4729562111541857e-05 0.04898979485566426 0.0489897948556747 0.0 0.15779733838059495 0.04 0.2647640458974745 0.10198039027185572 0.06633249580710422
148.45 3.2399999999999998 117.99300000000001 2.721 10.206999999999999 48.07462600000001 11.648876300000001 30.100000000000005 461.6000000000001 0.0 3.2399999999999998 0.0 -0.8800000000000001 3.7800000000000002 89.08 0.2872281323269034 0.16248076809271916 0.9217271830644896 1.058833792433921 0.9359065124252527 7.105427357601002e-15 1.2728314892367546e-05 3.552713678800501e-15 5.684341886080802e-14 0.0 0.16248076809271916 0.0 0.3280243893371345 0.2599999999999999 0.039999999999997725
149.45 2.7 120.92400000000002 2.345 7.247 48.07462640000001 11.648916 30.100000000000005 461.6000000000001 0.0 2.6799999999999997 0.0 0.2 3.4300000000000006 89.15 0.2872281323269034 0.16733200530681508 0.7947100100036466 0.811865136583657 0.7824838656483599 4.898979473197623e-07 1.0554619841712732e-05 3.552713678800501e-15 5.684341886080802e-14 0.0 0.16613247725836147 0.0 0.2863564212655271 0.17916472867168923 0.0921954445729298
150.45 2.13 123.34899999999998 1.5220000000000002 4.848 48.07462700000001 11.648948299999999 30.110000000000003 461.61 0.0 2.1199999999999997 0.0 0.8300000000000001 3.56 89.22999999999999 0.2872281323269034 0.15524174696260024 0.6004073617136946 0.828791891852231 0.6113231551315557 7.105427357601002e-15 8.343260753544926e-06 0.02999999999999936 0.029999999999989764 0.0 0.16 0.0 0.4243819034784589 0.19078784028338916 0.06403124237432774
151.45555555555558 1.5555555555555556 125.13666666666667 1.3622222222222222 3.0422222222222217 48.07462733333333 11.648972555555556 30.08888888888889 461.5888888888889 0.0 1.5444444444444445 0.0 1.9444444444444444 4.0 89.74444444444444 0.3022549001941232 0.15713484026367724 0.4589117562233502 0.8034478172611638 0.45657609266699645 4.714045196008497e-07 6.166416411044587e-06 0.03142696805273589 0.03142696805274259 0.0 0.15713484026367724 0.0 0.41126123385159435 0.2054804667656326 0.29101779674908246
152.45 0.9800000000000001 126.398 0.9030000000000001 1.8079999999999998 48.074628000000004 11.648989199999999 30.0 461.5 0.0 0.9800000000000001 0.0 3.0100000000000002 4.279999999999999 90.80000000000001 0.2872281323269034 0.1661324772583615 0.2778416815382446 0.3283306260463681 0.28487892164918066 7.105427357601002e-15 3.944616584638159e-06 0.0 0.0 0.0 0.1661324772583615 0.0 0.34481879299133333 0.3544009029333871 0.22803508501982647
