"avg_OSD.flyTime [s]" "avg_CUSTOM.hSpeed [m/s]" "avg_CUSTOM.distance [m]" "avg_CALC.hSpeed [m/s]" "avg_CALC.distance [m]" avg_OSD.latitude avg_OSD.longitude "avg_OSD.height [m]" "avg_OSD.altitude [m]" "avg_OSD.xSpeed [m/s]" "avg_OSD.ySpeed [m/s]" "avg_OSD.zSpeed [m/s]" avg_OSD.pitch avg_OSD.roll avg_OSD.yaw "stdDev_OSD.flyTime [s]" "stdDev_CUSTOM.hSpeed [m/s]" "stdDev_CUSTOM.distance [m]" "stdDev_CALC.hSpeed [m/s]" "stdDev_CALC.distance [m]" stdDev_OSD.latitude stdDev_OSD.longitude "stdDev_OSD.height [m]" "stdDev_OSD.altitude [m]" "stdDev_OSD.xSpeed [m/s]" "stdDev_OSD.ySpeed [m/s]" "stdDev_OSD.zSpeed [m/s]" stdDev_OSD.pitch stdDev_OSD.roll stdDev_OSD.yaw
0.45 0.0 0.016 0.030000000000000006 0.0 48.074673000000004 11.6492326 0.0 530.2 0.0 0.0 0.0 2.63 -3.6 49.67 0.2872281323269014 0.0 0.011135528725660045 0.02097617696340303 0.0 7.105427357601002e-15 4.898979490602293e-07 0.0 0.0 0.0 0.0 0.0 0.04582575694955844 0.0 0.12688577540449425
1.45 0.0 0.051000000000000004 0.036 1.527 48.074673000000004 11.649232 0.0 530.2 0.0 0.0 0.0 2.69 -3.5799999999999996 49.27 0.2872281323269014 0.0 0.013000000000000001 0.016852299546352718 0.01100000000000001 7.105427357601002e-15 0.0 0.0 0.0 0.0 0.0 0.0 0.03000000000000003 0.040000000000000036 0.10999999999999846
2.45 0.0 0.099 0.072 1.4819999999999998 48.07467340000001 11.649232 0.030000000000000006 530.2300000000001 0.0 0.0 -0.21000000000000002 0.9400000000000001 -0.5599999999999999 50.25 0.2872281323269014 0.0 0.023853720883753128 0.029257477676655586 0.022271057451320107 4.898979508006966e-07 0.0 0.045825756949558406 0.045825756949516724 0.0 0.0 0.20712315177207982 1.2224565431948902 1.6889049706836674 0.6830080526611666
3.45 0.0 0.174 0.047 0.05 48.074674 11.649232 0.37 530.57 0.0 0.0 -0.4 0.72 -0.54 50.660000000000004 0.2872281323269014 0.0 0.018547236990991405 0.024515301344262524 0.006324555320336757 0.0 0.0 0.1268857754044952 0.12688577540450344 0.0 0.0 0.0 0.18867962264113208 0.23748684174075835 0.1356465996625053
4.45 0.0 0.219 0.018000000000000002 0.05 48.074674 11.649232 0.97 531.17 0.0 0.0 -0.95 0.9899999999999999 -0.8299999999999998 50.56 0.2872281323269015 0.0 0.008306623862918083 0.019390719429665314 0.007745966692414833 0.0 0.0 0.2968164415931166 0.29681644159313353 0.0 0.0 0.4695742752749558 0.19723082923316018 0.1791647286716892 0.06633249580710894
5.45 0.0 0.281 0.076 0.08299999999999999 48.074674 11.649232 2.63 532.83 0.0 0.0 -1.95 1.02 -1.44 50.52 0.2872281323269015 0.0 0.016999999999999994 0.043405068828421406 0.007810249675906654 0.0 0.0 0.5496362433464518 0.5496362433464543 0.0 0.0 0.0670820393249937 0.116619037896906 0.1496662954709577 0.06000000000000085
6.45 0.0 0.34199999999999997 0.03700000000000001 0.119 48.074674900000005 11.649232 4.6 534.8 0.0 0.0 -1.9299999999999997 0.9700000000000001 -1.3 50.489999999999995 0.2872281323269015 0.0 0.0097979589711327 0.03407345007480164 0.0029999999999999983 2.9999999924257285e-07 0.0 0.5744562646538028 0.5744562646538108 0.0 0.0 0.04582575694955844 0.14866068747318503 0.16124515496597094 0.030000000000000426
7.450000000000001 0.0 0.374 0.041999999999999996 0.11500000000000002 48.074674300000005 11.6492311 6.68 536.88 0.0 0.0 -1.9599999999999997 0.9099999999999999 -1.9300000000000002 50.519999999999996 0.28722813232690153 0.0 0.01200000000000001 0.010770329614269008 0.006708203932499366 4.582575683385948e-07 2.999999997754799e-07 0.6029925372672533 0.6029925372672518 0.0 0.0 0.048989794855663606 0.3080584360149873 0.3195309061734091 0.04000000000000057
8.45 0.0 0.413 0.026000000000000002 0.11600000000000002 48.074674 11.649231 8.7 538.9 0.0 0.0 -1.92 1.15 -1.8800000000000001 50.519999999999996 0.28722813232690153 0.0 0.0134536240470737 0.026153393661244043 0.008 0.0 0.0 0.5744562646538028 0.574456264653795 0.0 0.0 0.040000000000000036 0.34423828956117014 0.23151673805580447 0.04000000000000057
9.45 0.0 0.4640000000000001 0.03300000000000001 0.12999999999999998 48.074675 11.649231 10.64 540.8399999999999 0.0 0.0 -1.52 1.9100000000000001 -2.29 50.36 0.28722813232690153 0.0 0.007999999999999985 0.029681644159311665 2.7755575615628914e-17 0.0 0.0 0.4983974317750844 0.49839743177507645 0.0 0.0 0.4853864439804639 0.3176476034853718 0.3080584360149873 0.1280624847486561
10.45 0.0 0.518 0.08299999999999999 0.11900000000000002 48.0746745 11.649231 11.440000000000001 541.64 0.0 0.0 -0.12 1.7100000000000002 -2.15 50.43 0.28722813232690153 0.0 0.02315167380558047 0.027221315177632398 0.021656407827707717 4.999999987376214e-07 0.0 0.06633249580710776 0.06633249580712308 0.0 0.0 0.132664991614216 0.13 0.2376972864800942 0.06403124237432939
11.45 0.0 0.6220000000000001 0.09100000000000001 0.05 48.0746735 11.6492311 11.5 541.7 0.0 0.0 0.0 1.5399999999999998 -2.6900000000000004 50.510000000000005 0.28722813232690153 0.0 0.031240998703626646 0.047 0.010954451150103324 5.00000002290335e-07 2.999999997754799e-07 0.0 0.0 0.0 0.0 0.0 0.11135528725660047 0.19209372712298542 0.053851648071345806
12.45 0.0 0.675 0.016999999999999998 0.06300000000000001 48.074673000000004 11.649231 11.450000000000001 541.6500000000001 0.0 0.0 0.0 1.1 -2.91 50.47 0.28722813232690153 0.0 0.008062257748298536 0.014866068747318505 0.006403124237432852 7.105427357601002e-15 0.0 0.04999999999999982 0.050000000000011376 0.0 0.0 0.0 0.1732050807568877 0.16401219466856726 0.045825756949559045
13.45 0.0 0.72 0.05900000000000001 0.049 48.07467330000001 11.6492311 11.400000000000002 541.6000000000001 0.0 0.0 0.0 1.3299999999999998 -2.62 50.38 0.28722813232690153 0.0 0.022360679774997918 0.03112876483254676 0.008306623862918075 4.5825757159471084e-07 2.999999997754799e-07 1.7763568394002505e-15 1.1368683772161603e-13 0.0 0.0 0.0 0.12688577540449517 0.06000000000000006 0.04000000000000057
14.45 0.655 0.945 0.6709999999999999 0.197 48.074674900000005 11.6492328 11.440000000000001 541.64 0.41 0.51 0.0 -11.469999999999999 -1.8699999999999999 50.51 0.28722813232690153 0.6889883888716848 0.22650607055882632 0.7219203557179975 0.1959617309578582 1.2999999984121866e-06 2.3579652245084398e-06 0.04898979485566339 0.0489897948556747 0.4158124577258358 0.5503635162326805 0.0 8.561898154031033 0.2934280150224241 0.1699999999999999
15.45 2.558 2.916 2.431 2.143 48.0746849 11.649255199999999 11.410000000000002 541.61 1.5299999999999998 2.06 0.0 -7.06 -2.34 50.08 0.28722813232690153 0.23228430855311774 0.8302433378233156 0.8314860191247956 0.82024447575098 3.961060463502446e-06 9.335952013468781e-06 0.02999999999999989 0.030000000000006816 0.12688577540449522 0.19595917942265426 0.0 2.04460265088354 0.11135528725660045 0.0871779788708147
16.45 2.9699999999999998 5.843999999999999 2.3360000000000003 5.106 48.0746991 11.649288799999999 11.49 541.6899999999999 1.7600000000000002 2.4099999999999997 0.0 -3.5799999999999996 -2.6100000000000003 50.290000000000006 0.2872281323269012 0.03000000000000003 0.8315070655141783 0.9635060975416814 0.8676082065079836 4.2059481678717e-06 9.856977224350728e-06 0.0299999999999999 0.03000000000000682 0.048989794855663606 0.03000000000000003 0.0 0.4770744176750626 0.12206555615733707 0.2736786436680796
17.45 3.072 8.918999999999999 2.641 8.126999999999999 48.0747143 11.6493225 11.5 541.7 1.8 2.4899999999999998 0.0 -2.59 -2.44 52.080000000000005 0.2872281323269012 0.024000000000000018 0.8632548870409017 0.8809591363962349 0.8653444400930765 4.517742798881065e-06 9.769851585204847e-06 0.0 0.0 0.0 0.03000000000000003 0.0 0.13747727084867525 0.1356465996625055 0.5418486873657631
18.45 3.0799999999999996 11.905999999999999 2.6369999999999996 11.150000000000002 48.0747293 11.649356399999999 11.5 541.7 1.8 2.5 0.0 -2.2800000000000002 -2.46 53.1 0.2872281323269012 4.440892098500626e-16 0.8366743691544517 0.8796141199412387 0.8697010980791046 4.100000000133333e-06 9.891410415278376e-06 0.0 0.0 0.0 0.0 0.0 0.29597297173897485 0.06633249580710805 0.0
19.45 3.02 14.919 2.612 14.163999999999998 48.0747435 11.6493908 11.5 541.7 1.7 2.5 0.0 -1.7400000000000002 -2.63 53.07000000000001 0.2872281323269012 0.0 0.8275560403984733 0.8711808078694113 0.8620464024633476 4.031128874459358e-06 9.856977224635465e-06 0.0 0.0 0.0 0.0 0.0 0.07999999999999999 0.07810249675906651 0.045825756949559045
20.45 2.95 17.895000000000003 2.809 17.116999999999997 48.0747573 11.649424699999999 11.5 541.7 1.65 2.4499999999999997 0.0 -1.78 -2.8699999999999997 53.07000000000001 0.2872281323269012 0.07000000000000006 0.8312550751724771 0.04459820624195545 0.8329951980653904 3.822302970516301e-06 9.560857702316041e-06 0.0 0.0 0.04999999999999993 0.050000000000000044 0.0 0.08717797887081344 0.10999999999999995 0.045825756949559045
21.45 2.886 20.750000000000004 2.763 19.977 48.0747707 11.6494575 11.5 541.7 1.61 2.3999999999999995 0.0 -1.9100000000000001 -2.87 53.17 0.2872281323269012 0.018000000000000016 0.8171291207636651 0.042201895692018355 0.819390627234654 3.822302970609247e-06 9.351470472596522e-06 0.0 0.0 0.02999999999999996 4.440892098500626e-16 0.0 0.20712315177207982 0.15524174696260024 0.045825756949559045
22.45 2.8120000000000003 23.523 2.283 22.783 48.074784 11.649489500000001 11.5 541.7 1.6199999999999999 2.3 0.0 -1.83 -2.6399999999999997 53.18000000000001 0.2872281323269012 0.02400000000000002 0.7786404818656687 0.8605933999282123 0.7918844612694454 3.872983346519448e-06 8.935882720738103e-06 0.0 0.0 0.03999999999999995 0.0 0.0 0.19000000000000003 0.10198039027185579 0.04000000000000057
23.45 2.564 26.191000000000003 1.8999999999999997 25.478 48.074796799999994 11.649520200000001 11.5 541.7 1.48 2.05 0.0 4.43 -2.04 53.06 0.2872281323269012 0.29472699231661836 0.7016615993482896 1.0337020847420206 0.738874820250359 3.600000000345302e-06 8.195120499628254e-06 0.0 0.0 0.20396078054371145 0.25000000000000006 0.0 7.171896541361985 0.7323933369440222 0.1562049935181353
24.45 0.658 27.71 0.329 26.933 48.07480339999999 11.649537 11.5 541.7 0.35000000000000003 0.53 0.0 9.639999999999999 -2.2399999999999998 53.15 0.2872281323269012 0.554919814027216 0.15066519173319387 0.2704976894540876 0.09560857702110245 4.898979473197623e-07 1.4142135624451637e-06 0.0 0.0 0.28017851452243797 0.43139309220245986 0.0 3.7216125537191536 0.4586937976471886 0.2418677324489567
25.45 0.0 27.951 0.177 26.859 48.0748028 11.649536399999999 11.5 541.7 0.0 0.0 0.0 1.8200000000000003 -1.7999999999999996 53.620000000000005 0.2872281323269012 0.0 0.0496890329952194 0.02531797780234432 0.048052055106936206 4.00000001832268e-07 4.898979490602293e-07 0.0 0.0 0.0 0.0 0.0 0.9249864863877741 0.14832396974191323 0.06000000000000085
26.45 0.0 28.107999999999997 0.12700000000000003 26.755000000000003 48.074801599999994 11.649536 11.739999999999998 541.94 0.0 0.0 -0.78 0.66 -2.3899999999999997 53.519999999999996 0.2872281323269012 0.0 0.04377213725647823 0.049608467019249855 0.012041594578792997 4.898979473197623e-07 0.0 0.26907248094147435 0.26907248094145597 0.0 0.0 0.6352952069707436 0.3261901286060018 0.6171709649683789 0.12489995996796974
27.45 0.01 28.213 0.063 26.747999999999998 48.074800999999994 11.649536 13.3 543.5 0.01 0.0 -1.9300000000000002 1.1099999999999999 -3.3200000000000003 53.269999999999996 0.2872281323269012 0.030000000000000002 0.021470910553583803 0.04360045871318328 0.010770329614269967 7.105427357601002e-15 0.0 0.5744562646538027 0.5744562646538028 0.030000000000000002 0.0 0.07810249675906654 0.48259714048054614 0.25999999999999995 0.04582575694955579
28.45 0.030000000000000006 28.355 0.14 26.827000000000005 48.0748023 11.649536399999999 15.360000000000003 545.5600000000001 0.030000000000000006 0.0 -1.9599999999999997 2.09 -2.07 53.23 0.2872281323269012 0.045825756949558406 0.04248529157249537 0.05865151319446072 0.030347981810987072 4.5825757159471073e-07 4.898979490602294e-07 0.6167657578043713 0.6167657578043667 0.045825756949558406 0.0 0.048989794855663606 0.25079872407968906 0.1846618531261939 0.04582575694955579
29.449999999999996 0.0 28.43 0.032 26.871 48.074802999999996 11.649536999999999 17.4 547.6 0.0 0.0 -1.9899999999999998 1.3800000000000001 -2.1799999999999997 53.220000000000006 0.2872281323269012 0.0 0.012649110640672966 0.024000000000000004 0.0053851648071341586 7.105427357601002e-15 1.7763568394002505e-15 0.5744562646538031 0.574456264653795 0.0 0.0 0.03000000000000003 0.38678159211627433 0.22271057451320087 0.039999999999997725
30.449999999999996 0.0 28.492999999999995 0.06000000000000001 26.895999999999997 48.074802899999995 11.649536999999999 19.479999999999997 549.6800000000001 0.0 0.0 -1.9599999999999997 2.36 -3.0300000000000002 53.17 0.2872281323269012 0.0 0.019000000000000315 0.025298221281347035 0.004898979485565382 3.000000013742011e-07 1.7763568394002505e-15 0.6029925372672533 0.6029925372672499 0.0 0.0 0.048989794855663606 0.19078784028338913 0.22383029285599387 0.045825756949559045
31.449999999999996 0.0 28.543 0.048 26.901 48.07480199999999 11.649537600000002 21.5 551.7 0.0 0.0 -1.9600000000000002 2.3899999999999997 -3.1700000000000004 53.160000000000004 0.2872281323269012 0.0 0.014866068747318295 0.02227105745132009 0.003000000000000469 7.105427357601002e-15 4.898979481899958e-07 0.5744562646538024 0.5744562646538107 0.0 0.0 0.048989794855663606 0.11357816691600557 0.1268857754044952 0.04898979485566426
32.46666666666666 0.0 28.581111111111113 0.024444444444444446 26.906666666666666 48.074802 11.649538 23.53333333333334 553.7333333333333 0.0 0.0 -1.9333333333333331 2.6444444444444444 -3.266666666666667 53.111111111111114 0.29814239699997125 0.0 0.011967032904743748 0.017069212773041353 0.004714045207911053 0.0 0.0 0.5962847939999434 0.5962847939999509 0.0 0.0 0.047140452079103216 0.31308895119123037 0.10540925533894588 0.03142696805273589
33.45 0.0 28.625999999999998 0.034 26.883999999999997 48.07480199999999 11.649537400000003 25.110000000000003 555.3100000000001 0.0 0.0 -0.8699999999999998 2.44 -3.56 53.0 0.2872281323269009 0.0 0.011135528725660189 0.014966629547095765 0.004898979485567122 7.105427357601002e-15 4.898979481899958e-07 0.246779253585061 0.24677925358506997 0.0 0.0 0.6435060217278469 0.19078784028338905 0.4521061822182927 0.10000000000000142
34.45 0.0 28.738 0.178 26.905 48.07480149999999 11.6495384 25.4 555.6000000000001 0.0 0.0 0.0 2.7500000000000004 -3.0700000000000003 53.21 0.2872281323269009 0.0 0.06257795138864769 0.07138627319029898 0.009219544457293173 4.999999987376214e-07 4.898979490602293e-07 0.0 1.1368683772161603e-13 0.0 0.0 0.0 0.20124611797498107 0.1552417469626003 0.029999999999998295
35.45 0.707 29.060000000000002 0.7040000000000001 26.903 48.0748018 11.649537900000002 25.35 555.55 0.5900000000000001 -0.39 0.0 2.54 -15.84 52.81 0.2872281323269009 0.6478587809083087 0.23004347415216944 0.6470888656127534 0.008999999999999867 1.8867962260913438e-06 1.6401219472235988e-06 0.04999999999999894 0.05000000000001137 0.5356304696336832 0.3672873534441391 0.0 0.08000000000000007 6.255589500598645 0.26248809496813436
36.45 2.1239999999999997 30.925 2.337 27.04 48.0748162 11.649525399999998 25.300000000000004 555.5 1.7900000000000003 -1.1400000000000001 0.0 2.54 -2.89 52.67 0.2872281323269009 0.2996731552875566 0.7171087783593224 0.2703719660023946 0.11296016997154332 5.895761189059453e-06 4.543126676477611e-06 3.552713678800501e-15 0.0 0.23853720883753124 0.19078784028338916 0.0 0.6248199740725323 12.053750453696974 0.257099202643648
37.45 0.858 32.411 0.8230000000000001 27.410999999999994 48.07482649999999 11.649520599999999 25.23 555.43 -0.059999999999999984 0.27999999999999997 -0.01 0.76 14.370000000000001 53.42 0.2872281323269009 0.50167320040042 0.26181863951980255 0.5526852630566514 0.06007495318350277 1.2041594571993137e-06 2.0099751244167514e-06 0.04582575694955905 0.04582575694956882 0.7186097689288672 0.5455272678794342 0.030000000000000002 0.8845337754998392 3.1727117738615966 0.06000000000000085
38.45 2.2790000000000004 34.25 2.3919999999999995 27.442 48.0748138 11.6495347 25.300000000000004 555.5 -1.7600000000000002 1.45 -0.02 0.6900000000000001 4.3100000000000005 52.94 0.2872281323269009 0.190181492264626 0.7207357352039664 0.13227244611029157 0.02315167380557999 5.4735728736658515e-06 5.177837386106394e-06 3.552713678800501e-15 0.0 0.17435595774162693 0.09219544457292889 0.04 0.17578395831246946 2.727068022620631 0.24166091947189036
39.45 1.505 36.397999999999996 1.459 27.492999999999995 48.0747978 11.649550999999999 25.330000000000002 555.5300000000001 -1.1300000000000001 0.99 0.0 2.2800000000000002 -12.399999999999999 52.739999999999995 0.2872281323269009 0.5970636481984144 0.4057782645731531 0.6262180131551631 0.05657738063926217 2.856571371567686e-06 3.286335344949826e-06 0.04582575694955742 0.045825756949568815 0.5080354318352215 0.33 0.0 0.9987992791347018 2.0861447696648474 0.091651513899115
40.45 0.254 37.102999999999994 0.346 27.766 48.0747942 11.649557999999999 25.320000000000004 555.52 -0.09 0.22999999999999998 0.0 4.39 -5.0600000000000005 65.25 0.2872281323269009 0.11663618649458667 0.10315522284402316 0.0732393336944022 0.09068627239003707 4.00000001832268e-07 1.4142135620683414e-06 0.03999999999999915 0.0400000000000091 0.09433981132056604 0.09 0.0 0.5262128846769148 2.0524132137559437 9.993923153596889
41.45 0.02 37.333000000000006 0.1 27.979000000000003 48.074795 11.6495608 25.300000000000004 555.5 0.0 0.02 -0.02 4.8500000000000005 0.05000000000000001 104.05 0.2872281323269009 0.04 0.024515301344263097 0.09591663046625439 0.021656407827707606 0.0 4.0000000041118254e-07 3.552713678800501e-15 0.0 0.0 0.04 0.04 0.6360031446463139 0.7774959806970065 11.139950628256841
42.45 0.0 37.400999999999996 0.038 27.965000000000003 48.074795 11.6495602 25.39 555.5900000000001 0.0 0.0 -2.7755575615628915e-18 2.27 1.8400000000000003 141.63 0.2872281323269009 0.0 0.021189620100416834 0.04093897898091744 0.008062257748298267 0.0 4.0000000041118254e-07 0.02999999999999936 0.030000000000006823 0.0 0.0 0.07745966692414834 0.819817052762383 0.2973213749463701 10.449980861226491
43.45 0.038 37.638999999999996 0.361 28.023000000000003 48.074793799999995 11.6495626 25.310000000000002 555.51 -0.02 0.030000000000000006 0.02 0.31999999999999995 3.08 -1.3200000000000045 0.2872281323269009 0.05895761189193471 0.12660568707605563 0.13545848072379962 0.04605431575867784 7.483314777442393e-07 1.3564659967098938e-06 0.02999999999999936 0.030000000000006816 0.04 0.045825756949558406 0.04 0.5249761899362675 0.5153639490690051 170.42686290605715
44.45 0.12400000000000003 38.054 0.454 28.2 48.074791600000005 11.649567000000001 25.300000000000004 555.5 -0.1 0.06000000000000001 0.0 -2.16 3.3200000000000003 -140.74 0.2872281323269009 0.019595917942265426 0.12563439019631664 0.1291665591397402 0.056035702904487415 8.000000010000008e-07 1.5491933383555197e-06 3.552713678800501e-15 0.0 0.0 0.048989794855663564 0.0 0.863944442658207 0.501597448159378 11.758078074243256
45.45 0.19 38.6 0.35700000000000004 28.385 48.0747885 11.6495722 25.300000000000004 555.5 -0.19 0.0 0.0 -3.38 3.0900000000000003 -124.81999999999998 0.2872281323269009 0.03 0.11506519890913923 0.19723336431750083 0.024596747752497268 6.708203947339219e-07 9.797958971051862e-07 3.552713678800501e-15 0.0 0.03 0.0 0.0 0.31559467676119 0.383275357934736 0.5268775948927806
46.45 0.16000000000000003 38.935 0.198 28.185000000000002 48.07478640000001 11.6495705 25.380000000000003 555.5800000000002 -0.15000000000000002 0.0 0.0 -3.34 2.9899999999999998 -109.65 0.2872281323269009 0.048989794855663564 0.10641898326896314 0.1543891187875622 0.07553145040312631 9.165151388479337e-07 6.708203927478947e-07 0.03999999999999915 0.0400000000000091 0.05 0.0 0.0 0.42473521163190603 0.41097445176069036 5.869114072839272
47.45 0.13200000000000003 39.379000000000005 0.39599999999999996 27.947999999999997 48.074782600000006 11.64957 25.4 555.6000000000001 -0.1 -0.08 0.0 -3.46 2.48 -103.27000000000001 0.2872281323269009 0.016000000000000004 0.14017489076150616 0.14793241700181878 0.06867313885355791 1.3564659959241653e-06 0.0 0.0 1.1368683772161603e-13 0.0 0.04 0.0 0.36660605559646714 0.12489995996796807 1.462224332994086
48.45 0.12800000000000003 39.74 0.198 27.738999999999997 48.07477949999999 11.649569 25.4 555.6000000000001 -0.07 -0.1 0.0 -2.9899999999999998 2.5500000000000007 -100.44000000000001 0.2872281323269009 0.018330302779823362 0.05157518783290962 0.08669486720677297 0.044598206241955596 4.999999987376214e-07 4.4721359556246853e-07 0.0 1.1368683772161603e-13 0.045825756949558406 0.0 0.0 0.14456832294800973 0.10246950765959607 0.048989794855660775
49.45 0.05 39.888 0.11499999999999999 27.643 48.0747784 11.649568 25.4 555.6000000000001 0.0 -0.05 0.0 -3.8599999999999994 2.71 -100.52000000000001 0.2872281323269009 0.05000000000000001 0.04621688003316488 0.058008620049092706 0.021931712199461318 4.898979473197622e-07 0.0 0.0 1.1368683772161603e-13 0.0 0.05000000000000001 0.0 2.510856427595971 0.3014962686336267 0.07483314773547799
50.45 1.563 40.596000000000004 1.562 26.982 48.0747759 11.649560300000001 25.4 555.6000000000001 -0.25999999999999995 -1.5400000000000003 0.0 -18.270000000000003 1.95 -100.88 0.2872281323269009 0.7450912695770903 0.5337639927908203 0.8435496428782363 0.527404967743005 1.2999999999425865e-06 6.9000000000853005e-06 0.0 1.1368683772161603e-13 0.14966629547095767 0.7323933369440222 0.0 4.477287125034534 0.23769728648009428 0.060000000000002274
51.45 2.8630000000000004 43.157 2.838 24.448 48.074769700000004 11.649527 25.37 555.57 -0.6 -2.8 -0.030000000000000006 -8.84 2.1999999999999997 -100.84 0.2872281323269009 0.12783192089615178 0.8560613295786704 0.08818163074019442 0.8461418320825411 2.193171220791304e-06 1.093617849185554e-05 0.04582575694955742 0.04582575694956882 0.07745966692414831 0.11832159566199224 0.045825756949558406 1.3865064009949613 0.1483239697419132 0.45650848842053227
52.45 3.0799999999999996 46.14000000000001 2.2250000000000005 21.432000000000006 48.0747613 11.649488 25.300000000000004 555.5 -0.7 -3.0 0.0 -6.57 2.4899999999999998 -102.21000000000001 0.2872281323269009 4.440892098500626e-16 0.8620208814176139 1.193685469460025 0.8777106584746477 2.3685438554652606e-06 1.1489125293012174e-05 3.552713678800501e-15 0.0 0.0 0.0 0.0 0.30016662039607267 0.11357816691600559 0.05385164807134488
53.45 3.088 49.321999999999996 3.0729999999999995 18.359 48.074753 11.649448 25.279999999999998 555.4799999999999 -0.74 -3.0 0.0 -5.699999999999999 2.1900000000000004 -106.66 0.2872281323269009 0.00979795897113272 0.9062648619471024 0.049809637621649076 0.8879915540138879 2.449489743270602e-06 1.1489125293012174e-05 0.04000000000000057 0.0400000000000091 0.048989794855663606 0.0 0.0 0.2000000000000001 0.30805843601498717 4.147095369050488
54.45 3.072 52.54299999999999 3.123 15.191999999999998 48.07474330000001 11.649407 25.199999999999996 555.3999999999999 -1.0500000000000003 -2.88 0.0 -5.17 0.37000000000000005 -127.92 0.2872281323269009 0.051341990611973747 0.9311718423577905 0.07389857914736932 0.9247140098430433 3.1638584029976045e-06 1.1489125293290476e-05 3.552713678800501e-15 1.1368683772161603e-13 0.16881943016134132 0.11661903789690597 0.0 0.10049875621120895 0.6229767250869008 7.273211120268683
55.45 2.8979999999999997 55.653 2.911 12.094999999999999 48.0747294 11.6493712 25.25 555.45 -1.75 -2.29 -0.01 -4.85 -0.7100000000000001 -151.89 0.2872281323269009 0.0587877538267963 0.8563066039684625 0.05769748694700657 0.8466197493562266 5.063595560285588e-06 8.930845424594293e-06 0.05000000000000071 0.05000000000001137 0.21563858652847825 0.23 0.03 0.20124611797498107 0.2981610303175115 5.1599321700968135
56.45 2.7800000000000002 58.561 2.538 9.388 48.0747095 11.6493456 25.300000000000004 555.5 -2.32 -1.52 0.0 -3.97 0.8 -156.64 0.2872281323269009 0.027568097504180437 0.8558323433944289 0.8463781660699903 0.6967754301064296 6.328506932771742e-06 5.765414122207768e-06 3.552713678800501e-15 0.0 0.11661903789690593 0.16613247725836147 0.0 0.1951922129594313 0.6782329983125268 0.06633249580710422
57.45 2.757 61.49499999999999 2.8099999999999996 7.333000000000001 48.0746862 11.6493281 25.300000000000004 555.5 -2.4799999999999995 -1.2099999999999997 0.0 -3.9699999999999998 3.04 -148.20999999999998 0.2872281323269009 0.04124318125460248 0.8256542860059519 0.04000000000000007 0.481851636917423 6.690291473891153e-06 4.657252408836716e-06 3.552713678800501e-15 0.0 0.040000000000000036 0.03000000000000003 0.0 0.2451530134426252 0.6621178142898739 4.266251281863267
58.45 2.73 64.37100000000001 2.809 6.0649999999999995 48.074663 11.649311 25.300000000000004 555.5 -2.3999999999999995 -1.3000000000000003 0.0 -4.380000000000001 3.7199999999999998 -144.3 0.2872281323269009 0.0 0.834367425059249 0.04182104733265297 0.22159648011644964 6.693280211721971e-06 5.019960159269187e-06 3.552713678800501e-15 0.0 4.440892098500626e-16 2.220446049250313e-16 0.0 0.19390719429665315 0.1536229149573721 0.0
59.41111111111112 2.5799999999999996 67.12555555555555 2.5877777777777777 5.975555555555555 48.07464066666667 11.649294777777778 25.4 555.6 -2.2333333333333334 -1.288888888888889 0.0 2.4555555555555557 3.477777777777778 -144.11111111111111 0.27666443551086056 0.3503648891592243 0.7608929127619463 0.4287391793977048 0.16255673273668092 6.073622386446875e-06 4.6613726587527324e-06 0.0 0.0 0.29059326290271154 0.19688939051854829 0.0 8.051378227236917 0.4961580791503578 0.23306863292670546
60.48888888888889 0.6799999999999999 68.95333333333335 0.4744444444444445 6.62 48.074626111111115 11.649286111111111 25.4 555.6 -0.47777777777777775 -0.09999999999999999 0.0 6.277777777777778 5.188888888888889 -144.01111111111112 0.27666443551086034 0.4859583887078764 0.24653149449467132 0.5470549659791685 0.1116542281629616 1.286204101563985e-06 3.1426968029215487e-07 0.0 0.0 0.35832256659104667 0.18856180831641267 0.0 4.2189460974086295 0.7504731018119235 0.23306863292670335
61.45 0.05 69.33599999999998 0.221 6.864999999999999 48.07462389999999 11.649286899999998 25.4 555.6000000000001 -0.02 0.030000000000000006 0.0 0.9800000000000001 5.069999999999999 -145.01 0.2872281323269009 0.05000000000000001 0.06726068688320042 0.023 0.06184658438426507 6.9999999823267e-07 2.999999997754799e-07 0.0 1.1368683772161603e-13 0.04 0.045825756949558406 0.0 0.132664991614216 0.04582575694955824 1.379456414679348
62.45 0.07 69.58200000000002 0.184 7.110000000000001 48.0746223 11.649288900000002 25.35 555.55 0.0 0.07 0.01 1.9200000000000004 5.45 -163.2 0.2872281323269009 0.045825756949558406 0.07972452571197922 0.10316976301223146 0.07389181280764466 4.5825757159471073e-07 8.306623863758386e-07 0.04999999999999894 0.05000000000001137 0.0 0.045825756949558406 0.03 0.9228217596047463 0.21095023109728997 8.791928116175653
63.45 0.01 69.803 0.10700000000000001 7.283999999999999 48.0746213 11.6492914 25.310000000000002 555.51 0.030000000000000006 0.0 -0.04 5.05 3.13 157.81 0.2872281323269009 0.030000000000000002 0.042201895692016406 0.08185963596303125 0.020099751242241715 4.5825756833859485e-07 6.633249583780349e-07 0.02999999999999936 0.03000000000000682 0.045825756949558406 0.0 0.048989794855663564 0.5352569476429053 1.2402015965156632 12.695703997809655
64.45 0.11000000000000001 69.988 0.178 7.244 48.0746226 11.6492929 25.35 555.55 0.11000000000000001 0.0 0.0 5.330000000000001 -0.57 114.06000000000002 0.2872281323269024 0.030000000000000002 0.05878775382679589 0.060630025564896474 0.0415210789840533 4.898979508006965e-07 2.999999997754799e-07 0.04999999999999894 0.05000000000001137 0.030000000000000002 0.0 0.0447213595499958 0.17916472867168917 0.9132907532653552 11.771423023577054
65.45 0.2 70.211 0.258 7.042 48.0746245 11.649291700000001 25.4 555.6000000000001 0.2 0.0 -0.02 4.2299999999999995 -2.5000000000000004 79.65 0.2872281323269024 0.0 0.07700000000000076 0.04261455150532504 0.07359347797189641 6.708203931451001e-07 4.582575699666528e-07 0.0 1.1368683772161603e-13 0.0 0.0 0.04 0.46701177715342473 0.20976176963403032 5.70039472317488
66.45 0.13000000000000003 70.47399999999998 0.213 6.802 48.0746267 11.6492909 25.54 555.74 0.13000000000000003 0.0 -0.82 3.8899999999999997 -2.3600000000000003 75.79 0.2872281323269024 0.045825756949558406 0.057654141221596976 0.05950630218724736 0.050950956811428 4.582575683385948e-07 2.999999997754799e-07 0.2690724809414741 0.2690724809414636 0.045825756949558406 0.0 0.6794115100585211 0.4276680956068619 0.7017121917139534 0.09433981132056729
67.45 0.1 70.71700000000001 0.295 6.572999999999999 48.074628700000005 11.649289499999998 27.2 557.4 0.1 0.0 -1.94 3.750000000000001 -2.8400000000000003 75.39 0.2872281323269024 0.0 0.089224436114777 0.047801673610868484 0.08567963585356803 7.810249688029155e-07 5.000000005139782e-07 0.5744562646538028 0.574456264653795 0.0 0.0 0.06633249580710801 0.14317821063276337 0.3200000000000001 0.3477067730142714
68.45 0.08 71.029 0.265 6.29 48.0746312 11.649288100000001 29.050000000000004 559.25 0.08 0.0 -1.67 3.54 -1.8700000000000003 67.13 0.2872281323269024 0.04 0.07841555968046034 0.053525694764290546 0.06228964600958983 7.483314785038415e-07 2.999999997754799e-07 0.4759201613716318 0.4759201613716289 0.04 0.0 0.10999999999999996 0.09165151389911688 0.13453624047073715 4.04748069791568
69.45 0.0 71.202 0.10300000000000001 6.151999999999999 48.0746329 11.649288 30.669999999999998 560.87 0.0 0.0 -1.6700000000000004 3.1700000000000004 -2.7600000000000002 54.63000000000001 0.2872281323269024 0.0 0.02785677655436637 0.03034798181098704 0.024819347291981708 2.999999992425728e-07 0.0 0.5040833264451428 0.5040833264451501 0.0 0.0 0.08999999999999998 0.29000000000000004 0.3292415526630866 2.5219238687954078
70.45 0.0 71.273 0.046 6.086 48.074633 11.649287 32.54 562.74 0.0 0.0 -1.8699999999999999 2.8099999999999996 -3.29 55.11999999999999 0.2872281323269024 0.0 0.015524174696262565 0.022000000000000002 0.013564659966250406 0.0 0.0 0.5332916650389357 0.5332916650389435 0.0 0.0 0.04582575694955834 0.12206555615733694 0.0699999999999999 1.8605375567292364
71.45 0.0 71.33000000000001 0.05600000000000001 6.034 48.0746334 11.649287 34.5 564.7 0.0 0.0 -1.94 2.82 -3.1799999999999997 57.40999999999999 0.2872281323269024 0.0 0.01732050807568943 0.022 0.016248076809271914 4.898979508006965e-07 0.0 0.5744562646538028 0.5744562646538107 0.0 0.0 0.048989794855663606 0.14696938456699063 0.09797958971132713 0.030000000000000422
72.45 0.0 71.36800000000001 0.02 6.005000000000001 48.074634 11.649287 36.5 566.7 0.0 0.0 -1.94 2.9899999999999998 -3.44 57.4 0.2872281323269024 0.0 0.007483314773547154 0.014832396974191326 0.006708203932499226 0.0 0.0 0.5744562646538028 0.5744562646538107 0.0 0.0 0.048989794855663606 0.11357816691600557 0.128062484748657 0.0
73.45 0.0 71.415 0.052000000000000005 5.965999999999999 48.074634 11.6492864 38.6 568.8 0.0 0.0 -1.94 3.0000000000000004 -3.2700000000000005 57.4 0.2872281323269024 0.0 0.018027756377321284 0.029597297173897485 0.01743559577416264 0.0 4.898979481899958e-07 0.5744562646538024 0.5744562646538108 0.0 0.0 0.048989794855663606 0.2049390153191919 0.10049875621120884 0.0
74.45 0.0 71.483 0.05600000000000001 5.907000000000001 48.074634700000004 11.649286 40.6 570.8 0.0 0.0 -1.9300000000000002 3.2700000000000005 -2.9899999999999998 57.40999999999999 0.2872281323269024 0.0 0.016155494421405795 0.032619012860600184 0.011874342087037918 4.582575683385948e-07 0.0 0.5744562646538024 0.5744562646538108 0.0 0.0 0.0640312423743285 0.16763054614240205 0.18138357147217063 0.030000000000000422
75.45 0.0 71.523 0.019 5.877 48.074635 11.649286 42.470000000000006 572.67 0.0 0.0 -1.75 2.94 -3.04 57.379999999999995 0.2872281323269024 0.0 0.006403124237433239 0.018681541692269408 0.006403124237432712 0.0 0.0 0.5386093203798088 0.5386093203798089 0.0 0.0 0.05000000000000005 0.11135528725660054 0.12806248474865708 0.04000000000000057
76.45 0.0 71.56400000000001 0.045000000000000005 5.848000000000001 48.074635 11.649285200000003 44.209999999999994 574.4100000000001 0.0 0.0 -1.6 3.16 -2.78 57.39 0.2872281323269024 0.0 0.012806248474863372 0.021095023109728987 0.007483314773548008 0.0 3.9999999970063985e-07 0.46572524088780026 0.46572524088780115 0.0 0.0 0.0 0.09165151389911681 0.21354156504062624 0.030000000000000426
77.45 0.0 71.599 0.029000000000000005 5.843 48.074635 11.649285000000003 45.81 576.01 0.0 0.0 -1.51 3.34 -2.8899999999999997 57.36999999999999 0.2872281323269024 0.0 0.009433981132055857 0.018138357147217055 0.0045825756949557424 0.0 1.7763568394002505e-15 0.44821869662029956 0.44821869662031766 0.0 0.0 0.030000000000000023 0.07999999999999999 0.14456832294800964 0.04582575694955905
78.45 0.0 71.62899999999999 0.035 5.857 48.0746348 11.649285000000003 47.35 577.55 0.0 0.0 -1.4 3.7700000000000005 -3.11 57.25 0.2872281323269024 0.0 0.015132745950420377 0.0352845575287547 0.012688577540449593 3.999999989900971e-07 1.7763568394002505e-15 0.42720018726587655 0.42720018726588455 0.0 0.0 0.1095445115010332 0.3257299494980466 0.4482186966202994 0.12041594578792231
79.45 0.0 71.699 0.044 5.9270000000000005 48.074634 11.649285600000002 48.21 578.4100000000001 0.0 0.0 -0.19 3.84 -3.08 57.25999999999999 0.2872281323269024 0.0 0.02662705391139004 0.0463033476111609 0.02609597670139973 0.0 4.898979481899958e-07 0.05385164807134343 0.05385164807135729 0.0 0.0 0.2586503431275513 0.4800000000000001 0.5192301994298869 0.15620499351813238
80.45 0.0 71.83 0.07 6.039999999999999 48.074633000000006 11.649286 48.45 578.65 0.0 0.0 -0.24000000000000005 3.97 -3.3599999999999994 57.339999999999996 0.2872281323269024 0.0 0.03714835124201406 0.0661815684310972 0.0346410161513775 4.47213595959674e-07 0.0 0.12041594578792467 0.12041594578790783 0.0 0.0 0.16248076809271922 0.525452186216786 0.728285658241325 0.1743559577416269
81.45 0.0 71.929 0.036 6.115 48.074632 11.649286 48.60000000000001 578.8 0.0 0.0 0.0 3.5100000000000002 -3.7300000000000004 57.36999999999999 0.2872281323269024 0.0 0.022113344387492385 0.039293765408777 0.01627882059609966 0.0 0.0 7.105427357601002e-15 0.0 0.0 0.0 0.0 0.24269322199023197 0.16155494421403496 0.04582575694955905
82.45 0.0 71.976 0.004 6.147 48.074632 11.649286 48.660000000000004 578.8599999999999 0.0 0.0 0.0 3.9799999999999995 -3.85 57.33 0.2872281323269024 0.0 0.004898979485568862 0.008 0.004582575694956149 0.0 0.0 0.04898979485566426 0.0489897948556747 0.0 0.0 0.0 0.10770329614269013 0.1746424919657298 0.04582575694955905
83.48888888888888 0.0 72.01444444444445 0.006666666666666666 6.115555555555556 48.074632 11.649286 48.7 578.9 0.0 0.0 0.0 3.855555555555556 -3.1 57.400000000000006 0.27666443551086095 0.0 0.01832491389163672 0.010540925533894597 0.014229164972073017 0.0 0.0 0.0 0.0 0.0 0.0 0.0 0.1257078722109417 0.21602468994692872 7.105427357601002e-15
84.45 0.0 72.07000000000001 0.0 6.090000000000001 48.074632 11.649286 48.7 578.8999999999999 0.0 0.0 0.0 3.7800000000000002 -3.01 57.35999999999999 0.2872281323269024 0.0 0.019999999999998862 0.0 8.881784197001252e-16 0.0 0.0 0.0 1.1368683772161603e-13 0.0 0.0 0.0 0.10770329614269 0.14456832294800973 0.04898979485566426
85.45 0.0 72.093 0.004 6.090000000000001 48.074632 11.649286 48.7 578.8999999999999 0.0 0.0 0.0 3.7700000000000005 -3.1599999999999997 57.34999999999999 0.2872281323269024 0.0 0.012688577540447724 0.012 8.881784197001252e-16 0.0 0.0 0.0 1.1368683772161603e-13 0.0 0.0 0.0 0.08999999999999989 0.17435595774162693 0.05000000000000071
86.45 0.0 72.156 0.022 6.11 48.074631800000006 11.649285200000003 48.7 578.8999999999999 0.0 0.0 0.0 3.5 -3.3800000000000003 57.35999999999999 0.2872281323269024 0.0 0.031999999999999314 0.034 0.011832159566199355 4.000000018322681e-07 3.9999999970063985e-07 0.0 1.1368683772161603e-13 0.0 0.0 0.0 0.1732050807568879 0.19390719429665312 0.04898979485566426
87.45 0.0 72.232 0.01 6.14 48.0746311 11.649285200000001 48.7 578.8999999999999 0.0 0.0 0.0 3.6400000000000006 -3.79 57.339999999999996 0.2872281323269024 0.0 0.02400000000000091 0.030000000000000002 0.004472135954999683 3.00000001374201e-07 3.999999997006398e-07 0.0 1.1368683772161603e-13 0.0 0.0 0.0 0.09165151389911688 0.1135781669160054 0.04898979485566426
88.45 0.0 72.32199999999999 0.011 6.101999999999999 48.0746324 11.649286100000001 48.7 578.8999999999999 0.0 0.0 0.0 3.6300000000000003 -3.2600000000000002 57.33 0.2872281323269024 0.0 0.06415605972938201 0.033 0.01886796226411319 4.898979473197622e-07 2.999999997754799e-07 0.0 1.1368683772161603e-13 0.0 0.0 0.0 0.09 0.3292415526630866 0.04582575694955905
89.45 0.0 72.482 0.051000000000000004 6.111 48.0746326 11.649287 48.690000000000005 578.89 0.0 0.0 0.0 3.95 -3.1 57.33999999999999 0.2872281323269024 0.0 0.037094473981982866 0.05337602458033007 0.023000000000000024 4.898979473197622e-07 0.0 0.030000000000000426 0.03000000000000682 0.0 0.0 0.0 0.20124611797498093 0.1264911064067352 0.04898979485566426
90.45 0.0 72.602 0.051000000000000004 6.211 48.0746316 11.649287 48.620000000000005 578.8199999999999 0.0 0.0 0.0 3.6 -2.99 57.379999999999995 0.2872281323269024 0.0 0.03218695387886521 0.05281098370604358 0.031128764832546695 4.898979508006965e-07 0.0 0.04000000000000057 0.0400000000000091 0.0 0.0 0.0 0.37416573867739417 0.2981610303175115 0.04000000000000057
91.45 0.0 72.70599999999999 0.038000000000000006 6.309 48.0746307 11.6492879 48.68 578.8799999999999 0.0 0.0 0.0 3.31 -3.3 57.31999999999999 0.2872281323269024 0.0 0.03168595903550799 0.03944616584663204 0.02211334438749605 4.5825756833859485e-07 3.000000003083869e-07 0.04000000000000057 0.0400000000000091 0.0 0.0 0.0 0.13747727084867514 0.09999999999999991 0.04000000000000057
92.45 0.0 72.775 0.043000000000000003 6.357 48.07463 11.649288 48.63 578.8299999999999 0.0 0.0 0.0 3.7599999999999993 -3.3899999999999997 57.33999999999999 0.2872281323269024 0.0 0.011180339887500855 0.015524174696260025 0.004582575694956149 0.0 0.0 0.04582575694955905 0.04582575694956882 0.0 0.0 0.0 0.14966629547095764 0.11357816691600543 0.04898979485566426
93.45 0.0 72.822 0.038 6.336 48.07463 11.649287 48.64 578.8399999999999 0.0 0.0 0.0 3.8299999999999996 -3.21 57.29999999999999 0.2872281323269024 0.0 0.01599999999999966 0.022715633383201095 0.01562049935181326 0.0 0.0 0.04898979485566426 0.0489897948556747 0.0 0.0 0.0 0.08999999999999996 0.11357816691600543 7.105427357601002e-15
94.45 0.0 72.876 0.041999999999999996 6.302999999999999 48.0746309 11.649287 48.63000000000001 578.83 0.0 0.0 0.0 3.75 -3.12 57.39 0.2872281323269024 0.0 0.010198039027184655 0.019899748742132396 0.004582575694955742 2.9999999924257285e-07 0.0 0.045825756949559045 0.04582575694956882 0.0 0.0 0.0 0.10246950765959588 0.07483314773547889 0.030000000000000426
95.45 0.0 72.932 0.06500000000000002 6.33 48.0746301 11.649287 48.60000000000001 578.8 0.0 0.0 0.0 3.71 -3.44 57.36999999999999 0.2872281323269024 0.0 0.01939071942966278 0.01857417562100671 0.012649110640673528 2.999999992425728e-07 0.0 7.105427357601002e-15 0.0 0.0 0.0 0.0 0.08306623862918067 0.10198039027185578 0.04582575694955905
96.45 0.0 72.989 0.045000000000000005 6.342 48.07463 11.649287 48.60000000000001 578.8 0.0 0.0 0.0 3.81 -3.3899999999999997 57.30999999999999 0.2872281323269024 0.0 0.013000000000000528 0.01746424919657298 0.007483314773547724 0.0 0.0 7.105427357601002e-15 0.0 0.0 0.0 0.0 0.06999999999999992 0.16401219466856728 0.030000000000000422
97.45 0.0 73.03299999999999 0.041999999999999996 6.321 48.07463 11.6492863 48.60000000000001 578.8 0.0 0.0 0.0 3.7400000000000007 -3.44 57.339999999999996 0.2872281323269024 0.0 0.012688577540449627 0.015362291495737217 0.002999999999999936 0.0 4.5825756915262385e-07 7.105427357601002e-15 0.0 0.0 0.0 0.0 0.1019803902718556 0.11135528725660053 0.04898979485566426
98.45 0.0 73.086 0.05800000000000001 6.327 48.0746296 11.649286 48.60000000000001 578.8 0.0 0.0 0.0 3.8299999999999996 -3.29 57.33999999999999 0.2872281323269024 0.0 0.02009975124224231 0.01661324772583615 0.012688577540449488 4.898979473197622e-07 0.0 7.105427357601002e-15 0.0 0.0 0.0 0.0 0.07810249675906647 0.0299999999999999 0.04898979485566426
99.44999999999999 0.0 73.16400000000002 0.037000000000000005 6.3740000000000006 48.074629 11.649286 48.60000000000001 578.8 0.0 0.0 0.0 3.9799999999999995 -3.1400000000000006 57.339999999999996 0.2872281323269024 0.0 0.027640549922168297 0.03796050579220461 0.009165151389911485 0.0 0.0 7.105427357601002e-15 0.0 0.0 0.0 0.0 0.05999999999999996 0.048989794855663606 0.04898979485566426
100.45 0.0 73.24799999999999 0.054000000000000006 6.391 48.07462820000001 11.649285100000004 48.60000000000001 578.8 0.0 0.0 0.0 3.78 -3.34 57.39 0.2872281323269024 0.0 0.018867962264112314 0.02537715508089904 0.003000000000000202 4.000000018322681e-07 2.999999997754799e-07 7.105427357601002e-15 0.0 0.0 0.0 0.0 0.05999999999999987 0.11999999999999997 0.030000000000000426
101.45 0.596 73.433 0.32 6.3950000000000005 48.074629200000004 11.649286800000002 48.60000000000001 578.8 0.33 0.5800000000000001 0.0 -8.930000000000001 -3.2600000000000002 57.839999999999996 0.2872281323269024 0.6658408218185485 0.2075114454674728 0.5452705750359174 0.0329393381840013 1.3266499168631881e-06 2.357965224493373e-06 7.105427357601002e-15 0.0 0.34655446902326914 0.5793099343184096 0.0 7.916823858088546 0.20591260281974 0.31685959035509875
102.45 2.531 75.41899999999998 2.665 7.160000000000001 48.0746365 11.6493105 48.56 578.76 1.1199999999999999 2.2700000000000005 0.0 -4.59 -4.369999999999999 57.42999999999999 0.2872281323269024 0.23308582110458798 0.80206545867529 0.14609928131240074 0.43444217106537913 2.872281323067509e-06 1.001249219734149e-05 0.04898979485566426 0.048989794855619 0.07483314773547879 0.22825424421026652 0.0 1.924811679100062 0.4648655719667783 0.15524174696260074
103.45 2.9 77.71 0.835 9.040000000000001 48.074647299999995 11.649346499999998 48.550000000000004 578.75 1.29 2.65 0.0 -1.37 -5.07 57.220000000000006 0.2872281323269024 0.020000000000000104 0.30594117081556754 1.1244220737783477 0.6198870864923709 3.579106033809851e-06 1.0499999999873177e-05 0.05000000000000072 0.04999999999995453 0.05385164807134504 0.050000000000000044 0.0 0.3634556369077249 0.04582575694955824 0.039999999999997725
104.45 3.027 81.02000000000001 1.202 11.395 48.0746604 11.6493835 48.60000000000001 578.8 1.4 2.7 0.0 -0.47000000000000003 -4.9399999999999995 57.249999999999986 0.2872281323269024 0.038999999999999965 1.3868453410528514 1.47393894039068 0.7223053370978231 3.979949747911606e-06 1.0499999999873177e-05 7.105427357601002e-15 0.0 0.0 0.0 0.0 0.14866068747318503 0.04898979485566339 0.04999999999999716
105.45 2.9859999999999998 84.49 2.647 13.962 48.0746742 11.649419299999998 48.56 578.76 1.4 2.6400000000000006 0.0 -0.21000000000000002 -4.970000000000001 57.33999999999999 0.2872281323269024 0.04409081537009714 0.9060022075028289 0.8828822118493497 0.7495838845652968 3.9446165842869065e-06 9.83920728505628e-06 0.04898979485566426 0.048989794855619 0.0 0.048989794855663606 0.0 0.09433981132056604 0.06403124237432826 0.04898979485566426
106.4 2.901111111111111 87.21444444444444 0.9244444444444445 16.492222222222225 48.07468733333334 11.649452222222223 48.51111111111111 578.7111111111112 1.3666666666666665 2.533333333333333 0.0 3.811111111111111 -4.355555555555556 57.28888888888889 0.2581988897471611 0.13827865943203607 0.7983748926010865 1.1336187004565033 0.6980254337578531 3.496029493730516e-06 9.040375825371507e-06 0.03142696805273589 0.031426968052706866 0.06666666666666664 0.13333333333333333 0.0 5.663615736424616 0.9616087343741692 0.1852592444503668
107.6 1.0714285714285714 89.61 0.4528571428571428 18.69 48.074698000000005 11.649480285714288 48.60000000000001 578.8000000000001 0.3 0.7999999999999999 0.0 12.314285714285715 -5.371428571428572 57.12857142857143 0.2000000000000008 0.6225392373503988 0.4406812907306147 0.7888457079939069 0.12489995996796771 7.559289467955164e-07 1.6659862561423159e-06 7.105427357601002e-15 1.1368683772161603e-13 0.13093073414159542 0.3295017884191656 0.0 1.2275743462251905 0.3368521749300456 0.06998542122237503
108.45 0.7350000000000001 90.042 0.11000000000000001 19.153000000000002 48.0747026 11.649485199999999 48.60000000000001 578.8 0.7 1.06 0.0 -8.200000000000001 -3.66 57.910000000000004 0.2872281323269024 0.06873863542433761 0.11914696806885419 0.33 0.377519535918342 2.5377155076186414e-06 4.261455150519571e-06 7.105427357601002e-15 0.0 0.4242640687119285 0.6590902821313632 0.0 10.158149437766703 0.3583294573433784 0.450444225182208
109.45 0.7600000000000001 91.06800000000001 0.057999999999999996 20.817999999999998 48.074710499999995 11.649505999999999 48.60000000000001 578.8 0.43999999999999984 1.0100000000000002 0.0 12.54 -4.410000000000001 57.15000000000001 0.2872281323269024 0.024494897427831803 1.1610581380792218 0.174 0.3224841081355788 8.062257754382899e-07 4.147288270731263e-06 7.105427357601002e-15 0.0 0.31048349392520047 0.48672374094551835 0.0 1.7715529910222838 1.4201760454253551 0.05000000000000071
110.4 0.38 92.59555555555556 0.022222222222222223 21.143333333333334 48.07471177777778 11.64951 48.68888888888889 578.8888888888889 0.044444444444444446 0.07777777777777778 0.0 5.766666666666667 -3.4777777777777783 57.36666666666666 0.2581988897471611 0.31304951684997057 0.09441175904999705 0.0628539361054709 0.004714045207909379 6.28539361003001e-07 0.0 0.03142696805273589 0.03142696805274259 0.049690399499995326 0.07856742013183862 0.0 0.8 0.5883645464388323 0.047140452079103834
112.64999999999999 0.12 93.16166666666668 0.2133333333333333 21.525000000000002 48.074713 11.649514666666667 48.6 578.8000000000001 0.016666666666666666 0.11666666666666665 0.016666666666666666 7.416666666666667 -4.283333333333333 57.28333333333334 0.1707825127659933 0.11254628677422755 0.04633812924819446 0.142556031868954 0.03253203549323846 0.0 4.7140452043823233e-07 0.0 1.1368683772161603e-13 0.037267799624996496 0.10671873729054748 0.037267799624996496 2.943590022782083 0.10671873729054766 0.03726779962499437
113.15 0.0 93.23 0.0375 21.552500000000002 48.074713 11.649515249999999 48.6 578.8 0.1 0.2 0.0 -10.325 -3.6999999999999997 57.85000000000001 0.11180339887498948 0.0 0.0 0.06495190528383289 0.021650635094611275 0.0 4.330127023373375e-07 0.0 0.0 0.1224744871391589 0.2449489742783178 0.0 10.644335347967951 0.2345207879911713 0.4153311931459043
115.8 0.0 95.31666666666666 0.09666666666666668 23.576666666666664 48.074718999999995 11.649541 48.6 578.8 0.0 0.0 0.0 4.8 -3.266666666666667 57.36666666666667 0.08164965809277376 0.0 0.012472191289246521 0.071336448530109 0.004714045207909379 7.105427357601002e-15 0.0 0.0 0.0 0.0 0.0 0.0 0.08164965809277268 0.09428090415820621 0.04714045207910384
116.45000000000002 0.0 95.365 0.043 23.593 48.07472 11.649541 48.60000000000001 578.8 0.0 0.0 0.0 4.119999999999999 -3.12 57.4 0.2872281323269024 0.0 0.012041594578791965 0.0349428104193123 0.004582575694956556 0.0 0.0 7.105427357601002e-15 0.0 0.0 0.0 0.0 0.19899748742132398 0.07483314773547879 0.0
117.45000000000002 0.0 95.42100000000002 0.05500000000000001 23.57 48.074719200000004 11.649541 48.60000000000001 578.8 0.0 0.0 0.0 3.66 -3.46 57.39 0.2872281323269024 0.0 0.02467792535850505 0.03827531841800928 0.010000000000000142 3.999999989900971e-07 0.0 7.105427357601002e-15 0.0 0.0 0.0 0.0 0.07999999999999992 0.18000000000000008 0.030000000000000426
118.45000000000002 0.0 95.542 0.086 23.631 48.074718600000004 11.6495419 48.60000000000001 578.8 0.0 0.0 0.0 3.71 -3.69 57.36999999999999 0.2872281323269024 0.0 0.04707440918375806 0.04054626986542659 0.03884584919911018 4.898979508006965e-07 7.000000001612858e-07 7.105427357601002e-15 0.0 0.0 0.0 0.0 0.12999999999999992 0.12999999999999992 0.045825756949559045
119.45000000000002 0.0 95.691 0.05 23.761999999999997 48.074718000000004 11.6495437 48.61 578.81 0.0 0.0 0.05 4.1899999999999995 -4.05 57.169999999999995 0.2872281323269024 0.0 0.05974110812497595 0.06387487769068526 0.02785677655436813 7.105427357601002e-15 4.582575699666528e-07 0.053851648071345806 0.05385164807133406 0.0 0.0 0.12041594578792296 0.34190641994557525 0.4631414470763765 0.20518284528683167
120.45000000000002 0.0 95.8 0.05 23.776 48.074718000000004 11.649544000000002 48.05 578.25 0.0 0.0 0.8400000000000001 3.5100000000000002 -2.8899999999999997 56.839999999999996 0.2872281323269024 0.0 0.014142135623728137 0.016124515496597103 0.011135528725659424 7.105427357601002e-15 1.7763568394002505e-15 0.2872281323269009 0.28722813232691724 0.0 0.0 0.10198039027185571 0.2343074902771996 0.5262128846769147 0.04898979485566426
121.45000000000002 0.0 95.848 0.045 23.756999999999998 48.0747171 11.649544000000002 47.05 577.25 0.0 0.0 0.9200000000000002 3.44 -2.92 56.9 0.2872281323269024 0.0 0.014696938456700592 0.0191049731745428 0.004582575694956556 2.999999992425728e-07 1.7763568394002505e-15 0.2872281323269009 0.28722813232691724 0.0 0.0 0.039999999999999994 0.2009975124224178 0.28913664589601934 0.0
122.45000000000002 0.0 95.895 0.041 23.750999999999998 48.07471700000001 11.649544000000002 46.05 576.25 0.0 0.0 0.9400000000000001 3.1799999999999997 -3.3 56.95 0.2872281323269024 0.0 0.01024695076596068 0.018138357147217055 0.003000000000000469 7.105427357601002e-15 1.7763568394002505e-15 0.2872281323269009 0.28722813232691724 0.0 0.0 0.04898979485566356 0.13266499161421597 0.20493901531919195 0.05000000000000071
123.45000000000002 0.909 96.20700000000001 0.9119999999999999 23.476 48.07471579999999 11.6495407 45.05 575.25 -0.45 -0.7899999999999999 0.9400000000000001 16.889999999999997 -3.3199999999999994 56.69 0.2872281323269024 0.7103865145116425 0.3115461442547475 0.7460938278795771 0.29442146660866975 1.399999999612029e-06 3.6619666849336473e-06 0.2872281323269009 0.28722813232691724 0.36124783736376886 0.6122907805936654 0.04898979485566356 4.369084572310315 0.13999999999999996 0.053851648071344356
124.45000000000002 2.601 98.318 2.71 21.45 48.0747072 11.6495152 44.04 574.24 -1.25 -2.2800000000000002 0.9100000000000001 10.8 -2.76 57.120000000000005 0.2872281323269024 0.23775828061289478 0.8167104750154726 0.20089798406156303 0.7878705477424572 3.2496153619587616e-06 9.897474425493501e-06 0.30397368307141304 0.3039736830714136 0.10246950765959595 0.2181742422927143 0.029999999999999995 1.7961069010501571 0.3440930106817051 0.23151673805580522
125.45000000000002 2.3920000000000003 100.79700000000001 0.767 18.765 48.074696700000004 11.6494814 43.05 573.25 -1.0799999999999998 -1.95 0.89 -7.76 -0.54 57.06 0.2872281323269024 0.7230186719580622 0.7697148822778443 0.9349443833726154 0.6341332667507681 2.6095976691875846e-06 8.101851640085585e-06 0.2872281323269009 0.28722813232691724 0.29257477676655586 0.6184658438426491 0.05385164807134503 9.042477536604666 1.5653753543479596 0.36110940170535527
126.45000000000002 0.31400000000000006 102.201 0.269 17.877999999999997 48.0746908 11.649470500000001 41.910000000000004 572.1099999999999 -0.17 -0.2 1.0 -1.6900000000000002 -3.71 57.27 0.2872281323269024 0.29189724219320745 0.11987076374162298 0.15801582199260933 0.014696938456699142 9.79795897685342e-07 4.999999996257998e-07 0.3299999999999997 0.3299999999999965 0.1004987562112089 0.2 0.0 4.096205561248117 0.3389690251335658 0.2147091055358388
127.45000000000002 0.256 102.56299999999999 0.39699999999999996 17.857 48.074687999999995 11.649470699999998 40.85 571.05 -0.16 -0.19 0.9800000000000001 9.62 -4.01 56.839999999999996 0.2872281323269024 0.33284230500343553 0.10536128321162469 0.25250940576540903 0.05762811813689566 8.944271911249371e-07 6.403124237356893e-07 0.2872281323269014 0.28722813232689354 0.19595917942265426 0.277308492477241 0.039999999999999994 7.479144336085512 0.5467174773134658 0.11999999999999922
128.45 1.921 103.87900000000002 2.101 16.728 48.074681500000004 11.649455900000001 39.84 570.04 -1.0 -1.64 0.93 12.219999999999999 -3.3299999999999996 56.83 0.2872281323269034 0.3599291596967381 0.6576389586999826 0.3718185041118852 0.5981772312617721 2.872281323067509e-06 7.841555968055998e-06 0.30397368307141354 0.30397368307140904 0.14832396974191328 0.332264954516723 0.04582575694955839 3.3686198954467987 0.3132091952673166 0.12688577540449408
129.45 2.54 106.36599999999999 2.309 14.459999999999999 48.0746714 11.649426 38.75 568.95 -1.25 -2.2 0.9400000000000001 5.540000000000001 -2.3800000000000003 57.17 0.2872281323269034 0.09241212041718347 0.7169965132411709 0.5001489778056134 0.6719523792650782 3.0397368297715754e-06 9.055385138226165e-06 0.2872281323269024 0.2872281323268935 0.05000000000000005 0.07745966692414824 0.04898979485566355 5.7744610138089945 0.5436910887627274 0.08999999999999946
130.45 1.253 108.36200000000001 0.39499999999999996 12.717 48.0746625 11.6494019 37.76 567.96 -0.5900000000000001 -0.93 0.9400000000000001 -9.46 -2.07 57.260000000000005 0.2872281323269034 0.797132987650116 0.3499371372118162 0.6591395906786361 0.21638160735145676 1.3601470518799152e-06 3.2388269481844454e-06 0.2939387691339824 0.29393876913397626 0.35057096285916206 0.59 0.06633249580710798 5.241030433035092 1.823211452355431 0.2653299832284328
131.45 0.09 108.833 0.197 12.55 48.07465989999999 11.649399 36.75 566.95 -0.07 -0.04 0.9800000000000001 1.02 -3.7400000000000007 57.05 0.2872281323269034 0.06826419266350404 0.06309516621738882 0.06573431371817919 0.011832159566199731 7.000000009733347e-07 0.0 0.2872281323269024 0.2872281323268935 0.045825756949558406 0.066332495807108 0.039999999999999994 0.5793099343184096 0.36110940170535577 0.06708203932499464
132.45 0.0 108.97200000000001 0.06999999999999999 12.548 48.074659 11.649399 35.660000000000004 565.8599999999999 0.0 0.0 1.0 2.23 -3.6499999999999995 57.02 0.2872281323269034 0.0 0.02227105745132204 0.0360555127546399 0.011661903789691145 0.0 0.0 0.30397368307141354 0.3039736830714158 0.0 0.0 0.0 0.25317977802344327 0.24596747752497686 0.04000000000000057
133.45 0.0 109.03399999999999 0.01 12.509 48.074659499999996 11.649398800000002 34.67 564.8700000000001 0.0 0.0 0.8300000000000001 2.7600000000000002 -2.65 57.23 0.2872281323269034 0.0 0.012000000000000455 0.03 0.008306623862917898 5.00000002290335e-07 4.0000000041118254e-07 0.2609597670139984 0.2609597670139913 0.0 0.0 0.19 0.23748684174075832 0.4522167621838006 0.2147091055358387
134.45 0.0 109.12100000000001 0.003 12.49 48.0746602 11.6493984 34.28 564.48 0.0 0.0 0.06 2.96 -3.7 57.32000000000001 0.2872281323269034 0.0 0.02699999999999676 0.009 0.008944271909998969 3.999999989900971e-07 4.898979490602294e-07 0.039999999999997725 0.0400000000000091 0.0 0.0 0.10198039027185571 0.1356465996625055 0.26832815729997467 0.11661903789690474
135.45 0.0 109.171 0.011 12.506 48.074661299999995 11.6493989 34.239999999999995 564.4399999999999 0.0 0.0 0.0 2.93 -3.3200000000000003 57.20000000000001 0.2872281323269034 0.0 0.08203048213926552 0.033 0.016248076809271574 4.5825756833859485e-07 3.000000003083869e-07 0.048989794855660775 0.0489897948556747 0.0 0.0 0.0 0.11874342087037927 0.17204650534085253 7.105427357601002e-15
136.45 0.0 109.394 0.092 12.581 48.074662 11.6493999 34.2 564.3999999999999 0.0 0.0 0.0 3.1100000000000003 -3.13 57.17 0.2872281323269034 0.0 0.027276363393974414 0.014000000000000002 0.024677925358505902 0.0 2.999999997754799e-07 0.0 1.1368683772161603e-13 0.0 0.0 0.0 0.09433981132056612 0.1004987562112089 0.04582575694955905
137.45 0.9259999999999999 109.745 0.9489999999999998 12.443999999999999 48.074659999999994 11.649397699999998 33.989999999999995 564.1899999999999 -0.51 -0.78 0.48999999999999994 18.46 -3.4299999999999997 56.42999999999999 0.2872281323269034 0.7805792720793961 0.33314411296014407 0.8601563811307801 0.2309198995322839 1.9999999992137416e-06 3.6619666844534156e-06 0.19209372712298606 0.1920937271229788 0.40360872141221127 0.6615134163416491 0.32078029864690877 7.375391515031592 0.42906875905849856 0.3195309061734086
138.45 2.632 111.93499999999999 2.487 10.809999999999999 48.074649599999994 11.6493723 33.15 563.35 -1.31 -2.2800000000000002 0.9100000000000001 10.190000000000001 -2.6399999999999997 56.93000000000001 0.2872281323269034 0.23574562562219467 0.7971354966378067 0.8388092751037032 0.5985315363454127 3.66606055628329e-06 9.737042672266918e-06 0.2872281323269014 0.2872281323269014 0.11357816691600545 0.20880613017821098 0.029999999999999995 1.9387882813757669 0.37202150475476553 0.24515301344262588
139.45 2.107 114.696 2.096 9.057 48.0746372 11.6493407 32.19 562.39 -1.1099999999999999 -1.7899999999999996 0.89 -9.1 -1.49 57.15 0.2872281323269034 0.7409460169270093 0.6165257496650095 0.7589756254320688 0.3397660960131248 2.7856776543723014e-06 7.197916365418482e-06 0.24677925358506128 0.24677925358505848 0.33896902513356586 0.6624952830020754 0.05385164807134503 8.098271420494623 1.7259490143106777 0.30413812651491157
140.45 0.278 115.65799999999999 0.27999999999999997 8.732999999999999 48.0746319 11.649331499999999 31.229999999999997 561.43 -0.2 -0.18 1.01 -1.67 -3.6 57.19000000000001 0.2872281323269034 0.17831432920547916 0.08704022058795505 0.12401612798341996 0.054598534778874885 8.306623872740011e-07 4.999999996257998e-07 0.3163858403911275 0.3163858403911265 0.1 0.1661324772583615 0.030000000000000023 2.2632056910497553 0.3162277660168379 0.08306623862918013
141.45 0.01 115.86000000000001 0.06900000000000002 8.866 48.0746301 11.649332 30.15 560.35 -0.01 0.0 0.9400000000000001 1.54 -4.13 57.120000000000005 0.2872281323269034 0.03 0.03768288736283397 0.08525843066817498 0.012000000000000158 2.999999992425728e-07 0.0 0.2872281323269017 0.2872281323269014 0.03 0.0 0.04898979485566356 0.3903844259188627 0.24515301344262538 0.06000000000000085
142.45 0.0 115.93799999999999 0.08800000000000001 8.848999999999998 48.0746302 11.649332 29.2 559.4 0.0 0.0 0.93 2.5999999999999996 -3.5900000000000007 56.94 0.2872281323269034 0.0 0.027856776554366372 0.04331281565541543 0.015779733838059164 3.999999989900971e-07 0.0 0.24494897427831794 0.2449489742783132 0.0 0.0 0.045825756949558386 0.4219004621945797 0.28442925306655775 0.04898979485566426
143.45 0.0 116.05299999999997 0.096 8.766000000000002 48.0746311 11.6493314 28.25 558.45 0.0 0.0 0.96 2.7399999999999998 -2.7600000000000002 57.02 0.2872281323269034 0.0 0.03226453160980357 0.039293765408777 0.027999999999999896 3.00000001374201e-07 4.898979481899958e-07 0.2872281323269014 0.2872281323268935 0.0 0.0 0.04898979485566354 0.38522720568516444 0.14966629547095758 0.04000000000000057
144.45 0.0 116.15500000000002 0.092 8.673 48.074632 11.649330500000001 27.25 557.45 0.0 0.0 0.97 2.6100000000000003 -2.2600000000000002 57.13000000000001 0.2872281323269034 0.0 0.029748949561288162 0.04578209256903839 0.028301943396169735 0.0 4.999999996257998e-07 0.2872281323269014 0.2872281323268935 0.0 0.0 0.04582575694955839 0.23 0.2799999999999999 0.08999999999999996
145.45 0.0 116.25999999999999 0.092 8.589000000000002 48.074632 11.6493293 26.25 556.45 0.0 0.0 0.9200000000000002 1.69 -2.4999999999999996 57.18000000000001 0.2872281323269034 0.0 0.026457513110647087 0.028913664589601918 0.021656407827707252 0.0 4.582575699666528e-07 0.2872281323269014 0.2872281323268935 0.0 0.0 0.039999999999999994 0.277308492477241 0.27202941017470883 0.04000000000000057
146.45 0.0 116.33899999999998 0.07100000000000002 8.516 48.074632 11.649328299999999 25.25 555.45 0.0 0.0 0.96 2.45 -2.19 57.160000000000004 0.2872281323269034 0.0 0.02211334438749682 0.018138357147217055 0.020099751242241653 0.0 4.5825756915262385e-07 0.2872281323269014 0.2872281323268935 0.0 0.0 0.04898979485566354 0.32015621187164245 0.2467792535850613 0.04898979485566426
147.45 0.0 116.398 0.038 8.472 48.074633 11.649328 24.25 554.45 0.0 0.0 0.99 2.59 -2.4299999999999997 57.18000000000001 0.2872281323269034 0.0 0.012489995996797953 0.02821347195933177 0.003999999999999915 0.0 0.0 0.2872281323269014 0.2872281323268935 0.0 0.0 0.029999999999999992 0.41581245772583586 0.355105618091294 0.07483314773547761
