"avg_OSD.flyTime [s]" "avg_CUSTOM.hSpeed [m/s]" "avg_CUSTOM.distance [m]" "avg_CALC.hSpeed [m/s]" "avg_CALC.distance [m]" avg_OSD.latitude avg_OSD.longitude "avg_OSD.height [m]" "avg_OSD.altitude [m]" "avg_OSD.xSpeed [m/s]" "avg_OSD.ySpeed [m/s]" "avg_OSD.zSpeed [m/s]" avg_OSD.pitch avg_OSD.roll avg_OSD.yaw "stdDev_OSD.flyTime [s]" "stdDev_CUSTOM.hSpeed [m/s]" "stdDev_CUSTOM.distance [m]" "stdDev_CALC.hSpeed [m/s]" "stdDev_CALC.distance [m]" stdDev_OSD.latitude stdDev_OSD.longitude "stdDev_OSD.height [m]" "stdDev_OSD.altitude [m]" "stdDev_OSD.xSpeed [m/s]" "stdDev_OSD.ySpeed [m/s]" "stdDev_OSD.zSpeed [m/s]" stdDev_OSD.pitch stdDev_OSD.roll stdDev_OSD.yaw
0.45 0.0 0.04 0.06799999999999999 1.5639999999999998 48.182053 11.613817 0.0 533.0 0.0 0.0 0.0 7.900000000000001 -0.1 106.91 0.2872281323269014 0.0 0.02898275349237888 0.07480641683706017 0.5214441484953111 0.0 0.0 0.0 0.0 0.0 0.0 0.0 8.881784197001252e-16 0.0 0.029999999999998295
1.45 0.0 0.145 0.091 1.7730000000000001 48.1820539 11.6138169 0.0 533.0 0.0 0.0 0.0 7.8100000000000005 -0.11000000000000001 107.07000000000001 0.2872281323269014 0.0 0.030740852297878794 0.09278469701410896 0.007810249675906661 2.999999992425728e-07 2.999999997754799e-07 0.0 0.0 0.0 0.0 0.0 0.1700000000000001 0.03 0.07810249675906684
2.45 0.02 0.259 0.12200000000000003 1.814 48.1820546 11.613816199999999 0.05 533.05 0.02 0.0 -0.18000000000000002 2.36 -0.19000000000000006 107.97999999999999 0.2872281323269014 0.04 0.05412023651093923 0.13212115651930997 0.021540659228538036 6.633249578960023e-07 3.9999999970063985e-07 0.0670820393249937 0.06708203932500895 0.04 0.0 0.132664991614216 3.231160782133876 1.681933411285952 0.4354308211415448
3.45 0.0 0.475 0.221 0.31 48.1820554 11.613816699999997 0.37 533.3700000000001 0.0 0.0 -0.36 1.0699999999999998 0.32 108.3 0.2872281323269014 0.0 0.059874869519690815 0.19444536507718563 0.5103724130475705 4.898979508006965e-07 4.5825756915262385e-07 0.1268857754044952 0.1268857754044936 0.0 0.0 0.06633249580710801 0.2609597670139978 0.256124969497314 0.0
4.45 0.0 0.6930000000000001 0.186 0.15100000000000002 48.1820553 11.6138157 0.8400000000000001 533.8399999999999 0.0 0.0 -0.4600000000000001 0.9 0.17 108.2 0.2872281323269015 0.0 0.052735187493740836 0.1560256389187367 0.012206555615733698 4.5825757159471073e-07 4.5825756915262385e-07 0.1356465996625054 0.13564659966249262 0.0 0.0 0.04898979485566355 0.3847076812334269 0.39761790704142086 0.0
5.45 0.0 0.916 0.175 0.08800000000000001 48.182054799999996 11.6138156 1.1799999999999997 534.1800000000001 0.0 0.0 -0.15000000000000002 0.7 0.49000000000000005 107.75999999999999 0.2872281323269015 0.0 0.09624967532412773 0.2342754788704955 0.046861498055439925 3.999999989900971e-07 4.898979481899958e-07 0.03999999999999995 0.0400000000000091 0.0 0.0 0.1746424919657298 0.24494897427831783 0.09433981132056603 0.2289104628451948
6.4 0.0 1.148888888888889 0.15111111111111108 0.08000000000000002 48.18205366666667 11.613816888888886 1.2 534.2 0.0 0.0 0.0 1.2222222222222223 0.5666666666666667 107.67777777777778 0.2581988897471611 0.0 0.056262172894098454 0.07723620976436785 0.04714045207910317 4.714045196008497e-07 3.1426968029215487e-07 0.0 0.0 0.0 0.0 0.0 0.0628539361054709 0.04714045207910316 0.04157397096415845
7.450000000000001 0.0 1.346 0.15499999999999997 0.202 48.182052799999994 11.613817699999998 1.55 534.55 0.0 0.0 -1.1099999999999999 1.03 0.48999999999999994 107.63 0.28722813232690153 0.0 0.06036555309114625 0.17889941307897017 0.02181742422927143 4.000000018322681e-07 4.582575699666528e-07 0.34132096331752027 0.34132096331751793 0.0 0.0 0.7634788798650557 0.20024984394500786 0.2844292530665578 0.0458257569495623
8.45 0.0 1.566 0.15 0.15 48.182053 11.613817 3.3899999999999997 536.3900000000001 0.0 0.0 -2.0 0.6300000000000001 0.21000000000000002 107.6 0.28722813232690153 0.0 0.07364781055808785 0.21307275752662516 0.02569046515733026 0.0 0.0 0.5906775770248942 0.5906775770248904 0.0 0.0 0.0 0.15524174696260024 0.15132745950421556 0.0
9.45 0.0 1.7369999999999997 0.10700000000000001 0.16499999999999998 48.182053 11.613817 5.4 538.4 0.0 0.0 -1.94 1.2200000000000002 0.18 107.60999999999999 0.28722813232690153 0.0 0.03796050579220465 0.12783192089615175 0.02418677324489565 0.0 0.0 0.5744562646538028 0.574456264653795 0.0 0.0 0.048989794855663606 0.132664991614216 0.10770329614269009 0.030000000000002556
10.411111111111111 0.0 1.8533333333333333 0.12333333333333335 0.2111111111111111 48.18205277777778 11.613817666666666 7.322222222222223 540.3222222222222 0.0 0.0 -1.9222222222222218 1.2444444444444445 0.1888888888888889 107.6 0.27666443551086073 0.0 0.04447221354708774 0.14590712418826193 0.03247030932489436 4.157397115459155e-07 4.71404521275615e-07 0.5533288710217216 0.5533288710217088 0.0 0.0 0.041573970964154945 0.04969039949999537 0.08748897637790902 0.0
11.45 0.0 2.026 0.10800000000000001 0.31399999999999995 48.182051799999996 11.613818600000002 9.330000000000002 542.3299999999999 0.0 0.0 -1.48 1.13 0.26999999999999996 107.58999999999999 0.28722813232690153 0.0 0.06135144660071186 0.11923086848631104 0.027276363393971704 3.999999989900971e-07 4.898979481899958e-07 0.4859012245302538 0.48590122453024276 0.0 0.0 0.5979966555090421 0.10999999999999999 0.20518284528683192 0.029999999999998295
12.411111111111111 0.0 2.2066666666666666 0.0911111111111111 0.3888888888888889 48.18205088888889 11.613817888888889 9.922222222222222 542.9222222222222 0.0 0.0 -0.011111111111111112 2.8777777777777778 -0.9777777777777779 107.63333333333334 0.27666443551086073 0.0 0.06271629240742257 0.11219471610101633 0.025579698740491864 3.1426968196692017e-07 5.66557723927848e-07 0.06285393610547066 0.06285393610548518 0.0 0.0 0.03142696805273545 0.8093588378433028 0.9600668700990199 0.047140452079107185
13.45 0.525 2.7 0.483 0.23900000000000002 48.182054199999996 11.613817199999996 9.830000000000002 542.8299999999999 0.5700000000000001 0.05 0.0 3.1399999999999997 -5.029999999999999 107.56999999999998 0.28722813232690153 0.32927951652053916 0.28174456516497354 0.42506587724728034 0.12045331045679068 2.3151673799302406e-06 8.717797887484854e-07 0.04582575694955823 0.04582575694956882 0.2968164415931166 0.05000000000000001 0.0 0.1624807680927192 0.9737042672187486 0.16155494421403613
14.45 1.261 3.903 1.3519999999999999 1.139 48.1820642 11.6138208 9.900000000000002 542.8999999999999 1.2500000000000002 0.16999999999999998 0.0 3.1100000000000003 -3.9200000000000004 107.55 0.28722813232690153 0.15384732691860456 0.40017621118702196 0.2135321989771098 0.3976795192111357 3.4583232938366997e-06 1.2489995999111512e-06 1.7763568394002505e-15 1.1368683772161603e-13 0.14999999999999997 0.045825756949558406 0.0 0.250798724079689 0.198997487421324 0.10246950765959363
15.45 1.6019999999999999 5.389 1.3369999999999997 2.6279999999999997 48.1820768 11.6138267 9.900000000000002 542.8999999999999 1.52 0.47000000000000003 0.0 -0.41 -2.2 107.64000000000001 0.28722813232690153 0.049558046773455426 0.4360378423944418 0.4767189947967251 0.4422849760052901 3.5999999999505564e-06 2.609597670263093e-06 1.7763568394002505e-15 1.1368683772161603e-13 0.06000000000000006 0.16763054614240208 0.0 1.066255128944288 0.9476286192385707 0.04898979485566774
16.45 1.568 6.87 1.012 4.081 48.182088500000006 11.613836800000001 9.900000000000002 542.8999999999999 1.29 0.89 0.0 -0.82 -1.9099999999999997 107.7 0.2872281323269012 0.02638181191654586 0.39309032040995356 0.5209184197165618 0.3854205495299906 2.87228132269644e-06 3.218695388004987e-06 1.7763568394002505e-15 1.1368683772161603e-13 0.06999999999999999 0.08306623862918074 0.0 0.19390719429665318 0.45044422518220834 0.27202941017471016
17.5 1.612222222222222 8.374444444444444 0.9188888888888889 5.501111111111111 48.182098333333336 11.613850555555555 9.855555555555558 542.8555555555554 1.3 0.9666666666666666 0.0 -3.066666666666667 -1.8555555555555554 107.76666666666667 0.2581988897471608 0.0829695764559754 0.40279885002349125 0.7118433729791415 0.36050718730528164 2.211083194414919e-06 4.499657051355183e-06 0.049690399499995146 0.04969039950000662 0.0 0.1414213562373095 0.0 0.42687494916218993 0.08314794192830978 0.06666666666666603
18.45 1.8880000000000003 10.049999999999999 1.107 7.003 48.182106000000005 11.6138701 9.900000000000002 542.8999999999999 1.1999999999999997 1.46 0.0 0.23000000000000004 -3.14 107.72999999999999 0.2872281323269012 0.05455272678794337 0.574456264653803 0.8488468648702192 0.49097963297880287 2.449489742690446e-06 6.640030120187382e-06 1.7763568394002505e-15 1.1368683772161603e-13 0.07745966692414831 0.12000000000000002 0.0 1.4567429423202984 0.9134549797335388 0.1268857754044973
19.45 2.0730000000000004 12.107 1.371 8.943000000000001 48.1821165 11.613893 9.97 542.97 1.3900000000000001 1.55 0.0 2.47 -4.459999999999999 107.58999999999999 0.2872281323269012 0.0545985347788748 0.6130261005862636 0.8387544336693546 0.6308890552228658 3.827531841976255e-06 6.48074069865589e-06 0.04582575694955824 0.04582575694956882 0.13000000000000003 0.05000000000000005 0.0 0.22383029285599387 0.12806248474865692 0.029999999999998295
20.45 2.339 14.537 1.5439999999999998 11.352999999999998 48.1821324 11.613914900000001 9.969999999999999 542.97 1.9300000000000002 1.31 0.0 2.63 -3.84 107.77000000000001 0.2872281323269012 0.08768694315575154 0.7319023158864854 1.131372617664048 0.7341804955186428 5.332916650675109e-06 5.90677577027313e-06 0.04582575694955823 0.04582575694956882 0.22383029285599396 0.18681541692269402 0.0 0.6738694235532577 0.6248199740725323 0.32264531609803226
21.45 2.42 17.107 2.17 13.887 48.1821509 11.6139349 9.900000000000002 542.8999999999999 2.2399999999999998 0.9100000000000001 0.0 1.9600000000000002 -2.3200000000000003 107.6 0.2872281323269012 0.07509993342207431 0.6774075582690231 0.7368446240558453 0.7032076506978576 5.107837114479638e-06 5.5937465085462e-06 1.7763568394002505e-15 1.1368683772161603e-13 0.04898979485566339 0.08306623862918074 0.0 0.27999999999999997 0.20396078054371142 0.0
22.45 2.3040000000000003 19.445999999999998 1.519 16.232000000000003 48.1821687 11.613952000000001 9.900000000000002 542.8999999999999 2.2 0.6799999999999999 0.0 2.5 -3.05 107.53 0.2872281323269012 0.022449944320643695 0.7296738997661898 0.904681711984939 0.6806878873610134 5.423098745522898e-06 4.358898943416408e-06 1.7763568394002505e-15 1.1368683772161603e-13 0.0 0.07483314773547885 0.0 0.1483239697419133 0.15000000000000002 0.04582575694955579
23.45 1.1460000000000001 21.435 0.9799999999999999 18.148 48.182184 11.6139644 9.900000000000002 542.8999999999999 1.0699999999999998 0.3 0.0 0.9299999999999999 10.9 107.92 0.2872281323269012 0.7553039123425749 0.33236275362922363 0.8213768927843051 0.2945097621471997 2.3664319141711395e-06 2.0099751238688134e-06 1.7763568394002505e-15 1.1368683772161603e-13 0.7114070564732965 0.15491933384829668 0.0 0.5657738063926254 3.350522347336307 0.4284857057125695
24.45 0.028000000000000004 21.900000000000002 0.217 18.363999999999997 48.1821858 11.6139659 9.879999999999999 542.88 0.01 0.01 0.0 1.2900000000000003 1.24 107.63 0.2872281323269012 0.05600000000000001 0.07348469228349484 0.09960421677820674 0.041279534881101046 4.00000001832268e-07 7.000000000344033e-07 0.039999999999999855 0.0400000000000091 0.03 0.03 0.0 0.5374941860150675 0.9991996797437438 0.06403124237433018
25.45 0.072 22.14 0.21700000000000003 18.170999999999996 48.1821845 11.613964 9.850000000000001 542.8499999999999 -0.06999999999999999 -0.01 0.0 0.66 2.7 107.6 0.2872281323269012 0.10514751542475932 0.07307530362578088 0.09879777325425913 0.07063285354564161 6.708203915562783e-07 6.324555321220792e-07 0.04999999999999982 0.05000000000001137 0.10049875621120889 0.030000000000000002 0.0 0.2107130750570548 2.421156748333325 0.0
26.45 0.774 22.697 0.7129999999999999 17.639999999999997 48.18217980000001 11.6139613 9.8 542.8 -0.75 -0.22999999999999998 0.0 0.64 5.5 107.6 0.2872281323269012 0.22334726324716855 0.2627945965958966 0.32249186036239735 0.24099792530227354 2.1817424226947357e-06 1.417744687917334e-06 0.0 0.0 0.19621416870348585 0.07810249675906654 0.0 0.38 0.2529822128134704 0.0774596669241476
27.4 1.3288888888888888 23.754444444444445 0.55 16.575555555555557 48.18217033333334 11.613956111111113 9.777777777777779 542.7777777777778 -1.322222222222222 -0.3222222222222222 -0.022222222222222223 -0.3777777777777778 4.666666666666667 107.56666666666666 0.2581988897471611 0.14145627078079603 0.4307644654464403 0.609243611191597 0.3685741629309449 3.333333333996633e-06 1.6629588383898274e-06 0.04157397096415549 0.041573970964117093 0.13146843962443588 0.04157397096415492 0.041573970964154904 0.16850834320114555 0.27080128015453203 0.04714045207910049
28.444444444444443 1.7777777777777777 25.58555555555556 1.38 14.948888888888888 48.18215488888889 11.61394988888889 9.877777777777778 542.8777777777777 -1.7555555555555555 -0.34444444444444444 -0.011111111111111112 0.05555555555555555 4.244444444444444 107.6 0.30225490019412066 0.09885767297571216 0.5602799124071057 0.9375499986667378 0.5031775574496419 5.065009474736239e-06 1.9116278370895133e-06 0.04157397096415475 0.041573970964164354 0.10657403385139372 0.04969039949999535 0.03142696805273545 0.1892154040658489 0.16405358955814894 0.0
29.41111111111111 2.0622222222222226 27.572222222222223 1.9944444444444445 13.243333333333332 48.18213777777778 11.613943444444445 9.9 542.9 -2.0222222222222226 -0.4 0.0 0.022222222222222223 4.277777777777778 107.62222222222222 0.27666443551086034 0.07856742013183868 0.6470064017848797 1.057177700936803 0.515126737372033 5.533288710705285e-06 1.892154040795479e-06 0.0 0.0 0.07856742013183868 0.0 0.0 0.07856742013183862 0.2199887763691481 0.04157397096415845
30.449999999999996 2.2590000000000003 29.844000000000005 1.94 11.4 48.1821178 11.613936599999999 9.940000000000001 542.9399999999999 -2.21 -0.47000000000000003 0.0 0.62 4.590000000000001 107.66000000000001 0.2872281323269012 0.0734098086089318 0.6800911703587985 0.8102221917474244 0.5202114954516093 5.758472018836218e-06 2.2449944320616647e-06 0.04898979485566339 0.0489897948556747 0.0699999999999999 0.045825756949558386 0.0 0.1661324772583615 0.1135781669160054 0.04898979485566774
31.422222222222224 2.41 32.49111111111111 2.921111111111111 9.635555555555555 48.182096888888886 11.613929111111112 10.033333333333333 543.0333333333333 -2.322222222222222 -0.6000000000000001 0.0 1.4777777777777779 4.133333333333334 107.63333333333334 0.2897423291201175 0.058309518948453036 0.9202831019063211 1.253709557401948 0.49365104884390876 6.556497107722619e-06 2.330686329329319e-06 0.04714045207910301 0.04714045207911389 0.041573970964154945 0.06666666666666665 0.0 0.4871180048173994 0.20548046676563253 0.047140452079107185
32.45 2.492 35.364000000000004 1.2419999999999998 8.02 48.1820743 11.6139197 10.11 543.11 -2.38 -0.74 0.0 1.27 4.21 107.7 0.2872281323269009 0.04791659420284373 0.7275053264409824 1.1155339528674149 0.38527911960032296 6.325345840856622e-06 2.6851443164210586e-06 0.029999999999999895 0.03000000000000682 0.040000000000000036 0.048989794855663606 0.0 0.41243181254602557 0.13000000000000017 0.0
33.45 2.5930000000000004 38.03099999999999 2.0620000000000003 6.976999999999999 48.1820514 11.6139094 10.139999999999997 543.1400000000001 -2.4699999999999998 -0.8 0.02 1.49 3.9800000000000004 107.65 0.2872281323269009 0.0412431812546027 0.7692652338433081 0.8708019292583131 0.1973854097951517 6.483826032077004e-06 3.0397368306481435e-06 0.04898979485566339 0.0489897948556747 0.04582575694955844 0.0 0.04 0.7569015788066504 0.34583232931581176 0.05000000000000427
34.45 2.5210000000000004 40.56400000000001 1.19 6.614999999999999 48.18203000000001 11.613897 10.03 543.03 -2.32 -0.97 0.01 2.8099999999999996 3.05 107.75 0.2872281323269009 0.04011234224026313 0.7876065007349797 1.114136436887332 0.025000000000000033 5.744562646877156e-06 4.19523539292827e-06 0.04582575694955824 0.04582575694956882 0.05999999999999997 0.07810249675906657 0.03 0.16999999999999998 0.2729468812791236 0.049999999999997165
35.45 2.3970000000000002 43.08299999999999 2.002 6.917999999999999 48.182010500000004 11.613881899999999 10.0 543.0 -2.08 -1.17 0.0 3.1999999999999997 2.57 107.67 0.2872281323269009 0.05710516614107693 0.7157520520403701 0.8028424502976906 0.17786511743453243 5.315072906316503e-06 4.700000000364046e-06 0.0 0.0 0.08717797887081355 0.06403124237432845 0.0 0.2280350850198276 0.17349351572897465 0.045825756949562306
36.45 2.286 45.464999999999996 2.192 7.697 48.1819931 11.6138642 10.0 543.0 -1.83 -1.37 0.0 3.2 2.65 107.7 0.2872281323269009 0.03693237062523871 0.6494035725186615 0.21264054176003225 0.27856956043329645 4.763402145238836e-06 5.230678732137725e-06 0.0 0.0 0.06403124237432845 0.04582575694955834 0.0 0.07745966692414824 0.10246950765959595 0.0
37.45 2.2250000000000005 47.69199999999999 1.8820000000000003 8.813999999999998 48.181977399999994 11.6138447 10.0 543.0 -1.67 -1.47 0.0 3.1 2.8999999999999995 107.7 0.2872281323269009 0.036945906403822316 0.6555730317821198 0.7172558818162456 0.3694915425283778 4.43170396171524e-06 6.116371473232669e-06 0.0 0.0 0.04582575694955834 0.04582575694955844 0.0 0.12649110640673522 0.07745966692414841 0.0
38.45 2.218 49.994 1.5870000000000002 10.241 48.181962500000004 11.613823 9.930000000000001 542.93 -1.57 -1.5699999999999998 0.0 2.8999999999999995 3.0300000000000002 107.7 0.2872281323269009 0.034292856398964414 0.701601026225019 0.9425714827003838 0.4443973447265407 4.272001873598944e-06 6.480740698217334e-06 0.04582575694955823 0.04582575694956882 0.04582575694955844 0.04582575694955844 0.0 0.06324555320336764 0.07810249675906661 0.0
39.45 2.1900000000000004 52.254 1.8310000000000002 11.845 48.1819483 11.6138011 9.98 542.98 -1.5 -1.6 0.0 2.7600000000000002 3.0000000000000004 107.7 0.2872281323269009 4.440892098500626e-16 0.5999199946659561 0.7016045894946811 0.4663957546976604 3.822302970516301e-06 6.394528911388859e-06 0.039999999999999855 0.0400000000000091 0.0 0.0 0.0 0.09165151389911669 0.08944271909999167 0.0
40.45 2.2060000000000004 54.452999999999996 1.4169999999999998 13.532 48.1819352 11.6137788 10.059999999999999 543.0600000000001 -1.5 -1.6300000000000001 0.0 2.62 3.1100000000000003 107.7 0.2872281323269009 0.03200000000000003 0.6553785165841189 0.9840939995752439 0.5087003046981593 3.8418745427100506e-06 6.5543878434594065e-06 0.04898979485566339 0.0489897948556747 0.0 0.04582575694955834 0.0 0.11661903789690597 0.07000000000000006 0.0
41.45 1.9300000000000002 56.59599999999999 1.012 15.296000000000001 48.1819227 11.6137567 10.099999999999998 543.1000000000001 -1.3 -1.39 0.0 -1.45 -4.02 107.96000000000001 0.2872281323269009 0.4032864986582119 0.5825667343746986 0.8096270746460991 0.47657528261545423 3.3481338077221334e-06 5.586591089306148e-06 1.7763568394002505e-15 1.1368683772161603e-13 0.282842712474619 0.30479501308256346 0.0 4.189809064862025 7.344902994594278 0.31999999999999956
42.45 0.20800000000000002 57.64399999999999 0.302 16.124000000000002 48.1819167 11.6137482 10.030000000000001 543.03 -0.15000000000000002 -0.13 0.02 -1.0999999999999999 -4.4399999999999995 107.92 0.2872281323269009 0.24136279746472944 0.08452218643646148 0.2514676917617848 0.06545227268781438 7.810249679841345e-07 4.000000004111826e-07 0.06403124237432825 0.06403124237434304 0.15000000000000002 0.2002498439450079 0.04 2.117545749210628 3.4372081694305336 0.3429285639896451
43.45 0.0 57.873000000000005 0.195 16.208 48.181916 11.613749 10.129999999999999 543.13 0.0 0.0 -0.97 1.1 -0.32999999999999996 107.66000000000001 0.2872281323269009 0.0 0.051584881506115544 0.09718538984847465 0.012489995996796417 0.0 0.0 0.28653097563788776 0.2865309756379052 0.0 0.0 0.7707788269017254 0.37148351242013417 0.4859012245302537 0.04898979485566774
44.45 0.02 58.065 0.14900000000000002 16.156 48.181916 11.613749600000002 11.739999999999998 544.74 0.0 0.02 -1.97 -0.21999999999999997 -0.05 107.6 0.2872281323269009 0.04 0.0708872343937896 0.11894956914591999 0.020099751242242413 0.0 8.000000000230045e-07 0.5332916650389352 0.5332916650389435 0.0 0.04 0.04582575694955844 0.5775811631277461 0.18027756377319948 0.0
45.45 0.06000000000000001 58.36800000000001 0.217 16.054000000000002 48.181916 11.613752999999999 13.7 546.7 0.0 0.06000000000000001 -1.95 1.97 0.31 107.6 0.2872281323269009 0.048989794855663564 0.08576712656956707 0.108816359064251 0.027276363393971315 0.0 9.999999999621422e-07 0.5744562646538027 0.5744562646538107 0.0 0.048989794855663564 0.05000000000000005 0.49406477308142493 0.33600595232822883 0.0
46.45 0.0 58.53000000000001 0.06999999999999999 16.025 48.181916 11.613754499999999 15.64 548.6400000000001 0.0 0.0 -1.9600000000000002 1.6799999999999997 0.35000000000000003 107.60999999999999 0.2872281323269009 0.0 0.021908902300205854 0.09044335243676009 0.012845232578664786 0.0 4.999999996257998e-07 0.5660388679233966 0.5660388679234016 0.0 0.0 0.048989794855663606 0.26381811916545833 0.24596747752497686 0.030000000000002556
47.45 0.0 58.641999999999996 0.091 16.095000000000002 48.181915700000005 11.6137541 17.68 550.68 0.0 0.0 -1.97 1.39 -0.10999999999999999 107.6 0.2872281323269009 0.0 0.03627671429443433 0.0587281874401041 0.029748949561286788 4.5825757159471073e-07 2.999999997754799e-07 0.5688585061331156 0.5688585061331238 0.0 0.0 0.04582575694955844 0.20223748416156684 0.3419064199455752 0.0
48.45 0.0 58.79600000000001 0.13599999999999998 16.144 48.1819153 11.613753500000001 19.7 552.7 0.0 0.0 -1.9899999999999998 1.3800000000000001 -0.09 107.6 0.2872281323269009 0.0 0.04841487374764105 0.10258654882585728 0.026153393661244355 4.5825757159471073e-07 4.999999996257998e-07 0.5744562646538028 0.5744562646538107 0.0 0.0 0.03000000000000003 0.2785677655436824 0.23853720883753127 0.0
49.45 0.0 58.919000000000004 0.09 16.212999999999997 48.1819147 11.6137539 21.72 554.7199999999999 0.0 0.0 -2.0 1.3199999999999998 -0.26 107.6 0.2872281323269009 0.0 0.03534119409414495 0.08426149773176358 0.020024984394501236 4.5825756833859485e-07 2.999999997754799e-07 0.5996665740225978 0.5996665740226017 0.0 0.0 0.0 0.12489995996796795 0.2615339366124404 0.0
50.45 0.0 59.051 0.068 16.303 48.1819137 11.613754 23.79 556.79 0.0 0.0 -2.0 1.3299999999999998 -0.009999999999999986 107.60999999999999 0.2872281323269009 0.0 0.03832753579347441 0.047286361670147554 0.029342801502242548 4.5825756833859485e-07 0.0 0.5838664230798001 0.5838664230797993 0.0 0.0 0.0 0.20024984394500786 0.27730849247724093 0.030000000000002556
51.45 0.0 59.188 0.125 16.391 48.1819129 11.6137543 25.550000000000004 558.55 0.0 0.0 -1.09 1.6199999999999999 -0.2899999999999999 107.58 0.2872281323269009 0.0 0.04578209256903959 0.08224962005991274 0.02118962010041693 3.00000001374201e-07 4.5825756915262385e-07 0.3263433774416145 0.32634337744160324 0.0 0.0 0.8018104514160439 0.32186953878862173 0.29816103031751146 0.05999999999999943
52.6 0.0 59.346000000000004 0.064 16.512 48.181911400000004 11.613755 25.860000000000003 558.86 0.0 0.0 0.0 1.98 -2.3600000000000003 107.6 0.3162277660168375 0.0 0.054990908339469374 0.082365041127896 0.04445222154178543 4.898979473197623e-07 0.0 0.048989794855662516 0.0489897948556747 0.0 0.0 0.0 0.13266499161421605 2.725876005984131 0.08944271909999287
53.45 0.507 59.645 0.484 16.406000000000002 48.1819122 11.6137568 25.9 558.8999999999999 0.5 0.13 0.0 1.8800000000000001 -5.89 107.53 0.2872281323269009 0.255266527378738 0.17602556632489366 0.3422338381866995 0.1653602128687546 1.399999999612029e-06 1.1661903790711392e-06 0.0 1.1368683772161603e-13 0.23237900077244503 0.07810249675906655 0.0 0.09797958971132711 0.16999999999999996 0.04582575694955579
54.45 1.182 60.563 0.9840000000000002 15.493 48.181919699999995 11.6137619 25.9 558.8999999999999 1.12 0.39 0.0 1.36 -5.749999999999999 107.6 0.2872281323269009 0.15619218930535544 0.3508860213801618 0.4382054312762451 0.3431923658824598 2.8999999994406107e-06 1.8138357150486902e-06 0.0 1.1368683772161603e-13 0.13999999999999999 0.08306623862918076 0.0 0.36110940170535577 0.30083217912982646 0.04472135954999643
55.45 1.5400000000000003 61.924 0.9570000000000001 14.137 48.181930900000005 11.613769999999999 25.869999999999997 558.8700000000001 1.35 0.7500000000000001 0.0 -0.5700000000000001 -3.79 107.65 0.2872281323269009 0.05865151319446077 0.45000444442249804 0.6678031146977378 0.41679851247335337 3.300000000733104e-06 3.1622776602733562e-06 0.04582575694955742 0.04582575694956882 0.04999999999999994 0.12041594578792299 0.0 0.4148493702538308 0.7217340230306454 0.05000000000000426
56.45 1.6819999999999997 63.54799999999999 1.3349999999999997 12.677 48.1819425 11.613783600000001 25.759999999999998 558.76 1.2599999999999998 1.1199999999999999 0.0 -0.74 -3.31 107.66000000000001 0.2872281323269009 0.027495454169735062 0.4363439010688702 0.5855296747390348 0.40772662410002125 3.201562119288771e-06 4.43170396136251e-06 0.04898979485566426 0.048989794855619 0.048989794855663606 0.09797958971132713 0.0 0.21540659228538017 0.25865034312755125 0.04898979485566774
57.45 1.842 65.34700000000001 1.335 11.283 48.181953500000006 11.6138011 25.639999999999997 558.6400000000001 1.1999999999999997 1.4 0.0 -0.39 -3.2600000000000002 107.66000000000001 0.2872281323269009 0.04749736834815164 0.543710400856928 0.7247930739183426 0.382963444730695 2.87228132269644e-06 5.593746508644644e-06 0.048989794855662516 0.0489897948556747 2.220446049250313e-16 0.06324555320336757 0.0 0.1044030650891055 0.11135528725660034 0.04898979485566774
58.44444444444444 1.9222222222222223 67.24444444444445 1.6944444444444444 10.103333333333333 48.18196344444445 11.613821333333334 25.6 558.6 1.1 1.577777777777778 -0.044444444444444446 -0.2111111111111111 -3.066666666666667 107.63333333333334 0.30225490019412043 0.03325917677132386 0.5761965542554057 0.9360687428592115 0.3244482495971687 3.0225490022330954e-06 6.497862896748941e-06 0.0 0.0 0.0 0.041573970964154945 0.049690399499995326 0.10999438818457406 0.17638342073763938 0.047140452079107185
59.45 2.036 69.28699999999999 1.748 9.145999999999999 48.181974100000005 11.613843899999999 25.55 558.55 1.1900000000000002 1.6599999999999997 -0.06999999999999999 1.02 -3.96 107.6 0.2872281323269009 0.024979991993593614 0.608375706286832 0.6684429669014403 0.24690889007891134 3.4770677308458824e-06 6.533758489506462e-06 0.05000000000000071 0.05000000000001137 0.08306623862918072 0.048989794855663495 0.045825756949558406 0.6705221845696084 0.5885575587824864 0.06324555320336848
60.45 2.127 71.474 2.12 8.334 48.1819872 11.6138657 25.639999999999997 558.64 1.4899999999999998 1.5100000000000002 -0.030000000000000006 2.4400000000000004 -5.290000000000001 107.53 0.2872281323269009 0.031638584039112766 0.6291931341011272 0.10079682534683326 0.20519259245888968 4.1182520570049484e-06 6.116371473136828e-06 0.048989794855662516 0.0489897948556747 0.1135781669160055 0.08306623862918083 0.045825756949558406 0.5083306010855534 0.38587562763149474 0.06403124237432484
61.45 2.254 73.651 1.591 7.694 48.1820026 11.6138847 25.7 558.7 1.8399999999999999 1.2899999999999998 0.0 2.3299999999999996 -5.31 107.53 0.2872281323269009 0.046303347611160776 0.6803888594032098 0.9229241572307011 0.15882065356873457 4.882622245375191e-06 5.1778373863431115e-06 0.0 0.0 0.09165151389911678 0.06999999999999999 0.0 0.6293647591023825 0.31448370387032776 0.04582575694955579
62.4875 2.3825000000000003 76.12875 1.90375 7.4625 48.18202125 11.61390325 25.7875 558.7874999999999 2.0 1.2875 0.0 0.625 -4.4625 107.58749999999999 0.2934173648576372 0.019843134832984447 0.6985062186552105 1.4444370659533767 0.0533268225192539 5.425633603850653e-06 5.4256336034004766e-06 0.03307189138830785 0.033071891388277305 0.0 0.03307189138830741 0.0 0.2277608394786075 0.18666480653835082 0.033071891388305505
63.45 2.357 78.44200000000001 1.614 7.973000000000001 48.182038500000004 11.613920799999999 25.729999999999997 558.7299999999999 1.9499999999999997 1.32 0.0 0.37 -3.94 107.62 0.2872281323269009 0.03900000000000013 0.7774548218385422 1.0607846152730536 0.25787787807409934 4.759201613420438e-06 5.230678732531666e-06 0.04582575694955905 0.045825756949516724 0.050000000000000044 0.03999999999999995 0.0 0.24515301344262527 0.1428285685708571 0.06000000000000227
64.45 2.36 80.816 1.9129999999999998 9.142000000000001 48.182055500000004 11.613939199999999 25.7 558.7 1.8999999999999997 1.4 0.0 0.13 -3.839999999999999 107.60999999999999 0.2872281323269024 0.0 0.6930396814035988 0.7260034435180043 0.3975877261687036 4.7592016130471915e-06 5.230678732422992e-06 0.0 0.0 2.220446049250313e-16 0.0 0.0 0.10999999999999999 0.08 0.03000000000000256
65.3875 2.29 82.97375 1.4949999999999999 10.61 48.182071 11.61395675 25.7 558.7 1.8125 1.4 0.0 0.375 -3.9875 107.6 0.27128168017763377 0.02645751311064593 0.6523598987522157 0.8692381721944796 0.4742362280551753 4.387482193145336e-06 5.425633603533484e-06 0.0 0.0 0.03307189138830734 0.0 0.0 0.21065374432940895 0.13635890143294654 0.07071067811865576
66.6 2.3228571428571425 85.26285714285714 0.8757142857142857 12.848571428571429 48.18209085714285 11.613980285714286 25.699999999999996 558.6999999999999 1.8000000000000003 1.5 0.0 0.3142857142857142 -3.9428571428571426 107.57142857142858 0.2000000000000008 0.027105237087157567 0.8701348710846772 1.4483671312684419 0.3808047332924831 3.226168512229848e-06 3.6533462437970876e-06 3.552713678800501e-15 1.1368683772161603e-13 2.220446049250313e-16 0.0 0.0 0.2849991049037144 0.1178030178747902 0.04517539514526
67.45 2.34 87.72500000000001 1.2650000000000001 14.562999999999999 48.1821044 11.613997300000001 25.7 558.7 1.8 1.5 0.0 0.8400000000000001 -3.9299999999999997 107.55999999999999 0.2872281323269024 0.0 0.684912403158243 0.9839944105532307 0.5955677963086989 4.431703961170113e-06 6.116371473598606e-06 0.0 0.0 0.0 0.0 0.0 0.36660605559646725 0.219317121994613 0.048989794855660775
68.45 2.34 90.025 1.629 16.688000000000002 48.1821201 11.614017999999998 25.74 558.74 1.8 1.5 0.0 0.7999999999999999 -3.9799999999999995 110.39000000000001 0.2872281323269024 0.0 0.7143563536499128 1.0785309453140415 0.6225720841798158 4.763402144925584e-06 5.744562646598854e-06 0.04898979485566426 0.048989794855619 0.0 0.0 0.0 0.41472882706655445 0.1599999999999999 3.8870168510054093
69.45 2.304 92.33599999999998 1.078 18.887999999999998 48.182136 11.6140392 25.759999999999998 558.76 1.67 1.6199999999999999 0.0 0.74 -3.28 126.71 0.2872281323269024 0.049234134500364804 0.4926296783589068 0.8084281044100334 0.6400906185845883 4.358898943457161e-06 6.554387843150446e-06 0.04898979485566426 0.048989794855619 0.07810249675906651 0.05999999999999996 0.0 0.38262252939417984 0.24000000000000002 1.326989073052221
70.38571428571429 1.7428571428571427 94.16 0.6871428571428572 20.74142857142857 48.18214757142857 11.614058 25.72857142857143 558.7285714285715 0.9857142857142859 1.1285714285714286 0.0 3.5142857142857147 8.014285714285714 127.65714285714286 0.31815796359028836 0.7030487543694308 0.4478201169474803 1.0904876273053823 0.3699586297886593 2.1946130710272484e-06 3.9641248360944795e-06 0.045175395145263204 0.045175395145221474 0.5329930887479323 0.5921251936017916 0.0 1.2910998317365716 5.804045035620433 0.1761261143705445
71.45 0.028000000000000004 94.953 0.147 21.145 48.18214999999999 11.6140619 25.729999999999997 558.7299999999999 0.01 0.01 0.0 2.31 0.8 127.36000000000001 0.2872281323269024 0.05600000000000001 0.06573431371817821 0.10227903010881557 0.028017851452243742 7.105427357601002e-15 5.385164809041746e-07 0.04582575694955905 0.045825756949516724 0.03 0.03 0.0 0.5281098370604358 1.3594116374373144 0.08000000000000185
72.35000000000001 0.0 95.10625 0.13875 21.085 48.18215 11.614061 25.7125 558.7125000000001 0.0 0.0 -0.15000000000000002 2.375 -0.275 127.375 0.22912878474779255 0.0 0.03425547401511261 0.09532018411648185 0.01581138830084212 0.0 0.0 0.03307189138830785 0.033071891388277305 0.0 0.0 0.2645751311064591 0.14790199457749037 0.4763139720814413 0.043301270189225624
73.0 0.0 95.17 0.09 21.07 48.18215 11.614061 26.2 559.2 0.0 0.0 -1.8 2.5 -1.0 127.4 0.0 0.0 0.0 0.0 0.0 0.0 0.0 0.0 0.0 0.0 0.0 0.0 0.0 0.0 0.0
72.85 0.0 95.205 0.0 21.055 48.18215 11.614061 25.95 558.95 0.0 0.0 -1.35 2.7 -1.6 127.3 0.05000000000000426 0.0 0.03499999999999659 0.0 0.015000000000000568 0.0 0.0 0.05000000000000071 0.05000000000001137 0.0 0.0 0.15000000000000002 0.09999999999999987 0.09999999999999998 0.0
73.5375 0.0 95.27875 0.0575 21.052500000000002 48.182149375 11.614061 27.2125 560.2124999999999 0.0 0.0 -1.8125 2.55 -1.2875 127.32499999999999 0.24968730444297912 0.0 0.022043990110685495 0.06098155458825234 0.006614378277661 4.841229170536342e-07 0.0 0.4594493987372275 0.4594493987372378 0.0 0.0 0.07806247497997995 0.19364916731037088 0.4013648589500581 0.043301270189225624
74.45 0.0 95.38400000000001 0.10700000000000001 21.119000000000007 48.18214999999999 11.614061900000001 28.9 561.9 0.0 0.0 -1.9199999999999995 2.64 -0.43999999999999995 127.35 0.2872281323269024 0.0 0.043863424398924385 0.08764131445842195 0.033896902513357044 7.105427357601002e-15 3.000000003083869e-07 0.5744562646538031 0.574456264653795 0.0 0.0 0.040000000000000036 0.11999999999999994 0.397994974842648 0.05000000000000426
75.48888888888888 0.0 95.49666666666666 0.034444444444444444 21.18 48.18215 11.614062666666666 30.977777777777778 563.9777777777778 0.0 0.0 -1.9777777777777779 2.677777777777778 -0.2 127.40000000000002 0.27666443551086095 0.0 0.02054804667656352 0.03337034981706935 0.004714045207910216 0.0 4.7140452043823233e-07 0.5533288710217216 0.5533288710217195 0.0 0.0 0.041573970964154945 0.13146843962443586 0.16996731711975951 1.4210854715202004e-14
76.45 0.0 95.55600000000001 0.023 21.167 48.18214999999999 11.614062100000002 32.84 565.84 0.0 0.0 -1.95 2.9699999999999998 -0.63 127.37 0.2872281323269024 0.0 0.017435595774163627 0.038742741255621035 0.007810249675907284 7.105427357601002e-15 2.999999997754799e-07 0.5624944444170097 0.5624944444170148 0.0 0.0 0.05000000000000005 0.17916472867168923 0.10999999999999999 0.0458257569495623
77.45 0.0 95.638 0.075 21.143 48.18214999999999 11.614062 34.82 567.8199999999999 0.0 0.0 -1.94 3.16 -0.7 127.37 0.2872281323269024 0.0 0.035440090293340554 0.10072239075796405 0.0064031242374322965 7.105427357601002e-15 0.0 0.5861740355901144 0.5861740355901234 0.0 0.0 0.048989794855663606 0.22449944320643647 0.2966479394838265 0.0458257569495623
78.45 0.0 95.724 0.042 21.137999999999998 48.18214999999999 11.614062 36.9 569.9 0.0 0.0 -2.0 3.6399999999999997 -0.63 127.33 0.2872281323269024 0.0 0.019078784028341077 0.05015974481593781 0.008717797887080998 7.105427357601002e-15 0.0 0.5744562646538024 0.574456264653795 0.0 0.0 0.0 0.37202150475476553 0.39761790704142086 0.0458257569495623
79.45 0.0 95.799 0.038000000000000006 21.108999999999998 48.1821493 11.614062 38.9 571.9 0.0 0.0 -1.98 4.120000000000001 -1.06 127.33 0.2872281323269024 0.0 0.023853720883754786 0.04308131845707603 0.008306623862917834 4.582575683385948e-07 0.0 0.5744562646538024 0.574456264653795 0.0 0.0 0.040000000000000036 0.1720465053408527 0.22000000000000003 0.0458257569495623
80.45 0.0 95.883 0.056999999999999995 21.095 48.1821493 11.614062 40.980000000000004 573.98 0.0 0.0 -2.0 3.9300000000000006 -1.1099999999999999 127.31999999999998 0.2872281323269024 0.0 0.02722131517763296 0.07416872656315464 0.008062257748298489 4.5825756833859485e-07 0.0 0.6029925372672529 0.6029925372672457 0.0 0.0 0.0 0.16155494421403505 0.12206555615733701 0.04000000000000341
81.45 0.0 95.959 0.044 21.073999999999998 48.1821491 11.6140614 43.0 576.0 0.0 0.0 -1.97 3.6399999999999997 -1.2899999999999998 127.3 0.2872281323269024 0.0 0.014456832294799117 0.05180733538795447 0.006633249580710338 2.9999999924257285e-07 4.898979490602294e-07 0.5744562646538028 0.5744562646538028 0.0 0.0 0.04582575694955844 0.13564659966250533 0.14456832294800961 0.0
82.45 0.0 96.015 0.031 21.079 48.1821499 11.614060999999998 45.0 578.0 0.0 0.0 -1.97 3.8900000000000006 -0.89 127.31999999999998 0.2872281323269024 0.0 0.022912878474778516 0.04323193264243457 0.006999999999999724 2.999999992425728e-07 1.7763568394002505e-15 0.5744562646538028 0.5744562646538028 0.0 0.0 0.04582575694955844 0.12206555615733693 0.17578395831246946 0.04000000000000341
83.45 0.0 96.08200000000001 0.027000000000000003 21.075 48.18214999999999 11.614060999999998 47.0 580.0 0.0 0.0 -1.94 3.65 -1.02 127.30999999999999 0.2872281323269024 0.0 0.019899748742131296 0.044508426168535786 0.004999999999999005 7.105427357601002e-15 1.7763568394002505e-15 0.5744562646538028 0.5744562646538028 0.0 0.0 0.048989794855663606 0.20615528128088295 0.19390719429665318 0.030000000000002556
84.45 0.0 96.15599999999999 0.039 21.061 48.18214999999999 11.614060999999998 48.71 581.71 0.0 0.0 -1.2 3.9799999999999995 -1.2100000000000002 127.32000000000001 0.2872281323269024 0.0 0.03583294573433998 0.07828793010419934 0.006999999999999978 7.105427357601002e-15 1.7763568394002505e-15 0.34190641994557575 0.3419064199455844 0.0 0.0 0.3464101615137755 0.1661324772583615 0.13 0.04000000000000341
91.7 0.0 96.39 0.125 20.985 48.182151 11.614059 50.0 583.0 0.0 0.0 0.0 3.25 -1.95 127.3 0.20000000000000284 0.0 0.010000000000005116 0.015000000000000006 0.004999999999999005 0.0 0.0 0.0 0.0 0.0 0.0 0.0 0.04999999999999982 0.050000000000000044 0.0
92.75 0.0 96.41 0.06999999999999999 20.985 48.182151 11.614059 49.9 582.9 0.0 0.0 0.0 3.1500000000000004 -1.95 127.3 0.15000000000000568 0.0 0.0 0.049999999999999996 0.004999999999999005 0.0 0.0 0.0 0.0 0.0 0.0 0.0 0.050000000000000044 0.050000000000000044 0.0
93.32000000000001 0.0 96.45 0.054000000000000006 20.982000000000003 48.182151 11.614059 49.9 582.9 0.0 0.0 0.0 3.0 -1.9400000000000002 127.3 0.2315167380558046 0.0 0.02280350850198321 0.07472616676907763 0.003999999999999204 0.0 0.0 0.0 0.0 0.0 0.0 0.0 0.08944271909999167 0.10198039027185572 0.0
94.5 0.0 96.52666666666667 0.042222222222222223 20.968888888888888 48.182151222222224 11.614058 49.9 582.9 0.0 0.0 0.0 3.1 -1.9222222222222223 127.30000000000001 0.2581988897471623 0.0 0.021602468994691735 0.052020888492087226 0.005665577237324963 4.157397115459155e-07 0.0 0.0 0.0 0.0 0.0 0.0 0.06666666666666672 0.23934065809486688 1.4210854715202004e-14
95.45 0.11600000000000002 96.639 0.127 20.925999999999995 48.1821513 11.6140577 49.89999999999999 582.8999999999999 -0.11000000000000001 -0.06999999999999999 0.0 3.4799999999999995 1.7399999999999998 127.39000000000001 0.2872281323269024 0.12642784503423285 0.0755579247994531 0.15251557297535226 0.06858571279792902 7.810249688029156e-07 4.5825756915262385e-07 7.105427357601002e-15 1.1368683772161603e-13 0.12206555615733702 0.07810249675906654 0.0 0.08717797887081355 1.6788091017146647 0.05385164807134673
96.45 0.812 97.22800000000001 0.46900000000000003 20.363999999999997 48.1821468 11.6140528 49.89999999999999 582.8999999999999 -0.66 -0.51 0.0 2.98 3.79 127.44000000000001 0.2872281323269024 0.18070971196922428 0.2387802336877987 0.3482657031635472 0.2466252217434383 1.9390719427612068e-06 2.1817424229715613e-06 7.105427357601002e-15 1.1368683772161603e-13 0.16248076809271922 0.11357816691600545 0.0 0.27129319932501067 0.22999999999999993 0.04898979485566078
97.45 1.408 98.446 0.6369999999999999 19.236 48.182138 11.614043 49.82 582.8199999999999 -1.1800000000000002 -0.8100000000000002 0.0 2.65 3.2299999999999995 127.40000000000002 0.2872281323269024 0.15471263684650974 0.4593734863920682 0.5485444375800378 0.39910399647209777 3.4641016150066116e-06 3.4641016152630067e-06 0.04000000000000057 0.0400000000000091 0.12489995996796795 0.07000000000000002 0.0 0.0921954445729289 0.15524174696260018 1.4210854715202004e-14
98.45 1.752 99.845 0.383 17.707 48.182124900000005 11.6140298 49.849999999999994 582.8499999999999 -1.5299999999999998 -0.9800000000000001 0.0 2.73 2.6500000000000004 127.42000000000003 0.2872281323269024 0.11762652762026087 0.6441467224165601 0.7691300280186699 0.47176371204237455 4.205948168834644e-06 4.118252056383822e-06 0.05000000000000071 0.050000000000011376 0.09000000000000004 0.039999999999999994 0.0 0.10049875621120881 0.233452350598575 0.039999999999997725
99.2 1.9599999999999997 101.34400000000001 0.21000000000000002 16.428 48.182113799999996 11.6140188 49.9 582.9 -1.72 -1.1 0.0 2.6799999999999997 2.6199999999999997 127.4 0.14142135623731153 0.09033271832508973 0.5599857141034926 0.42000000000000004 0.24326117651610618 2.135415651004214e-06 2.1354156505716496e-06 0.0 0.0 0.040000000000000036 0.0 0.0 0.040000000000000036 0.09797958971132706 0.0
100.75 2.2325 105.0225 7.2 13.6975 48.182087 11.613994 50.1 583.1 -1.975 -1.175 0.0 2.675 2.475 127.4 0.11180339887499267 0.056291651245988464 0.3160992723813157 11.063778739653104 0.20017180121086017 2.2360679774151375e-06 2.236067977017932e-06 0.0 0.0 0.04330127018922197 0.04330127018922188 0.0 0.08291561975888491 0.043301270189221974 0.0
101.45 2.357 106.728 1.0939999999999999 12.522 48.1820738 11.613982199999999 50.05 583.05 -2.04 -1.1999999999999997 0.0 2.4499999999999997 2.2399999999999998 127.40000000000002 0.2872281323269024 0.041243181254602496 0.7585617970870951 1.152737611080683 0.4566355220523256 5.473572872912934e-06 4.9558046774002374e-06 0.05000000000000072 0.05000000000001137 0.048989794855663606 2.220446049250313e-16 0.0 0.15000000000000013 0.1019803902718556 1.4210854715202004e-14
102.45 2.429 109.96700000000001 2.183 11.079 48.18205400000001 11.613965199999999 50.0 583.0 -2.12 -1.1999999999999997 0.0 2.3899999999999997 2.3099999999999996 127.42000000000003 0.2872281323269024 0.026999999999999958 1.068298179348817 1.4386802980509603 0.35817453845855635 5.744562646258708e-06 4.8124837661998945e-06 0.0 0.0 0.040000000000000036 2.220446049250313e-16 0.0 0.03000000000000003 0.1135781669160054 0.039999999999997725
103.45 2.4850000000000003 112.925 1.2489999999999999 10.104 48.182034 11.6139486 50.0 583.0 -2.2 -1.15 0.0 2.68 2.07 127.40000000000002 0.2872281323269024 0.02499999999999991 0.7978377027942489 1.13214354213589 0.19719026345131746 5.7445626463823975e-06 4.673328578066574e-06 0.0 0.0 0.0 0.04999999999999993 0.0 0.040000000000000036 0.2758622844826744 1.4210854715202004e-14
104.26000000000002 2.4799999999999995 115.04 0.99 9.76 48.182017800000004 11.613935399999999 50.0 583.0 -2.2 -1.14 0.0 2.62 2.1 127.46 0.2154065922853798 0.024494897427831695 0.6092618484691135 0.5675209247243664 0.0282842712474618 4.308131844726451e-06 3.5552777668236177e-06 0.0 0.0 0.0 0.048989794855663495 0.0 0.0748331477354789 0.1414213562373095 0.04898979485566078
111.5 2.4877777777777776 125.95555555555555 0.9933333333333335 20.513333333333335 48.18186988888889 11.61382311111111 49.92222222222222 582.9222222222221 -2.3 -1.0 0.0 2.588888888888889 1.4222222222222223 127.40000000000002 0.2581988897471623 0.024845199749997576 8.971363219973387 1.1723385934864456 0.589274506867932 5.342584569580447e-06 3.928371006867485e-06 0.0415739709641555 0.041573970964164354 0.0 0.0 0.0 0.08748897637790909 0.16850834320114563 1.4210854715202004e-14
112.45 2.5099999999999993 135.85500000000002 1.613 22.750999999999998 48.18184980000001 11.6138089 49.90999999999999 582.9099999999999 -2.3 -1.0 0.0 2.44 1.44 127.40000000000002 0.2872281323269024 4.440892098500626e-16 0.7157408748981691 1.1144420128476853 0.6815783153827587 6.029925372272215e-06 4.276680956107748e-06 0.030000000000000422 0.030000000000006823 0.0 0.0 0.0 0.06633249580710805 0.19595917942265426 1.4210854715202004e-14
113.41111111111111 2.51 138.39222222222222 1.27 25.003333333333334 48.18182977777778 11.613795000000001 49.93333333333333 582.9333333333333 -2.3 -1.0 0.0 2.3888888888888884 1.4333333333333336 127.38888888888889 0.27666443551086234 0.0 0.7158177573435862 1.0232301793829188 0.6474050766972201 5.533288709437014e-06 3.944053188733894e-06 0.04714045207910384 0.04714045207911389 0.0 0.0 0.0 0.18525924445036743 0.5925462944877059 0.031426968052738126
114.48571428571428 1.3099999999999998 140.57571428571427 0.66 27.071428571428566 48.181811999999994 11.613782857142857 49.89999999999999 582.9 -1.1714285714285715 -0.4714285714285715 0.0 5.385714285714286 -12.085714285714285 126.8142857142857 0.3270149469217046 0.753335440367892 0.4739456612270237 0.7377765825195902 0.39131385180216227 3.4641016143033565e-06 2.1665358414102217e-06 7.105427357601002e-15 0.0 0.6755194524306795 0.3368521749300456 0.0 0.6379175303361746 1.031543325630611 0.15518257844571848
115.45000000000002 0.092 141.1 0.082 27.428000000000004 48.1818089 11.613780300000002 49.91 582.91 -0.04 -0.01 0.0 3.9299999999999997 -4.22 127.28000000000002 0.2872281323269024 0.16172816699635223 0.054221766846899604 0.11530828244319659 0.016613247725835667 3.00000001374201e-07 4.5825756915262385e-07 0.030000000000000426 0.03000000000000682 0.066332495807108 0.03 0.0 0.4605431575867781 1.478377489006106 0.08717797887081535
116.45000000000002 0.0 141.257 0.028000000000000004 27.421 48.181809 11.613780000000002 49.97 582.97 0.0 0.0 0.02 3.79 -2.1100000000000003 127.3 0.2872281323269024 0.0 0.014177446878763374 0.03789459064299283 0.006999999999999724 0.0 1.7763568394002505e-15 0.04582575694955905 0.04582575694956882 0.0 0.0 0.060000000000000005 0.1135781669160054 0.2981610303175115 0.0
117.42500000000001 0.0 141.36374999999998 0.09625 27.466250000000002 48.181808375 11.613780250000001 49.475 582.475 0.0 0.0 0.8625 3.8124999999999996 -1.625 127.32499999999999 0.3152380053229638 0.0 0.03237958461746925 0.08659351881058998 0.017275343701356312 4.841229204935345e-07 4.330127015681524e-07 0.3152380053229615 0.3152380053229495 0.0 0.0 0.17275343701356569 0.2934173648576375 0.4683748498798799 0.06614378277661705
118.45000000000002 0.0 141.49499999999998 0.07600000000000001 27.496000000000002 48.181808 11.6137809 48.55 581.55 0.0 0.0 0.96 4.02 -1.36 127.30999999999999 0.2872281323269024 0.0 0.04410215414240167 0.10528057750601486 0.01854723699099151 0.0 2.999999997754799e-07 0.2872281323269009 0.28722813232689354 0.0 0.0 0.04898979485566356 0.10770329614269016 0.3168595903550972 0.030000000000002556
119.5 0.0 141.60375 0.030000000000000002 27.533749999999998 48.181808 11.613780375000001 47.5 580.5 0.0 0.0 0.975 3.8125 -1.9875 127.275 0.30000000000000127 0.0 0.029127950494320022 0.03640054944640259 0.0069597054535370205 0.0 4.841229179136093e-07 0.29999999999999954 0.29999999999999244 0.0 0.0 0.043301270189221926 0.20271593425283557 0.10532687216470459 0.04330127018921947
120.45000000000002 0.0 141.671 0.049 27.528000000000002 48.181808 11.613780700000001 46.55 579.55 0.0 0.0 0.95 4.08 -1.8499999999999996 127.3 0.2872281323269024 0.0 0.017578395831248098 0.04253234063627347 0.007483314773547914 0.0 4.5825756915262385e-07 0.2872281323269009 0.28722813232689354 0.0 0.0 0.04999999999999999 0.17204650534085256 0.22472205054244235 0.0
121.45000000000002 0.0 141.761 0.122 27.526999999999997 48.181808 11.613781 45.55 578.55 0.0 0.0 0.9400000000000001 3.85 -1.7399999999999998 127.3 0.2872281323269024 0.0 0.04299999999999889 0.13128594745821048 0.015524174696259729 0.0 0.0 0.2872281323269009 0.28722813232689354 0.0 0.0 0.04898979485566355 0.12041594578792288 0.2727636339397171 0.0
122.45000000000002 0.0 141.88 0.023 27.528 48.181808 11.613781 44.55 577.55 0.0 0.0 0.9400000000000001 3.8600000000000003 -1.42 127.3 0.2872281323269024 0.0 0.019493588689610406 0.02368543856465402 0.007483314773547913 0.0 0.0 0.2872281323269009 0.28722813232689354 0.0 0.0 0.04898979485566355 0.10198039027185564 0.25219040425836986 0.0
123.45000000000002 0.0 141.941 0.046 27.503999999999998 48.181808 11.613781 43.55 576.55 0.0 0.0 0.96 3.3299999999999996 -1.56 127.31999999999998 0.2872281323269024 0.0 0.027730849247723472 0.08392854103342916 0.02059126028197487 0.0 0.0 0.2872281323269009 0.28722813232689354 0.0 0.0 0.04898979485566354 0.33778691508109077 0.3006659275674582 0.04000000000000341
124.45000000000002 0.0 142.035 0.098 27.488 48.181808 11.613781 42.55 575.55 0.0 0.0 0.97 2.73 -1.37 127.26000000000002 0.2872281323269024 0.0 0.027294688127911488 0.1156546583584077 0.012489995996797327 0.0 0.0 0.2872281323269009 0.28722813232689354 0.0 0.0 0.04582575694955839 0.31000000000000005 0.4050925820105818 0.08000000000000078
125.45000000000002 0.0 142.152 0.10400000000000001 27.488 48.181808 11.613781 41.480000000000004 574.4800000000001 0.0 0.0 0.99 2.43 -1.41 127.35 0.2872281323269024 0.0 0.03429285639896596 0.08404760555780277 0.014696938456699869 0.0 0.0 0.3249615361854378 0.32496153618542833 0.0 0.0 0.029999999999999992 0.4817675788178362 0.26999999999999996 0.05000000000000426
126.45000000000002 0.0 142.26299999999998 0.07899999999999999 27.538999999999998 48.181808 11.6137813 40.46 573.46 0.0 0.0 0.9400000000000001 3.34 -1.5699999999999998 127.31999999999998 0.2872281323269024 0.0 0.03551056180913033 0.07203471385380801 0.016999999999999585 0.0 4.582575699666528e-07 0.3006659275674578 0.3006659275674524 0.0 0.0 0.04898979485566356 0.6545227268781428 0.29342801502242416 0.04000000000000341
127.45000000000002 0.0 142.372 0.053000000000000005 27.571999999999996 48.1818071 11.613782 39.53 572.53 0.0 0.0 0.9400000000000001 3.9599999999999995 -1.8800000000000001 127.3 0.2872281323269024 0.0 0.027495454169736082 0.06165225056719341 0.007483314773547533 2.999999992425728e-07 0.0 0.2609597670139969 0.2609597670139844 0.0 0.0 0.04898979485566354 0.15620499351813308 0.28213471959331776 0.0
128.45 0.0 142.483 0.05600000000000001 27.555 48.1818076 11.6137821 38.55 571.55 0.0 0.0 0.95 3.650000000000001 -1.69 127.3 0.2872281323269034 0.0 0.03551056180913513 0.11568923891183658 0.017464249196572558 4.898979473197622e-07 2.999999997754799e-07 0.2872281323269009 0.28722813232689354 0.0 0.0 0.049999999999999996 0.08062257748298557 0.17578395831246948 0.0
129.45 0.0 142.58900000000003 0.07200000000000002 27.563999999999993 48.181807199999994 11.613783 37.49 570.49 0.0 0.0 0.9800000000000001 3.65 -1.54 127.3 0.2872281323269034 0.0 0.02913760456866462 0.1013706071797935 0.014282856857085545 3.999999989900971e-07 0.0 0.32695565448543573 0.3269556544854272 0.0 0.0 0.039999999999999994 0.06708203932499365 0.15620499351813313 0.0
130.45 0.0 142.70100000000002 0.07999999999999999 27.636000000000003 48.181807 11.6137829 36.45 569.45 0.0 0.0 1.0 3.6399999999999997 -1.64 127.3 0.2872281323269034 0.0 0.03618010503025157 0.047749345545253286 0.02332380757938104 0.0 2.999999997754799e-07 0.2872281323269009 0.2872281323268935 0.0 0.0 0.0 0.09165151389911681 0.2615339366124404 0.0
131.45 0.0 142.81899999999996 0.089 27.637999999999998 48.1818069 11.613783 35.45 568.45 0.0 0.0 0.95 3.7600000000000002 -1.44 127.3 0.2872281323269034 0.0 0.03477067730142866 0.08814193099768124 0.01886796226411352 2.999999992425728e-07 0.0 0.2872281323269009 0.2872281323268935 0.0 0.0 0.04999999999999999 0.20591260281974 0.3583294573433784 0.0
132.45 0.0 142.94199999999998 0.064 27.620000000000005 48.181807 11.613783 34.45 567.45 0.0 0.0 0.9200000000000002 3.31 -1.4100000000000001 127.31000000000002 0.2872281323269034 0.0 0.04190465367951692 0.10518555033843764 0.01732050807568861 0.0 0.0 0.2872281323269009 0.2872281323268935 0.0 0.0 0.039999999999999994 0.17578395831246946 0.323882694814033 0.03000000000000256
133.45 0.034 143.07 0.11599999999999999 27.591999999999995 48.1818071 11.613783199999999 33.45 566.45 0.030000000000000006 0.01 0.9700000000000001 3.0800000000000005 -3.02 127.25 0.2872281323269034 0.05295280917949491 0.044944410108489326 0.11629273408085306 0.025999999999999964 2.999999992425728e-07 4.0000000041118254e-07 0.2872281323269009 0.2872281323268935 0.045825756949558406 0.030000000000000002 0.04582575694955839 0.10770329614269009 1.0970870521521983 0.049999999999997165
134.45 0.42400000000000004 143.42499999999998 0.302 27.29 48.181809699999995 11.613786000000001 32.51 565.51 0.37 0.26 0.9199999999999999 3.08 -4.44 127.27000000000001 0.2872281323269034 0.15538339679644025 0.16995587662684591 0.2571692049993545 0.14751271131668622 1.268857755489279e-06 1.2649110638228584e-06 0.25475478405713886 0.25475478405712243 0.11 0.10198039027185571 0.039999999999999994 0.124899959967968 0.20099751242241784 0.04582575694955579
135.45 0.566 144.17200000000003 0.514 26.645 48.181815300000004 11.6137914 31.550000000000004 564.55 0.4800000000000001 0.3 0.99 2.75 1.2500000000000002 127.37 0.2872281323269034 0.21832086478392304 0.21664717861075228 0.3135027910561563 0.1800694310536908 1.6763054617272112e-06 1.4966629543253378e-06 0.2872281323269012 0.28722813232689354 0.18330302779823357 0.11832159566199232 0.029999999999999992 0.19621416870348585 4.615463140357639 0.10999999999999995
136.45 0.05 144.522 0.14100000000000001 26.387999999999998 48.1818176 11.613793 30.51 563.51 0.05 0.0 1.0 2.6800000000000006 0.37 127.30999999999999 0.2872281323269034 0.05000000000000001 0.046000000000001914 0.09944345126754199 0.018867962264113143 4.898979473197622e-07 0.0 0.32999999999999974 0.32999999999999236 0.05000000000000001 0.0 0.0 0.08717797887081337 0.7184010022264724 0.03000000000000256
137.45 0.0 144.673 0.125 26.359999999999996 48.181817900000006 11.613793 29.409999999999997 562.4100000000001 0.0 0.0 0.99 2.46 -0.48 127.33 0.2872281323269034 0.0 0.03899999999999769 0.1210991329448729 0.028982753492378627 2.9999999924257285e-07 0.0 0.33 0.3299999999999951 0.0 0.0 0.029999999999999992 0.15620499351813316 0.17204650534085256 0.0458257569495623
138.45 0.0 144.783 0.08600000000000001 26.357 48.18181800000001 11.613793 28.35 561.35 0.0 0.0 0.93 2.25 -0.9299999999999999 127.3 0.2872281323269034 0.0 0.029342801502241594 0.06843975452907469 0.014866068747318823 7.105427357601002e-15 0.0 0.2872281323269017 0.2872281323269014 0.0 0.0 0.04582575694955839 0.08062257748298537 0.3287856444554719 0.0
139.45 0.131 144.88799999999998 0.091 26.332 48.1818181 11.6137934 27.35 560.35 0.12999999999999998 0.06000000000000001 0.9100000000000001 2.61 -4.69 127.29 0.2872281323269034 0.16854969593564978 0.07277362159463684 0.1376553667678816 0.05134199061197383 2.999999992425728e-07 6.633249583244756e-07 0.2872281323269017 0.2872281323269014 0.14866068747318506 0.08 0.029999999999999995 0.43231932642434573 2.275280202524516 0.029999999999998295
140.45 0.841 145.51500000000001 0.658 25.784 48.1818228 11.6137977 26.420000000000005 559.4200000000001 0.7699999999999999 0.39 1.0 3.4 -5.7700000000000005 127.21000000000001 0.2872281323269034 0.20373757630834818 0.28447319733149024 0.4459551546960748 0.2522776248500847 2.271563338403025e-06 1.791647286655013e-06 0.2561249694973138 0.2561249694973127 0.1676305461424021 0.08306623862918076 0.0447213595499958 0.161245154965971 0.4648655719667784 0.05385164807134488
141.45 0.611 146.46200000000005 0.43099999999999994 24.934 48.1818303 11.6138033 25.45 558.45 0.5199999999999999 0.22000000000000003 1.0100000000000002 1.46 4.58 127.37 0.2872281323269034 0.45094234664755095 0.17022338264763112 0.4142088845015278 0.133581435835973 1.0049875625442084e-06 1.0049875619962706e-06 0.2872281323269012 0.2872281323268935 0.38157568056677826 0.1833030277982336 0.08306623862918078 1.2001666550941998 4.216586296994287 0.11874342087037817
142.45 0.030000000000000006 146.73700000000002 0.11500000000000002 24.814 48.1818312 11.6138047 24.330000000000005 557.3299999999999 0.030000000000000006 0.0 1.0 3.0799999999999996 0.61 127.31000000000002 0.2872281323269034 0.045825756949558406 0.06067124524847676 0.19069609330030857 0.020591260281973077 3.999999989900971e-07 4.5825756915262385e-07 0.35791060336346553 0.3579106033634657 0.045825756949558406 0.0 0.0 0.30594117081556704 0.422965719651132 0.08306623862918218
143.45 0.0 146.88400000000001 0.11800000000000002 24.792 48.1818315 11.613805 23.13 556.13 0.0 0.0 1.0 1.8699999999999999 0.62 127.33999999999999 0.2872281323269034 0.0 0.037202150475470826 0.08704022058795578 0.011661903789689865 4.999999987376214e-07 0.0 0.31638584039112755 0.3163858403911189 0.0 0.0 0.0 0.19519221295943137 0.5035871324805667 0.04898979485566774
144.45 0.0 147.03000000000003 0.158 24.806999999999995 48.1818312 11.6138047 22.08 555.08 0.0 0.0 0.9400000000000001 1.8199999999999998 0.15 127.34 0.2872281323269034 0.0 0.051185935568283436 0.13052202879207786 0.02325940669922617 3.999999989900971e-07 4.5825756915262385e-07 0.3155946767611898 0.3155946767611811 0.0 0.0 0.04898979485566356 0.15362291495737215 0.41773197148410846 0.06633249580711065
145.45 0.0 147.185 0.10400000000000001 24.857999999999997 48.181831 11.613804400000001 21.05 554.05 0.0 0.0 0.9400000000000001 2.29 -0.08 127.34 0.2872281323269034 0.0 0.043646305685593995 0.15047923444781344 0.022271057451320155 0.0 4.898979481899958e-07 0.2872281323269012 0.28722813232689354 0.0 0.0 0.04898979485566354 0.08306623862918064 0.4728636167014756 0.06633249580711065
146.45 0.0 147.314 0.10499999999999998 24.868000000000002 48.181831 11.613804400000001 20.06 553.06 0.0 0.0 0.96 2.0999999999999996 0.72 127.38000000000002 0.2872281323269034 0.0 0.03799999999999656 0.1142147100858729 0.017204650534085385 0.0 4.898979481899958e-07 0.2799999999999999 0.2799999999999889 0.0 0.0 0.04898979485566356 0.2683281572999748 0.708237248385031 0.04000000000000341
147.45 0.0 147.444 0.10300000000000001 24.862000000000002 48.181831 11.6138045 19.15 552.15 0.0 0.0 0.9100000000000001 1.89 0.95 127.38 0.2872281323269034 0.0 0.029393876913402346 0.10334892355511013 0.011661903789690292 0.0 4.999999996257998e-07 0.2872281323269017 0.2872281323269014 0.0 0.0 0.029999999999999995 0.09433981132056604 0.3383784863137726 0.04000000000000341
148.45 0.0 147.54899999999998 0.123 24.878999999999998 48.1818307 11.613804100000001 18.23 551.23 0.0 0.0 0.93 1.86 0.8800000000000001 127.35999999999999 0.2872281323269034 0.0 0.04158124577258377 0.12696850003051938 0.020712315177208163 4.5825757159471073e-07 2.999999997754799e-07 0.2609597670139979 0.260959767014007 0.0 0.0 0.04582575694955839 0.14966629547095764 0.3736308338453881 0.04898979485566774
149.45 0.0 147.702 0.121 24.904000000000003 48.1818304 11.6138046 17.259999999999998 550.26 0.0 0.0 0.9100000000000001 1.9499999999999997 0.6900000000000001 127.35999999999999 0.2872281323269034 0.0 0.04237924020083601 0.1277066952042844 0.023748684174075718 4.898979508006965e-07 4.898979481899958e-07 0.2870540018881465 0.2870540018881626 0.0 0.0 0.029999999999999995 0.11180339887498955 0.23853720883753127 0.048989794855667734
150.45 0.0 147.82199999999997 0.06000000000000001 24.966 48.18183 11.613804 16.32 549.3199999999999 0.0 0.0 0.9400000000000001 1.9099999999999997 -0.3 127.33999999999999 0.2872281323269034 0.0 0.027856776554367798 0.044944410108488465 0.011135528725660189 0.0 0.0 0.28565713714171403 0.2856571371417121 0.0 0.0 0.04898979485566356 0.10440306508910552 0.2863564212655271 0.04898979485566774
151.45 0.0 147.951 0.052000000000000005 24.931 48.1818302 11.613804 15.38 548.38 0.0 0.0 0.9 1.9200000000000004 -0.15 127.24000000000001 0.2872281323269034 0.0 0.04968903299522195 0.09195651146058119 0.02467792535850593 4.00000001832268e-07 0.0 0.25219040425836997 0.25219040425836226 0.0 0.0 0.0 0.2181742422927143 0.2692582403567252 0.06633249580710723
152.45 0.0 148.116 0.11399999999999999 24.877000000000002 48.1818308 11.613804300000002 14.479999999999999 547.48 0.0 0.0 0.9 2.0599999999999996 -0.43 127.29 0.2872281323269034 0.0 0.03773592452822463 0.09189124006128113 0.027586228448267015 4.00000001832268e-07 4.5825756915262385e-07 0.2521904042583699 0.25219040425836403 0.0 0.0 0.0 0.2009975124224178 0.33481338085566414 0.07000000000000049
