"avg_Time (s)" avg_latitude avg_longitude avg_altitude(m) avg_speed(mps) avg_distance(m) avg_velocityX(mps) avg_velocityY(mps) avg_velocityZ(mps) avg_pitch(deg) avg_roll(deg) avg_yaw(deg) avg_timestamp "stdDev_Time (s)" stdDev_latitude stdDev_longitude stdDev_altitude(m) stdDev_speed(mps) stdDev_distance(m) stdDev_velocityX(mps) stdDev_velocityY(mps) stdDev_velocityZ(mps) stdDev_pitch(deg) stdDev_roll(deg) stdDev_yaw(deg) stdDev_timestamp
0.4668235294117647 48.04824558823529 11.654937647058821 0.4235294117647058 0.5188235294117647 0.4617647058823529 -0.28823529411764703 0.0 -0.4294117647058824 -0.9176470588235295 1.2823529411764705 -33.188235294117646 1574690000000.0 0.2932676423245532 1.140630556720912e-06 4.778846116797604e-07 0.1394502304838788 0.031037425784171565 0.5399589885746514 0.03221897397089212 0.0 0.04556450995538137 1.0427538732310746 0.3729615878622908 0.05823232315653843 0.0
1.4786666666666666 48.04824313333332 11.65493826666667 1.0266666666666668 0.6393333333333332 0.6226666666666666 -0.06666666666666667 0.03333333333333333 -0.6266666666666667 -1.6000000000000003 1.24 -33.18 1574690000000.0 0.3135269614491799 3.3993463338126665e-07 1.289271973552084e-06 0.2619584360585133 0.059494164046194925 0.05026153819992203 0.06992058987801011 0.047140452079103175 0.06798692684790379 0.2708012801545319 0.7209253313161726 0.04000000000000057 0.0
2.4408333333333334 48.04824216666666 11.654941277777779 1.7555555555555555 0.6644444444444445 0.7961111111111111 0.01666666666666667 0.01666666666666667 -0.661111111111111 -1.7277777777777779 0.2888888888888889 -33.14444444444445 1574690000000.0 0.29264735129883246 3.7267799530904347e-07 8.03157349581095e-07 0.23622546250521445 0.04821505323054917 0.047974401610406184 0.0372677996249965 0.0372677996249965 0.048749802152178445 0.26416652062152757 0.2401131420552701 0.04969039949999603 0.0
3.5153684210526315 48.048242789473676 11.654942842105264 2.573684210526315 0.7078947368421055 0.7673684210526317 0.07894736842105265 -0.01578947368421053 -0.6999999999999998 -0.7842105263157894 -0.19473684210526315 -33.163157894736855 1574690000000.0 0.281253811300738 4.0768245646621834e-07 3.6464227500475996e-07 0.19423833776048355 0.0040768245749551795 0.03322049229065159 0.04076824574955176 0.03646422752776584 1.1102230246251565e-16 0.1598129100072524 0.14317337377616257 0.04823763889427269 0.0
4.4885789473684214 48.04824405263157 11.654940526315793 3.268421052631579 0.7163157894736841 0.5726315789473685 0.06842105263157897 -0.13157894736842107 -0.6999999999999998 -0.01578947368421053 0.5736842105263159 -33.16315789473685 1574690000000.0 0.2791242537481667 6.046908057156351e-07 8.806947648846383e-07 0.21533971100503985 0.00929659038560827 0.07454014144728066 0.046482951928041305 0.0464829519280413 1.1102230246251565e-16 0.3328713326493031 0.2672316268376022 0.04823763889427268 0.0
5.478125 48.048244437499996 11.654937499999999 4.08125 0.740625 0.474375 0.0 -0.13125 -0.73125 0.1625 1.25 -33.2 1574690000000.0 0.3112550953398193 4.960783730969821e-07 8.6602540390549e-07 0.2720724857459864 0.04234807404121233 0.04847276941747811 0.0 0.046351240544347895 0.04635124054434793 0.3887077951366553 0.32015621187164245 0.04999999999999894 0.0
6.5175 48.04824279999999 11.6549353 4.965000000000001 0.8250000000000002 0.6645 -0.02 -0.04 -0.8200000000000001 -0.67 1.9 -33.19000000000001 1574690000000.0 0.2924711096843584 5.999999984851457e-07 4.5825756915262385e-07 0.2688401011754013 0.037749172176353735 0.0652284447154767 0.04 0.04898979485566356 0.039999999999999994 0.1584297951775486 0.16733200530681513 0.030000000000000426 0.0
7.559000000000001 48.04824147058824 11.654935411764706 5.947058823529412 0.9 0.808235294117647 0.0 0.0 -0.9 -1.3176470588235294 1.3588235294117645 -33.2 1574690000000.0 0.27052780655165015 4.991342007709909e-07 4.921529564164228e-07 0.27890046096775745 0.0 0.028949305410268876 0.0 0.0 0.0 0.20929937499596699 0.2059663694119011 0.0 0.0
8.490210526315789 48.04824099999999 11.65493689473684 6.863157894736842 0.9736842105263158 0.8689473684210527 0.010526315789473684 0.0 -0.9736842105263158 -1.1368421052631579 1.0473684210526317 -33.18947368421053 1574690000000.0 0.2731349346399605 7.105427357601002e-15 3.0689220530732973e-07 0.2959561246212537 0.044034738238635546 0.02149534511227595 0.030689220499185793 0.0 0.044034738238635546 0.17232321624994631 0.10939268258329754 0.030689220499186227 0.0
9.349857142857143 48.04824114285714 11.654938000000003 7.714285714285714 1.0 0.8128571428571428 0.08571428571428573 0.0 -1.0 -1.0285714285714285 0.44285714285714295 -33.199999999999996 1574690000000.0 0.2331026313336977 3.499271077147832e-07 7.559289461241167e-07 0.22314999074019 0.0 0.019794866372215707 0.03499271061118826 0.0 0.0 0.11605769149479943 0.24411439272335803 7.105427357601002e-15 0.0
10.51585 48.04824249999999 11.654937999999998 9.045 1.0 0.6754999999999999 0.10000000000000002 0.0 -1.0 -0.36500000000000005 0.325 -33.180000000000014 1574690000000.0 0.2839901890911022 4.999999987376214e-07 1.7763568394002505e-15 0.29912372022292044 0.0 0.05342986056504359 1.3877787807814457e-17 0.0 0.0 0.149248115565993 0.24672859582950654 0.04000000000000057 0.0
11.550882352941176 48.048243235294116 11.654936941176471 10.052941176470588 0.9947058823529412 0.5811764705882353 0.011764705882352941 -0.06470588235294118 -0.9882352941176471 -0.0823529411764706 0.7411764705882353 -33.188235294117646 1574690000000.0 0.2704357882583855 4.2418250192480555e-07 7.252251769551516e-07 0.28721307331138124 0.021176470588235286 0.016044919643512744 0.03221897397089213 0.047788461203740945 0.03221897397089212 0.22025464972763592 0.40737152219248907 0.03221897397089258 0.0
12.478263157894736 48.048242789473676 11.654934736842105 10.71052631578947 0.2847368421052632 0.648421052631579 0.0 -0.06842105263157895 -0.2578947368421053 -0.1894736842105263 1.6210526315789473 -33.20000000000001 1574690000000.0 0.2785541319602582 4.0768245646621834e-07 7.139294713736178e-07 0.0787717344583991 0.30924982952899416 0.04648295192804131 0.0 0.0464829519280413 0.3200588588528584 0.24256249730111396 0.22142825229434349 0.04588314677411137 0.0
13.437944444444444 48.04824188888889 11.654934 10.78888888888889 0.011111111111111112 0.7633333333333333 -0.011111111111111112 0.0 0.0 -0.32222222222222224 1.5666666666666669 -33.20000000000001 1574690000000.0 0.2852709184504798 3.1426968196692017e-07 0.0 0.05665577237325358 0.03142696805273545 0.03333333333333334 0.03142696805273545 0.0 0.0 0.16850834320114555 0.18856180831641267 7.105427357601002e-15 0.0
14.50585 48.04824029999999 11.654934999999998 10.729999999999999 0.134 0.9400000000000002 0.0 0.01 0.13000000000000003 -1.5299999999999998 1.6099999999999999 -33.15000000000001 1574690000000.0 0.29285444763568164 4.58257568338595e-07 6.324555315603459e-07 0.11000000000000039 0.08946507698538017 0.03098386676965931 0.0 0.03 0.09 0.21931712199461312 0.1445683229480096 0.05000000000000071 0.0
15.533199999999999 48.04824039999999 11.654936699999999 10.61 0.10800000000000003 0.905 0.06000000000000001 0.06000000000000001 0.0 -1.47 0.51 -33.15000000000001 1574690000000.0 0.29538493529630094 4.898979473197623e-07 4.582575699666528e-07 0.0299999999999999 0.016000000000000004 0.03383784863137725 0.04898979485566356 0.04898979485566356 0.0 0.3163858403911275 0.7272551134230684 0.05000000000000071 0.0
16.4683125 48.048241375 11.65493725 10.5125 0.1 0.80375 0.0125 -0.0875 0.0 -0.4125 -1.775 -33.1375 1574690000000.0 0.2564104909003334 4.841229204935345e-07 6.614378276907521e-07 0.03307189138830727 0.1 0.019324531042175363 0.033071891388307385 0.10532687216470447 0.0 0.20271593425283568 0.4602988159880493 0.0484122918275934 0.0
17.47235 48.048242599999995 11.654931800000004 10.5 0.35000000000000003 0.8150000000000001 0.0 -0.35000000000000003 0.0 0.19 -0.21999999999999997 -33.120000000000005 1574690000000.0 0.2945940045214767 4.898979473197623e-07 2.3151673807588913e-06 0.0 0.050000000000000024 0.05572252686302013 0.0 0.050000000000000024 0.0 0.15132745950421558 0.11661903789690603 0.04000000000000057 0.0
18.472611111111107 48.04824222222222 11.654923222222223 10.433333333333334 0.5066666666666667 1.2644444444444443 -0.05555555555555555 -0.5 0.0 0.39999999999999997 0.033333333333333326 -33.155555555555566 1574690000000.0 0.3013436832457233 6.28539361003001e-07 3.1544599036383587e-06 0.047140452079103 0.05456901847914966 0.21949999296943096 0.06849348892187752 0.047140452079103154 0.0 0.1699673171197595 0.37416573867739417 0.04969039949999603 0.0
19.526400000000002 48.048239499999994 11.654912300000001 10.5 0.637 2.118 -0.24 -0.59 0.0 0.06 1.19 -33.19000000000001 1574690000000.0 0.29547426283857614 1.0246950760891096e-06 3.226453161070706e-06 0.0 0.0260959767013998 0.25968442386866414 0.04898979485566354 0.029999999999999992 0.0 0.19595917942265426 0.9470480452437458 0.030000000000000426 0.0
20.50027777777778 48.04823566666667 11.654904666666665 10.5 0.3911111111111111 2.8111111111111113 -0.26666666666666666 -0.2666666666666667 0.0 -0.35555555555555557 3.8444444444444446 -33.21111111111112 1574690000000.0 0.2655900779512913 1.1547005386546065e-06 1.1547005384267e-06 0.0 0.11159892915101971 0.13127108884073493 0.047140452079103154 0.14907119849998599 0.0 0.1640535895581489 0.6344045521608975 0.031426968052733664 0.0
21.4715 48.048231599999994 11.654903899999997 10.5 0.28 3.112 -0.28 0.0 0.0 -1.8400000000000003 1.95 -32.9 1574690000000.0 0.2942676502777701 1.3564659984384966e-06 5.385164809041745e-07 0.0 0.039999999999999994 0.06910861017268413 0.039999999999999994 0.0 0.0 0.5535341001239219 0.14317821063276348 0.34928498393146157 0.0
22.499499999999998 48.0482282 11.654906100000002 10.5 0.10000000000000002 3.2220000000000004 -0.04 0.06000000000000001 0.0 -2.3899999999999997 1.1300000000000001 -26.82 1574690000000.0 0.2947323361967599 3.999999989900971e-07 1.04403065118161e-06 0.0 0.0632455532033676 0.046647615158762396 0.08 0.04898979485566356 0.0 0.20712315177207985 0.6900000000000001 2.8819437884872077 0.0
23.51855 48.0482289 11.654909899999998 10.450000000000001 0.12400000000000003 2.9899999999999993 0.09000000000000002 0.07 0.0 -1.6600000000000001 -0.15999999999999998 -24.52 1574690000000.0 0.2966532445465581 5.385164793538269e-07 9.433981131209892e-07 0.04999999999999982 0.019595917942265426 0.08111719916269292 0.030000000000000002 0.045825756949558406 0.0 0.16248076809271922 0.21071307505705478 0.07483314773547904 0.0
24.493111111111112 48.04823111111111 11.654910888888889 10.4 0.20000000000000004 2.764444444444444 0.20000000000000004 0.0 0.0 -0.7666666666666667 -0.47777777777777786 -24.466666666666665 1574690000000.0 0.2666510180593705 7.370277317096804e-07 3.1426968085041e-07 0.0 2.7755575615628914e-17 0.0490149888891395 2.7755575615628914e-17 0.0 0.0 0.38297084310253526 0.10304020550550781 0.04714045207910384 0.0
25.4629 48.0482338 11.654908700000002 10.45 0.22999999999999998 2.689 0.17 -0.14000000000000004 0.0 0.2899999999999999 -0.05 -24.560000000000006 1574690000000.0 0.2929631205459143 7.483314754654329e-07 1.1874342083237428e-06 0.04999999999999982 0.025690465157330266 0.027000000000000003 0.045825756949558406 0.066332495807108 0.0 0.35341194094144573 0.3774917217635375 0.048989794855664265 0.0
26.457500000000003 48.048235 11.654903833333332 10.5 0.19888888888888892 2.911111111111111 0.022222222222222223 -0.19444444444444448 0.0 0.5166666666666667 1.4833333333333334 -20.81111111111111 1574690000000.0 0.29333205492145686 0.0 1.5000000002151496e-06 0.0 0.025361582690029614 0.09643010646109833 0.041573970964154904 0.02290614236454256 0.0 0.11666666666666667 0.4258977446393546 2.289805641652411 0.0
27.512600000000003 48.048232799999994 11.654900000000001 10.5 0.14400000000000004 3.275 -0.11000000000000001 -0.07 0.0 -0.7300000000000001 2.1399999999999997 -15.86 1574690000000.0 0.29432658731416056 1.1661903790711394e-06 9.999999999621422e-07 0.0 0.032 0.1063249735480805 0.053851648071345036 0.045825756949558406 0.0 0.7267048919609665 0.18547236990991403 2.1804586673450155 0.0
28.494777777777774 48.04822955555556 11.654899388888888 10.544444444444444 0.1444444444444445 3.512222222222222 -0.1277777777777778 0.03333333333333333 0.0 -2.466666666666667 1.6611111111111112 -9.71111111111111 1574690000000.0 0.27850724218701645 9.558139185332846e-07 5.905636560902836e-07 0.04969039949999515 0.04245549594342844 0.03292340531117563 0.055832642339560506 0.047140452079103175 0.0 0.3179797338056485 0.5261378029131922 4.364616425667882 0.0
29.518882352941176 48.04822717647058 11.654903000000001 10.6 0.15882352941176475 3.474705882352941 0.0 0.15882352941176475 0.0 -2.7 -0.11176470588235293 -1.6941176470588237 1574690000000.0 0.28241893836533816 3.8122004282905855e-07 1.2366938845520836e-06 0.0 0.04921529567847504 0.04654127163494701 0.0 0.04921529567847504 0.0 0.35313720046596775 0.2654238628865524 0.1392018772494027 0.0
30.491 48.04822849999999 11.6549075 10.6 0.35000000000000003 3.1399999999999997 0.2875 0.1875 0.0 -3.0875000000000004 -0.125 -1.5750000000000002 1574690000000.0 0.28155971835473914 1.1180339883103632e-06 1.4142135624922663e-06 0.0 0.11510864433221338 0.1554831180546621 0.12686114456365277 0.033071891388307385 0.0 1.2014964627496827 0.09682458365518543 0.043301270189221974 0.0
31.510699999999996 48.04823259999999 11.654912999999999 10.599999999999998 0.30850000000000005 2.532 0.26000000000000006 0.14500000000000002 0.0 0.8 -0.625 -1.6000000000000003 1574690000000.0 0.2970809822253857 8.000000010000009e-07 1.0954451150012928e-06 1.7763568394002505e-15 0.08684900690278502 0.12200819644597652 0.08 0.08645808232895291 0.0 1.0691117808723274 0.1920286436967152 0.04472135954999579 0.0
32.51742105263158 48.04823542105263 11.654912842105263 10.531578947368422 0.1736842105263158 2.338947368421053 0.1736842105263158 0.0 0.0 0.8105263157894738 0.8052631578947369 -1.5684210526315792 1574690000000.0 0.28563784869904474 9.90257249138791e-07 7.443229277481578e-07 0.04648295192804113 0.04403473823863555 0.01773926268037136 0.04403473823863555 0.0 0.0 0.24256249730111398 0.48609473216921334 0.04648295192804134 0.0
33.48773684210526 48.04823657894737 11.654910210526316 10.510526315789473 0.18842105263157893 2.4189473684210525 0.02631578947368421 -0.16842105263157894 0.0 0.21052631578947367 -0.5736842105263157 -1.578947368421053 1574690000000.0 0.28221862412065263 4.937279734717124e-07 1.238800241513403e-06 0.030689220499185686 0.11577033334625281 0.08142770360342622 0.04403473823863556 0.13397812696166164 0.0 0.29893624886658793 0.9019523299710281 0.04076824574955179 0.0
34.50927777777778 48.04823688888889 11.65490077777778 10.533333333333333 0.7688888888888888 3.011111111111111 0.03333333333333333 -0.7666666666666667 0.0 -0.29999999999999993 -2.533333333333333 -1.5444444444444447 1574690000000.0 0.31293375329391604 7.370277293292727e-07 4.4165793139941634e-06 0.047140452079103 0.20151892353625223 0.2646357851187781 0.047140452079103175 0.2 0.0 0.14907119849998599 1.451436070471816 0.04969039949999537 0.0
35.48983333333334 48.048239444444434 11.654886999999999 10.6 1.0555555555555558 3.873333333333333 0.15555555555555559 -1.0444444444444447 0.0 0.5222222222222221 -0.6111111111111112 -1.6111111111111114 1574690000000.0 0.3022705282064767 9.558139185332846e-07 4.496912521310899e-06 0.0 0.044996570514036896 0.29762019047399624 0.049690399499995326 0.04969039949999537 0.0 0.30102704853653484 0.5486234175834893 0.0314269680527354 0.0
36.48972222222223 48.04823999999999 11.654871333333334 10.6 1.1000000000000003 4.989999999999999 0.022222222222222223 -1.1000000000000003 0.0 0.3444444444444445 0.7333333333333333 -1.6333333333333335 1574690000000.0 0.2685164604007969 7.105427357601002e-15 4.320493799070426e-06 0.0 2.220446049250313e-16 0.3242427074481913 0.041573970964154904 2.220446049250313e-16 0.0 0.18921540406584889 0.149071198499986 0.047140452079103105 0.0
37.4602 48.04823859999999 11.6548552 10.599999999999998 1.092 6.207 -0.08 -1.0900000000000003 0.0 -0.27999999999999997 1.0299999999999998 -1.5900000000000003 1574690000000.0 0.2981133341533041 1.0198039032094753e-06 4.791659420227536e-06 1.7763568394002505e-15 0.02400000000000002 0.375314534757182 0.060000000000000005 0.03000000000000003 0.0 0.285657137141714 0.272213151776324 0.03000000000000003 0.0
38.412000000000006 48.048235250000005 11.65484025 10.6 1.0825 7.36875 -0.2 -1.0625 0.0 -1.175 -0.2125 -1.5750000000000002 1574690000000.0 0.27721314002045455 9.682458370885154e-07 4.29389100916686e-06 0.0 0.04841229182759275 0.3434544183730935 0.0 0.04841229182759275 0.0 0.18540496217739152 0.4512136411945011 0.043301270189221974 0.0
39.5064 48.04823305 11.654823350000001 10.599999999999998 1.1000000000000003 8.660999999999998 -0.06000000000000001 -1.1000000000000003 0.0 -0.5800000000000001 -0.9000000000000001 -1.6199999999999999 1574690000000.0 0.2884238894405253 2.179449466267756e-07 4.186585720986342e-06 1.7763568394002505e-15 2.220446049250313e-16 0.3164158655946319 0.04898979485566356 2.220446049250313e-16 0.0 0.2619160170741759 0.20000000000000007 0.05999999999999997 0.0
40.531150000000004 48.048232399999996 11.654807899999998 10.530000000000001 1.2100000000000002 9.801 0.0 -1.2100000000000002 0.0 -0.27 -1.2399999999999998 -1.6000000000000003 1574690000000.0 0.2880215747127291 4.898979508006965e-07 4.86723740936727e-06 0.04582575694955823 0.06999999999999999 0.3581466180211674 0.0 0.06999999999999999 0.0 0.08999999999999998 0.11135528725660043 2.220446049250313e-16 0.0
41.507666666666665 48.048233333333336 11.654790944444446 10.533333333333335 1.3555555555555554 11.027222222222221 0.06666666666666668 -1.3555555555555554 0.0 0.2277777777777778 -0.8888888888888888 -1.6000000000000003 1574690000000.0 0.25297167166832435 4.714045196008497e-07 5.104161942488923e-06 0.047140452079103 0.049690399499995264 0.352369842882219 0.047140452079103175 0.049690399499995264 0.0 0.30877096070200566 0.09362388636862623 2.220446049250313e-16 0.0
42.47559999999999 48.048234599999994 11.6547724 10.5 1.5100000000000002 12.391 0.05 -1.5100000000000002 0.0 0.9100000000000001 -1.0399999999999998 -1.6400000000000001 1574690000000.0 0.2911888390718298 4.898979473197623e-07 6.343500611210511e-06 0.0 0.07000000000000006 0.4527791956351348 0.05000000000000001 0.07000000000000006 0.0 0.09433981132056604 0.19595917942265426 0.048989794855663495 0.0
43.50715 48.048234699999995 11.654747400000002 10.589999999999998 1.6849999999999998 14.231499999999997 0.0 -1.6900000000000002 0.0 0.32 -0.1 -1.5850000000000002 1574690000000.0 0.29017223764516215 4.5825756833859485e-07 7.465922581952067e-06 0.02999999999999989 0.035707142142714206 0.5670826659315203 0.0 0.029999999999999964 0.0 0.2712931993250107 0.40865633483405095 0.0476969600708473 0.0
44.525999999999996 48.048233499999995 11.6547236 10.619999999999997 1.61 16.015000000000004 -0.06000000000000001 -1.61 0.0 0.33 1.1200000000000003 -1.5900000000000003 1574690000000.0 0.29264346908823985 4.999999987376214e-07 6.829348431525727e-06 0.039999999999999855 0.053851648071345015 0.517865812735307 0.04898979485566356 0.053851648071345015 0.0 0.1345362404707371 0.5599999999999999 0.03000000000000003 0.0
45.51476470588235 48.048230823529416 11.654703 10.7 1.3935294117647057 17.567647058823532 -0.2117647058823529 -1.3764705882352943 0.0 -0.38235294117647056 1.552941176470588 -1.611764705882353 1574690000000.0 0.25976019017814106 1.1997692987951697e-06 5.615105676816515e-06 0.0 0.07136823947342631 0.42629083432854387 0.07578881603955956 0.08065476000471813 0.0 0.36012300858856394 0.9030130264572915 0.03221897397089208 0.0
46.4315 48.048226666666665 11.654686222222221 10.699999999999998 1.3033333333333335 18.866666666666667 -0.24444444444444446 -1.2777777777777777 0.0 -0.9111111111111112 0.5222222222222224 -1.588888888888889 1574690000000.0 0.2812500370370344 1.154700538198793e-06 4.755763235322875e-06 1.7763568394002505e-15 0.039721250959376654 0.36974465663632144 0.04969039949999532 0.041573970964154945 0.0 0.10999438818457406 0.41573970964154905 0.031426968052735475 0.0
47.50599999999999 48.048222555555554 11.654670833333332 10.622222222222222 0.8972222222222221 20.060555555555556 -0.2222222222222222 -0.8555555555555556 0.0 -0.5944444444444444 3.927777777777777 -1.6 1574690000000.0 0.30872605620157506 1.3425606627606266e-06 3.3374973990891894e-06 0.04157397096415476 0.23579194113915947 0.2720186313517314 0.0415739709641549 0.2629368792488718 0.0 0.24826558857227035 1.7757019130334397 0.047140452079103154 0.0
48.527899999999995 48.04821780000001 11.6546661 10.599999999999998 0.25399999999999995 20.510999999999996 -0.20999999999999996 -0.12000000000000002 0.0 -3.8400000000000007 3.250000000000001 -1.7 1574690000000.0 0.2944433561824745 1.5362291513379077e-06 2.999999997754799e-07 1.7763568394002505e-15 0.14967965793654125 0.03832753579347343 0.10440306508910549 0.13266499161421602 0.0 1.5428544973522291 1.6032778923193571 0.04472135954999579 0.0
49.50072222222222 48.04821533333333 11.654669111111112 10.577777777777776 0.22777777777777775 20.331111111111106 0.13333333333333333 0.17777777777777778 0.0 -4.044444444444445 1.1000000000000003 -1.6666666666666667 1574690000000.0 0.2600183338740124 4.714045196008497e-07 1.7284832431039904e-06 0.04157397096415475 0.1858181774254833 0.14325148395154974 0.14142135623730953 0.1314684396244359 0.0 0.3890475866669243 0.5676462121975466 0.04714045207910311 0.0
50.470299999999995 48.0482196 11.654677500000002 10.5 0.7130000000000001 19.629 0.5799999999999998 0.41000000000000003 0.0 -1.65 -0.32999999999999996 -1.5400000000000003 1574690000000.0 0.2925245459786242 2.0099751241692954e-06 2.6551836094233527e-06 0.0 0.07389857914736929 0.23666220653074266 0.08717797887081345 0.029999999999999992 0.0 1.241974234837422 0.17349351572897473 0.048989794855663606 0.0
51.46164285714286 48.048226928571424 11.654684142857144 10.5 0.5692857142857145 19.02 0.5000000000000001 0.22857142857142862 0.0 3.164285714285714 -0.08571428571428573 -1.5857142857142859 1574690000000.0 0.3273164932213064 2.186461122529821e-06 8.329931279949974e-07 0.0 0.14930621868755337 0.09418826132501133 0.10690449676496973 0.1665986255670086 0.0 1.0216283520908755 0.34404555939406556 0.03499271061118829 0.0
52.53115789473684 48.04823305263157 11.65468152631579 10.521052631578947 0.3463157894736842 19.13315789473684 0.3368421052631579 -0.05263157894736842 0.0 1.5052631578947366 1.7578947368421056 -1.578947368421053 1574690000000.0 0.293681578935578 1.700578360136599e-06 1.697317420328671e-06 0.04076824574955161 0.04391505272632243 0.1166665347578735 0.048237638894272024 0.04993069989739546 0.0 0.26650502949836136 0.6611917386321892 0.04076824574955179 0.0
53.5461 48.048235899999995 11.654676949999999 10.58 0.08100000000000002 19.449499999999993 0.05 -0.04 0.0 1.1599999999999997 2.9800000000000004 -1.58 1574690000000.0 0.2927278428848197 3.000000013742011e-07 1.0712142645866219e-06 0.039999999999999855 0.0820914124619622 0.07877023549539502 0.0806225774829855 0.048989794855663564 0.0 0.6476109943476872 0.13638181696985857 0.060000000000000005 0.0
54.516 48.04823411111111 11.654674333333332 10.6 0.13333333333333336 19.665555555555557 -0.13333333333333336 0.0 0.0 -0.3333333333333333 3.166666666666667 -1.6000000000000003 1574690000000.0 0.26508237713334715 7.370277293292727e-07 4.7140452043823233e-07 0.0 0.047140452079103175 0.040307460327149006 0.047140452079103175 0.0 0.0 0.4447221354708778 0.08164965809277251 2.220446049250313e-16 0.0
55.5036875 48.048230375 11.6546755625 10.525 0.2575 19.614375 -0.17500000000000002 0.1625 0.0 -2.1 2.1125 -1.6125 1574690000000.0 0.31753517890739397 1.2183492933055907e-06 1.3213984071737002e-06 0.04330127018922178 0.045207853300062814 0.07769883766826893 0.04330127018922193 0.09921567416492214 0.0 0.46904157598234303 0.6101997623729462 0.03307189138830734 0.0
56.51474999999999 48.048228 11.6546819 10.5 0.31199999999999994 19.169000000000004 -0.01 0.30999999999999994 0.0 -1.94 0.10000000000000005 -2.5999999999999996 1574690000000.0 0.2957485207063598 0.0 2.022374841621671e-06 0.0 0.029933259094191537 0.15699999999999995 0.03 0.030000000000000013 0.0 0.1685229954635272 0.5882176467941098 0.5966573556070518 0.0
57.54260000000001 48.048229199999994 11.654688199999999 10.51 0.265 18.6895 0.13500000000000004 0.2 -0.04 -0.71 -0.95 -4.295 1574690000000.0 0.29589650217601393 8.717797879741895e-07 1.6613247726233681e-06 0.029999999999999895 0.03840572873934304 0.1195188269688083 0.0653834841531101 0.06324555320336758 0.066332495807108 0.4721228653645151 0.21330729007701546 0.17168284713389412 0.0
58.51455555555555 48.04823277777777 11.654690777777777 10.711111111111112 0.37 18.466666666666672 0.2444444444444444 0.0 -0.26666666666666666 0.9888888888888892 -0.6555555555555556 -4.366666666666666 1574690000000.0 0.26647810462946825 1.030402055603488e-06 4.157397093304093e-07 0.07370277311900934 0.02494438257849295 0.018257418583506085 0.04969039949999531 0.047140452079103175 0.047140452079103154 0.21314806770278757 0.24993826398226648 0.04714045207910342 0.0
59.48538888888889 48.04823611111111 11.654687500000001 11.044444444444444 0.445 18.668888888888887 0.1444444444444445 -0.20000000000000004 -0.35555555555555557 1.6333333333333333 1.077777777777778 -4.3 1574690000000.0 0.3150906640051564 8.748897645781731e-07 2.088327347734085e-06 0.1535586106787248 0.04901813723284247 0.15117645645951044 0.0955813918560292 0.06666666666666667 0.04969039949999535 0.3366501646120693 0.8534606386520676 0.0 0.0
60.51115 48.048236499999994 11.654680699999998 11.479999999999999 0.4410000000000001 19.165 -0.05 -0.24000000000000005 -0.36 0.62 3.04 -4.370000000000002 1574690000000.0 0.2961523720992293 4.999999987376214e-07 2.002498439282013e-06 0.09797958971132678 0.053749418601506754 0.15324816475246958 0.05000000000000001 0.04898979485566356 0.048989794855663585 0.5268775948927797 0.5238320341483518 0.06403124237432865 0.0
61.53310000000001 48.048232899999995 11.654676499999999 11.87 0.4699999999999999 19.511 -0.22000000000000003 -0.06000000000000001 -0.4000000000000001 -1.14 3.2399999999999998 -4.46 1574690000000.0 0.29762777088168274 1.5132745957290873e-06 6.708203931451002e-07 0.1417744687875783 0.022360679774997894 0.06220128616033576 0.059999999999999984 0.06633249580710801 5.551115123125783e-17 0.6296030495478878 0.1280624847486569 0.04898979485566339 0.0
62.504777777777775 48.04822877777778 11.654677444444445 12.344444444444443 0.5377777777777779 19.491111111111113 -0.2222222222222222 0.13333333333333336 -0.4666666666666667 -2.244444444444445 1.7111111111111112 -4.400000000000001 1574690000000.0 0.26790038686786294 1.0304020538156926e-06 1.1653431649093036e-06 0.15713484026367736 0.03520662115056634 0.0677322251294579 0.0415739709641549 0.047140452079103175 0.047140452079103154 0.3303570832737446 0.9350513288875221 0.047140452079103216 0.0
63.450722222222225 48.04822611111111 11.654681555555555 12.899999999999999 0.6066666666666666 19.23444444444444 -0.07777777777777778 0.03333333333333334 -0.5888888888888888 -1.3666666666666667 -2.7000000000000006 -4.366666666666666 1574690000000.0 0.3009903663197272 3.1426967973389975e-07 6.849348887061696e-07 0.18257418583505525 0.03620926830400072 0.043997755273829445 0.041573970964154904 0.10540925533894599 0.031426968052735434 0.21081851067789195 0.6912147117775906 0.04714045207910342 0.0
64.5465 48.048228555555546 11.654678888888888 13.644444444444446 0.7833333333333334 19.39 0.19999999999999998 -0.4555555555555555 -0.5888888888888888 0.38888888888888895 -2.788888888888889 -4.400000000000001 1574690000000.0 0.2922818749844812 1.4229164972520696e-06 1.5947444549920376e-06 0.20061633428075315 0.12092238098144703 0.11244751862288689 0.0816496580927726 0.1571348402636772 0.031426968052735434 0.4408185427750528 0.12862041003100244 0.047140452079103216 0.0
65.5324 48.04823309999999 11.6546687 14.290000000000003 1.16 20.094 0.28 -0.9500000000000002 -0.5999999999999999 1.4700000000000002 -1.42 -4.44 1574690000000.0 0.30003356478900634 1.4456832289756497e-06 4.5617978911993655e-06 0.20712315177207982 0.10601886624558857 0.31613920984275273 0.039999999999999994 0.13601470508735444 1.1102230246251565e-16 0.2238302928559939 0.8340263784797217 0.04898979485566339 0.0
66.50588888888889 48.048236333333335 11.654651888888887 14.877777777777778 1.298888888888889 21.324444444444442 0.16666666666666666 -1.1777777777777776 -0.5111111111111111 1.4222222222222223 1.322222222222222 -4.433333333333334 1574690000000.0 0.26998866002706473 6.66666666562479e-07 5.086899174436453e-06 0.16178021976178927 0.02997941680718234 0.37588742732990066 0.0816496580927726 0.04157397096415485 0.03142696805273544 0.27397395568751004 1.1321344421320854 0.04714045207910301 0.0
67.45078947368421 48.048235842105264 11.654635473684209 15.452631578947367 1.041578947368421 22.538421052631584 -0.05789473684210527 -0.8789473684210526 -0.5210526315789474 0.46842105263157885 5.56842105263158 -4.436842105263159 1574690000000.0 0.2841859248611667 1.0393904032758492e-06 4.209868369779172e-06 0.18458608333421248 0.15540314830837604 0.3167310524037495 0.1091391650175143 0.20920638857212415 0.04076824574955175 0.2616800609401274 1.4349225658839933 0.048237638894271836 0.0
68.47616666666667 48.048228611111114 11.654626666666667 16.05 0.7866666666666666 23.256666666666668 -0.5055555555555555 -0.27777777777777773 -0.5 -1.4333333333333333 3.6333333333333337 -4.461111111111112 1574690000000.0 0.29714273599661806 3.129410469324e-06 1.3333333334210174e-06 0.16414763002993477 0.04176654695380558 0.13474255287605102 0.12234841969747355 0.14740554623801777 0.0 0.8491826135237998 0.9826268648655785 0.048749802152178286 0.0
69.47524999999999 48.04822025 11.6546257 16.555 0.6940000000000001 23.4375 -0.51 -0.005000000000000002 -0.465 -2.2800000000000002 0.5700000000000001 -4.375 1574690000000.0 0.2939421499206936 2.094636005856366e-06 9.539392015502852e-07 0.16874537030686224 0.07151223671512451 0.052237438681466526 0.06244997998398397 0.049749371855330994 0.04769696007084726 0.19131126469708992 1.9741073932286461 0.062249497989943815 0.0
70.4728947368421 48.04821542105263 11.654627631578947 17.021052631578943 0.5184210526315789 23.357894736842105 -0.2421052631578947 -0.12631578947368421 -0.4000000000000001 -1.7894736842105259 -3.2631578947368416 -4.352631578947369 1574690000000.0 0.2750718364999535 7.48035284876979e-07 4.823763894385819e-07 0.13210421471590658 0.05353436258926909 0.02857657254841792 0.1497920996921864 0.11626695807565537 5.551115123125783e-17 0.40248535356431925 0.1422026956432241 0.04993069989739573 0.0
71.4797 48.0482182 11.654624699999998 17.499999999999996 0.7455 23.5395 0.18000000000000002 -0.52 -0.49000000000000005 0.38500000000000006 -3.45 -4.385000000000001 1574690000000.0 0.2801999464668029 1.6000000010230052e-06 2.002498439273142e-06 0.1414213562373095 0.1258759309796754 0.11182463950310806 0.08717797887081348 0.15362291495737218 0.029999999999999995 0.5516112761719072 0.09746794344808973 0.05722761571129811 0.0
72.49838888888888 48.04822405555555 11.654611944444447 18.033333333333335 1.2911111111111113 24.395000000000003 0.33333333333333326 -1.1444444444444442 -0.5 1.9000000000000001 -2.1722222222222225 -4.411111111111111 1574690000000.0 0.2980865159440366 1.9285061053526967e-06 6.275810901262731e-06 0.18856180831641292 0.17438427837167514 0.4344121187178015 0.04714045207910318 0.18324913891634043 0.0 0.29059326290271154 0.7209604362357784 0.031426968052735337 0.0
73.56105555555555 48.048228222222214 11.654587666666666 18.61111111111111 1.6566666666666667 26.15555555555555 0.16666666666666669 -1.5777777777777777 -0.4666666666666667 1.7000000000000002 -0.01666666666666668 -4.388888888888889 1574690000000.0 0.2786781242106754 7.85674201791072e-07 7.0000000002876404e-06 0.1448711645600594 0.09746794344808962 0.5155172399555208 0.04714045207910317 0.11331154474650636 0.04714045207910316 0.2494438257849294 0.7959969290839702 0.07370277311900898 0.0
74.54665 48.0482282 11.654562999999998 19.055 1.584 27.982 -0.039999999999999994 -1.52 -0.4200000000000001 0.6000000000000001 3.604999999999999 -4.405000000000001 1574690000000.0 0.2826386871962148 8.717797894412765e-07 6.789698078635893e-06 0.14309088021254224 0.122939009268824 0.5039900792674399 0.04898979485566356 0.11661903789690603 0.039999999999999994 0.5585696017507576 1.228199902296039 0.038405728739343024 0.0
75.52066666666667 48.048223166666666 11.654546555555555 19.505555555555553 0.9583333333333334 29.25611111111111 -0.37777777777777777 -0.7444444444444445 -0.4000000000000001 -0.7000000000000001 7.144444444444444 -4.5 1574690000000.0 0.2548897365092958 1.9220937664707142e-06 2.565199195811447e-06 0.10786937688304267 0.15184970639857467 0.2015809429068383 0.1314684396244359 0.23622546250521445 5.551115123125783e-17 0.42295258468165065 1.3740541078713109 0.0 0.0
76.50331578947367 48.0482125263158 11.654542210526314 20.031578947368423 0.9199999999999998 29.710526315789473 -0.7052631578947368 -0.13157894736842105 -0.5631578947368421 -2.3368421052631576 1.7000000000000006 -4.426315789473685 1574690000000.0 0.2904780184874182 3.871194853093259e-06 4.076824579145973e-07 0.202751160886929 0.06890114963520298 0.07394690016708787 0.06862318321265949 0.08616160812497316 0.04823763889427199 0.45214171778767426 1.5169220914664494 0.0440347382386354 0.0
77.5218888888889 48.04820444444445 11.654542999999999 20.58888888888889 0.6455555555555557 29.772222222222222 -0.3888888888888889 -0.03333333333333333 -0.5 -2.144444444444445 -1.4222222222222218 -4.388888888888889 1574690000000.0 0.308944059821135 1.3425606634140147e-06 8.164965810418543e-07 0.16629588385661978 0.08314794192830981 0.04262961354055736 0.13698697784375502 0.047140452079103175 0.0 0.4058218303944372 0.5286834334831253 0.03142696805273562 0.0
78.55731250000001 48.048203875 11.654544875 21.13125 0.5275000000000001 29.658125 -0.006249999999999999 -0.13125000000000003 -0.5 -0.53125 -2.28125 -4.36875 1574690000000.0 0.31737925238387915 9.27024811780018e-07 3.3071891422303846e-07 0.18946882989030156 0.01785357107135714 0.028770373216209705 0.08267972847076846 0.0582961190818051 0.0 0.6038612733898407 0.24550649176752948 0.046351240544348145 0.0
79.52272222222223 48.04820744444445 11.654542333333334 21.7 0.6877777777777777 29.785555555555554 0.18888888888888888 -0.4222222222222222 -0.5 0.7222222222222222 -1.8888888888888888 -4.411111111111112 1574690000000.0 0.2656908825340613 1.3425606634140147e-06 1.885618083148567e-06 0.14907119849998546 0.08093588378433028 0.11285301267195198 0.07370277311900889 0.10304020550550783 0.0 0.2698879511442471 0.5384018417593652 0.031426968052735337 0.0
80.54294444444446 48.048212 11.654532777777778 22.255555555555556 0.7455555555555556 30.42666666666667 0.23333333333333328 -0.5222222222222221 -0.4666666666666667 1.4666666666666666 3.4222222222222225 -4.311111111111111 1574690000000.0 0.26232199726083527 9.428090408764647e-07 2.8196838979451425e-06 0.1571348402636767 0.13425606637327303 0.19612920911140877 0.06666666666666667 0.13966450099973926 0.04714045207910316 0.2 2.3432066242545955 0.056655772373253276 0.0
81.51665 48.04821160000001 11.65452545 22.77 0.5735000000000001 30.973000000000003 -0.08499999999999999 -0.21999999999999997 -0.51 -0.10999999999999999 3.160000000000001 -4.335000000000001 1574690000000.0 0.29374602550502604 1.3564659954003464e-06 2.0850659464066212e-06 0.16763054614240164 0.07309411741036347 0.16355732939859338 0.10136567466356648 0.05999999999999999 0.06999999999999999 0.850235261559999 0.5877074101966046 0.08529361054615997 0.0
82.5399 48.048207300000016 11.654521699999998 23.39 0.576 31.315999999999995 -0.15000000000000005 -0.010000000000000007 -0.55 -2.6499999999999995 2.83 -4.4300000000000015 1574690000000.0 0.2907068798635497 1.1000000003233172e-06 4.5825756915262385e-07 0.18138357147217046 0.0571314274283428 0.033526109228480615 0.05 0.06999999999999999 0.04999999999999998 0.4129164564412515 0.7550496672405068 0.04582575694955823 0.0
83.51566666666665 48.048205111111116 11.654525 23.955555555555556 0.5677777777777778 31.106666666666666 0.022222222222222223 0.2222222222222222 -0.5111111111111111 -3.7333333333333334 0.9333333333333331 -4.4222222222222225 1574690000000.0 0.2656511915191721 3.1426967973389975e-07 1.8856180833230218e-06 0.1571348402636774 0.04661372658534006 0.12736648783028587 0.0628539361054709 0.09162456945817024 0.03142696805273544 0.23094010767585024 0.30550504633038933 0.06285393610547085 0.0
84.47250000000001 48.048206777777786 11.654532666666666 24.466666666666665 0.7455555555555554 30.507777777777775 0.3777777777777777 0.37777777777777777 -0.5 -2.6888888888888887 -0.3111111111111111 -4.411111111111112 1574690000000.0 0.30520671501277447 1.617802196190239e-06 2.708012801365057e-06 0.18856180831641292 0.06431020501550125 0.2373828495994404 0.14740554623801774 0.04157397096415492 0.0 0.24695678634325405 0.30711722135745007 0.031426968052735337 0.0
85.53133333333334 48.04821377777778 11.6545405 25.061111111111114 0.7944444444444445 29.827222222222222 0.6222222222222222 0.2777777777777778 -0.4000000000000001 0.9944444444444444 -0.4833333333333333 -4.361111111111111 1574690000000.0 0.30716282327130723 2.298684540349491e-06 1.922093765751909e-06 0.1339107865910438 0.13466923356556168 0.16199470346470313 0.1030402055055078 0.0415739709641549 0.10540925533894598 2.7827788314365476 0.10671873729054747 0.048749802152178716 0.0
86.5115789473684 48.04821931578948 11.654542368421051 25.28947368421053 0.3305263157894737 29.60263157894737 0.31578947368421045 0.015789473684210534 -0.03157894736842106 1.989473684210526 0.4526315789473684 -4.368421052631579 1574690000000.0 0.28321041383422957 1.1721609178483695e-06 8.712076505427253e-07 0.030689220499186227 0.08287426647833046 0.059013121222778214 0.06698906348083082 0.08119604537127112 0.0653140718210045 1.1285270963526821 0.5557057353185478 0.04648295192804155 0.0
87.48531578947367 48.04822257894737 11.654537526315792 25.3 0.3000000000000001 29.933157894736848 0.2421052631578947 -0.17368421052631583 0.0 -1.1684210526315788 1.905263157894737 -4.389473684210526 1574690000000.0 0.28428119004578944 7.480352832982335e-07 1.5344610250743638e-06 0.0 0.04855815829335071 0.10407753342575389 0.04937279747182556 0.04403473823863556 0.0 1.5235183074846845 0.1503458616535337 0.05520046569316598 0.0
88.49027777777778 48.048225555555554 11.654534111111113 25.355555555555554 0.37 30.162777777777777 0.36666666666666664 -0.05555555555555555 0.0 -2.172222222222222 1.5777777777777777 -4.438888888888889 1574690000000.0 0.3121363316023511 1.0657403381278882e-06 3.1426968029215487e-07 0.04969039949999427 0.05744562646538029 0.017576991132841318 0.04714045207910319 0.06849348892187752 0.0 0.5495508828484458 0.4062778955284938 0.04874980215217828 0.0
89.47988888888888 48.04822744444444 11.654534777777778 25.399999999999995 0.1111111111111111 30.103333333333335 0.1111111111111111 0.0 0.0 0.6555555555555556 0.6777777777777777 -4.411111111111112 1574690000000.0 0.30069657812945916 4.969039972761065e-07 4.1573970933040923e-07 3.552713678800501e-15 0.11967032904743342 0.02211083193570255 0.11967032904743342 0.0 0.0 1.6439188349193123 0.12272623352430291 0.031426968052735337 0.0
90.5325 48.048228099999996 11.654532750000001 25.399999999999995 0.267 30.227500000000003 0.25 -0.05 0.0 -3.7600000000000007 1.5650000000000002 -4.400000000000001 1574690000000.0 0.29641769515330935 9.433981133092826e-07 7.664854859594168e-07 3.552713678800501e-15 0.13345785851721134 0.037666297933299044 0.15000000000000002 0.05000000000000001 0.0 0.37067505985701266 0.3290516676754579 8.881784197001252e-16 0.0
91.477875 48.048232875 11.654534875 25.375 0.6625 30.043750000000003 0.6499999999999999 0.1 0.0 -3.0625 0.7124999999999999 -4.35 1574690000000.0 0.2738539471597956 1.5360257152327445e-06 1.4523687543905868e-06 0.04330127018922101 0.07822243923581007 0.12185416488573586 0.07071067811865474 0.07071067811865477 0.0 1.2776320871048912 0.48589479313942024 0.050000000000000266 0.0
92.49344444444446 48.04823733333333 11.654539888888888 25.3 0.3777777777777777 29.656666666666663 0.3444444444444444 0.1444444444444445 0.0 2.577777777777778 -0.24444444444444446 -4.333333333333333 1574690000000.0 0.3079944484027505 8.164965788662703e-07 1.1967032903483971e-06 0.0 0.22572243416184976 0.08379870059984387 0.2216659704806667 0.06849348892187752 0.0 1.227262335243029 0.22662308949301266 0.047140452079103425 0.0
93.502 48.04823929999999 11.654537200000002 25.300000000000004 0.11600000000000002 29.848000000000003 0.09 -0.07 0.0 0.48 2.1499999999999995 -4.35 1574690000000.0 0.29895451158997405 7.810249679841345e-07 1.886796226543248e-06 3.552713678800501e-15 0.06437390775772432 0.13496666255042403 0.053851648071345036 0.045825756949558406 0.0 0.20880613017821098 1.2808200498118383 0.050000000000000266 0.0
94.50649999999999 48.04823975 11.654535625000001 25.3 0.21000000000000002 29.96375 -0.05 0.2 0.0 0.012499999999999997 5.425 -4.375 1574690000000.0 0.2668958130057501 4.3301270079896736e-07 6.959705456304958e-07 0.0 0.16209565077447327 0.05242554243877666 0.07071067811865477 0.15000000000000002 0.0 0.2712816801776338 0.3665719574653794 0.04330127018922216 0.0
95.49372222222222 48.04823511111111 11.654542000000001 25.3 0.8400000000000001 29.50111111111111 -0.3444444444444445 0.7666666666666667 0.0 -1.5666666666666667 5.522222222222222 -4.477777777777778 1574690000000.0 0.2834830595674608 1.6629588374798874e-06 2.9439202890533556e-06 0.0 0.18073922282301277 0.20760242154680847 0.06849348892187752 0.16996731711975951 0.0 0.5206833117271104 0.11331154474650627 0.04157397096415476 0.0
96.48637500000001 48.0482285 11.654557375 25.3 1.3162500000000001 28.40625 -0.41250000000000003 1.25 0.0 -2.5 2.575 -4.425000000000001 1574690000000.0 0.32527658903616297 2.2912878469260177e-06 6.836254456985794e-06 0.0 0.06556247020971684 0.47015788571500083 0.03307189138830737 0.07071067811865477 0.0 0.14142135623730964 1.7318703762117995 0.04330127018922178 0.0
97.52499999999999 48.048223368421056 11.654580368421053 25.321052631578944 1.3315789473684212 26.76473684210526 -0.2210526315789474 1.305263157894737 0.0 -2.2789473684210524 -0.5526315789473685 -4.326315789473685 1574690000000.0 0.29729659123154034 6.657426654507921e-07 6.498668093069795e-06 0.04076824574955089 0.06417600452495234 0.4754982807102973 0.14718033109589015 0.05102820902543503 0.0 0.23074010754508395 0.9190203142206045 0.04403473823863579 0.0
98.48531249999999 48.048224875 11.654598 25.4 1.04 25.4325 0.07500000000000001 1.0375 0.0 -0.7375 -1.2625000000000002 -4.425000000000001 1574690000000.0 0.28599753468124595 1.1659223821204487e-06 4.527692569015e-06 0.0 0.08185352771872449 0.35414509738241506 0.06614378277661477 0.08569568250501305 0.0 0.694509719154455 0.8153795128650216 0.04330127018922178 0.0
99.45499999999998 48.0482295 11.654610900000002 25.399999999999995 0.8860000000000001 24.424 0.24999999999999994 0.85 0.0 0.06000000000000001 0.39 -4.420000000000002 1574690000000.0 0.29184345118573557 1.5000000000024253e-06 3.477067730171524e-06 3.552713678800501e-15 0.05444263035526481 0.26729010456805163 0.04999999999999998 0.0670820393249937 0.0 0.19078784028338916 0.11357816691600546 0.039999999999999855 0.0
100.43955555555557 48.04823377777777 11.654619444444442 25.399999999999995 0.648888888888889 23.745555555555555 0.2222222222222222 0.611111111111111 0.0 0.16666666666666666 1.4444444444444446 -4.411111111111112 1574690000000.0 0.2902692662228986 9.162456938002438e-07 1.5713484028424557e-06 3.552713678800501e-15 0.06556497107525303 0.12755052254878868 0.0415739709641549 0.05665577237325315 0.0 0.21602468994692867 0.6734836649196327 0.05665577237325316 0.0
101.51258823529412 48.048235764705886 11.654626588235294 25.4 0.6364705882352941 23.19882352941176 0.058823529411764705 0.6294117647058823 0.0 -0.6352941176470589 3.1882352941176473 -4.4411764705882355 1574690000000.0 0.27242269466304425 4.241825049388035e-07 2.1160124408811154e-06 0.0 0.04185987499919339 0.159221723057583 0.06910200073218077 0.04556450995538137 0.0 0.26555419624225207 0.7339517157873987 0.04921529567847486 0.0
102.4734 48.04823485 11.654635149999999 25.399999999999995 0.8345 22.5715 -0.045 0.8300000000000001 0.0 -1.275 3.405 -4.465000000000001 1574690000000.0 0.29560419482815053 8.529361057031756e-07 3.395217224461774e-06 3.552713678800501e-15 0.0745301952231443 0.2519578337738285 0.049749371855331 0.07141428428542851 0.0 0.3191786333700926 0.7095597226449654 0.04769696007084711 0.0
103.47242105263157 48.04823184210526 11.654646999999999 25.357894736842105 0.9142105263157895 21.70684210526316 -0.14210526315789476 0.8999999999999999 0.0 -2.194736842105263 1.0157894736842108 -4.378947368421053 1574690000000.0 0.2780324319948967 8.119604543292033e-07 3.4182174485622617e-06 0.04937279747182452 0.0049372797471825625 0.2411169760134766 0.04937279747182558 1.1102230246251565e-16 0.0 0.11909166841036581 0.48802842658225815 0.04076824574955198 0.0
104.47425000000001 48.04823 11.6546592 25.300000000000004 0.8270000000000002 20.821000000000005 -0.02 0.8200000000000001 0.0 -1.6199999999999999 0.6799999999999999 -4.345000000000001 1574690000000.0 0.28650058900462944 0.0 3.6138622000402674e-06 3.552713678800501e-15 0.0434856298103178 0.2701462566833008 0.04 0.039999999999999994 0.0 0.20880613017821098 0.198997487421324 0.04974937185533127 0.0
105.53764705882352 48.04823047058824 11.654673235294116 25.288235294117648 0.7411764705882353 19.777647058823533 0.0 0.7411764705882353 0.0 -0.8411764705882352 0.1411764705882353 -4.335294117647059 1574690000000.0 0.3010706270816681 4.991342007709909e-07 3.7656248880270357e-06 0.032218973970892587 0.04921529567847508 0.2841401769169727 0.0 0.04921529567847508 0.0 0.29317495986769676 0.1574010371795253 0.047788461203741195 0.0
106.52349999999998 48.048231 11.654683349999999 25.300000000000004 0.6519999999999998 19.029499999999995 0.02 0.6499999999999998 0.0 -0.7300000000000001 1.0700000000000003 -4.31 1574690000000.0 0.2877393786050138 0.0 2.8155816447416422e-06 3.552713678800501e-15 0.04812483766206385 0.20943913196917135 0.04 0.04999999999999999 0.0 0.12688577540449525 0.22158519806160343 0.030000000000000165 0.0
107.4963888888889 48.04823177777777 11.654691666666668 25.266666666666666 0.6 18.39222222222222 0.0 0.6 0.0 -0.8222222222222223 1.788888888888889 -4.355555555555556 1574690000000.0 0.26070654828942685 4.157397085919072e-07 2.2110831935520213e-06 0.047140452079103834 0.0 0.16658516525774597 0.0 0.0 0.0 0.1812167381144455 0.23778816176703002 0.04969039949999559 0.0
108.47085 48.048231 11.6547005 25.199999999999996 0.69 17.772999999999996 0.0 0.69 0.0 -1.36 2.5300000000000002 -4.4 1574690000000.0 0.29012467578611845 0.0 2.8722813232839662e-06 3.552713678800501e-15 0.05385164807134505 0.1969796943849793 0.0 0.05385164807134505 0.0 0.15620499351813308 0.07810249675906661 0.044721359549995836 0.0
109.52222222222221 48.04822972222222 11.654712166666666 25.188888888888886 0.8444444444444446 16.91111111111111 0.0 0.8444444444444446 0.0 -1.6055555555555554 2.2444444444444445 -4.361111111111111 1574690000000.0 0.30192963778476506 7.307192467795993e-07 4.0034707166964355e-06 0.031426968052734774 0.04969039949999532 0.2861407751612422 0.0 0.04969039949999532 0.0 0.18700036310785373 0.31308895119123054 0.048749802152178716 0.0
110.563 48.04822733333333 11.654725666666666 25.166666666666664 0.9033333333333334 15.938888888888888 -0.03333333333333334 0.8999999999999999 0.0 -1.8666666666666663 1.5111111111111113 -4.400000000000001 1574690000000.0 0.2866325561101233 4.714045229503802e-07 3.85861230087266e-06 0.04714045207910216 0.004714045207910321 0.2846613756122034 0.047140452079103175 1.1102230246251565e-16 0.0 0.08164965809277258 0.20245407953654 0.047140452079103216 0.0
111.49866666666667 48.04822633333333 11.654738333333333 25.2 0.9666666666666666 15.02111111111111 0.0 0.9666666666666666 0.0 -1.5666666666666667 1.711111111111111 -4.388888888888889 1574690000000.0 0.26104320630032835 4.714045196008497e-07 3.7118429086113418e-06 0.0 0.04714045207910316 0.27581976580708745 0.0 0.04714045207910316 0.0 0.11547005383792518 0.16629588385661961 0.03142696805273562 0.0
112.46183333333335 48.048226 11.654752111111113 25.2 1.0 14.02111111111111 0.0 1.0 0.0 -1.4777777777777776 1.2888888888888888 -4.377777777777778 1574690000000.0 0.3032601102097743 0.0 4.280302285507394e-06 0.0 0.0 0.3083448446299639 0.0 0.0 0.0 0.10304020550550787 0.15947444549341466 0.04157397096415513 0.0
113.50069999999998 48.0482262 11.654768200000001 25.24 1.0 12.839000000000002 0.0 1.0 0.0 -1.3999999999999997 1.28 -4.340000000000001 1574690000000.0 0.29218779919770704 3.999999989900971e-07 4.728636167179844e-06 0.048989794855664265 0.0 0.34929786715638567 0.0 0.0 0.0 0.08944271909999159 0.09797958971132714 0.048989794855663814 0.0
114.56055555555554 48.04822744444444 11.654782777777777 25.2 1.0 11.75111111111111 0.10000000000000002 1.0 0.0 -1.1777777777777776 1.4111111111111108 -4.322222222222221 1574690000000.0 0.28852290920445534 4.969039972761064e-07 4.021546904411053e-06 0.0 0.0 0.2944842740356793 1.3877787807814457e-17 0.0 0.0 0.1812167381144454 0.031426968052735475 0.041573970964155126 0.0
115.49883333333335 48.04822855555555 11.65479511111111 25.2 0.9200000000000002 10.825555555555553 0.10000000000000002 0.9111111111111112 0.0 -1.0666666666666664 1.4111111111111108 -4.322222222222221 1574690000000.0 0.2630860125510301 4.969039937453913e-07 3.2810717911737786e-06 0.0 0.02828427124746189 0.24581434327155277 1.3877787807814457e-17 0.031426968052735434 0.0 0.12472191289246472 0.031426968052735475 0.041573970964155126 0.0
116.43205555555556 48.048229666666664 11.654806444444443 25.2 0.9044444444444445 9.973333333333336 0.044444444444444446 0.8999999999999999 0.0 -1.0444444444444443 1.4555555555555557 -4.355555555555555 1574690000000.0 0.28532349520076344 4.714045196008497e-07 3.370166863778195e-06 0.0 0.004969039949999537 0.24805913273518704 0.049690399499995326 1.1102230246251565e-16 0.0 0.14229164972072997 0.10657403385139384 0.0496903994999956 0.0
117.51306249999999 48.048231 11.654819374999999 25.2 0.90625 8.99625 0.0625 0.9 0.0 -0.95 1.8875 -4.35 1574690000000.0 0.29080738228894637 0.0 3.7059917700684345e-06 0.0 0.0048412291827592754 0.2830608371004366 0.04841229182759271 0.0 0.0 0.14142135623730953 0.09270248108869578 0.050000000000000266 0.0
118.49849999999999 48.04823116666667 11.654831888888891 25.22222222222222 0.8999999999999999 8.081666666666667 0.0 0.8999999999999999 0.0 -1.0944444444444443 1.7666666666666666 -4.372222222222224 1574690000000.0 0.29853852347728854 3.7267799530904347e-07 3.828096261544379e-06 0.04157397096415549 1.1102230246251565e-16 0.269160216640985 0.0 1.1102230246251565e-16 0.0 0.07797593804232332 0.047140452079103216 0.044790320823881076 0.0
119.51894736842105 48.04823189473684 11.654844368421054 25.3 0.9263157894736843 7.168421052631579 0.0 0.9263157894736843 0.0 -1.1210526315789473 2.0 -4.400000000000001 1574690000000.0 0.28152207984533467 3.068922042170296e-07 3.716400725122786e-06 0.0 0.044034738238635546 0.27549502159786443 0.0 0.044034738238635546 0.0 0.09502878992246204 0.07947194142390264 8.881784197001252e-16 0.0
120.49178947368421 48.04823168421052 11.654857421052634 25.3 1.0 6.2368421052631575 0.0 1.0 0.0 -1.163157894736842 1.7894736842105263 -4.431578947368422 1574690000000.0 0.2823330580691357 4.648295181068313e-07 3.6894699301352483e-06 0.0 0.0 0.260708601832107 0.0 0.0 0.0 0.08712076503814128 0.11189627171299629 0.04648295192804113 0.0
121.50150000000001 48.048231666666666 11.654871277777778 25.3 1.0 5.257777777777779 0.0 1.0 0.0 -0.9777777777777776 1.8999999999999997 -4.388888888888889 1574690000000.0 0.31238637934455493 4.714045196008497e-07 4.816701909429467e-06 0.0 0.0 0.33837118927059245 0.0 0.0 0.0 0.2593915006650834 2.220446049250313e-16 0.031426968052735614 0.0
122.52372222222223 48.048231888888886 11.654886722222223 25.3 1.0222222222222224 4.204444444444444 0.0 1.0222222222222224 0.0 -1.1 2.1277777777777778 -4.416666666666668 1574690000000.0 0.3109483353934388 3.142696797338998e-07 4.407135067800897e-06 0.0 0.041573970964154945 0.29460373050029665 0.0 0.041573970964154945 0.0 0.15275252316519466 0.13252067157640626 0.04999999999999994 0.0
123.51652631578949 48.048231105263156 11.654901210526317 25.3 1.1000000000000003 3.287368421052632 0.0 1.1000000000000003 0.0 -1.2526315789473683 1.7894736842105263 -4.4105263157894745 1574690000000.0 0.2842231088832657 3.068922042170296e-07 4.199986808970393e-06 0.0 2.220446049250313e-16 0.2549477161108498 0.0 2.220446049250313e-16 0.0 0.10939268258329747 0.23145929923469502 0.055200465693165855 0.0
124.49068421052631 48.048231 11.654915894736842 25.215789473684207 1.1000000000000003 2.5142105263157895 0.0 1.1000000000000003 0.0 -1.4263157894736842 1.5684210526315792 -4.421052631578949 1574690000000.0 0.288417470204415 0.0 4.140871213134224e-06 0.03646422752776635 2.220446049250313e-16 0.19626286855492353 0.0 2.220446049250313e-16 0.0 0.17424153007628265 0.10786263964168001 0.04076824574955161 0.0
125.40937500000001 48.0482321875 11.654929625000001 25.25 1.1 1.9425 0.0625 1.1 0.0 -1.1625 1.44375 -4.4125000000000005 1574690000000.0 0.277668614313898 3.9031237668779207e-07 4.313858481711485e-06 0.05000000000000071 0.0 0.12209115447074775 0.04841229182759271 0.0 0.0 0.30388114452858045 0.1539835624344365 0.03307189138830727 0.0
126.51619999999998 48.0482334 11.654946650000003 25.365000000000002 0.9899999999999997 1.8615 0.06000000000000001 0.9499999999999996 -0.24000000000000005 -0.825 0.5800000000000001 -4.344999999999999 1574690000000.0 0.30036837383452963 4.898979473197623e-07 4.003436024075176e-06 0.0852936105461595 0.04560701700396554 0.06551908119013877 0.04898979485566356 0.0670820393249937 0.1356465996625054 0.3063902739970706 0.28565713714171403 0.049749371855331265 0.0
127.5409 48.0482352 11.6549583 25.840000000000003 1.0659999999999996 2.1870000000000003 0.12000000000000002 0.8099999999999999 -0.6700000000000002 -0.5000000000000001 0.9399999999999998 -4.360000000000001 1574690000000.0 0.29735801653898775 6.000000013273166e-07 3.163858403806096e-06 0.21071307505705467 0.03666060555964671 0.13557654664432192 0.04 0.07000000000000002 0.11000000000000001 0.1414213562373095 0.12806248474865697 0.04898979485566383 0.0
128.53129411764706 48.048237117647055 11.654968176470588 26.61764705882353 1.1811764705882355 2.648823529411765 0.14117647058823532 0.6882352941176471 -0.9470588235294118 -0.29411764705882354 1.3529411764705883 -4.3882352941176475 1574690000000.0 0.26364208463166044 5.823232300951672e-07 2.5491704331335274e-06 0.2549170432943583 0.0595949418443009 0.12578610944265556 0.04921529567847503 0.03221897397089212 0.0848365005991527 0.2208821571237481 0.2032606181549529 0.032218973970892295 0.0
129.41235294117647 48.048238 11.654975882352941 27.5 1.28 3.1258823529411766 0.03529411764705883 0.6529411764705881 -1.1058823529411765 -0.5529411764705883 2.3117647058823527 -4.411764705882354 1574690000000.0 0.26403296166253365 0.0 2.2978852925203015e-06 0.28491484796029 0.02142016641886252 0.16421144273124036 0.04778846120374094 0.04991341984846217 0.02352941176470585 0.2032606181549529 0.18749855824128503 0.03221897397089201 0.0
130.4571 48.0482373 11.654986449999999 28.774999999999995 1.4570000000000003 3.8939999999999997 -0.01 0.7350000000000001 -1.2550000000000001 -0.9599999999999997 2.2950000000000004 -4.3900000000000015 1574690000000.0 0.2966983147913051 7.141428410512476e-07 3.499642839146557e-06 0.3909923272904472 0.0631743618883484 0.2516624723712299 0.030000000000000002 0.04769696007084732 0.049749371855331036 0.23537204591879637 0.19358460682605935 0.05385164807134514 0.0
131.48090000000002 48.048235 11.654998099999998 30.145000000000003 1.637 4.7924999999999995 -0.09500000000000001 0.8550000000000001 -1.39 -1.32 2.2550000000000003 -4.390000000000001 1574690000000.0 0.29410523626756535 7.071067819134224e-07 3.806573262125611e-06 0.41650330130744456 0.07260165287374659 0.2895146801113892 0.021794494717703373 0.04974937185533099 0.06244997998398396 0.10295630140987 0.1243985530462472 0.05385164807134515 0.0
132.4777894736842 48.0482327368421 11.655011842105262 31.584210526315797 1.8110526315789475 5.831578947368421 -0.08947368421052633 1.0052631578947369 -1.5 -1.868421052631579 2.1052631578947363 -4.400000000000001 1574690000000.0 0.2794974021058744 7.139294731931998e-07 4.107286950713771e-06 0.4107286950552991 0.02149534511227595 0.3104540504672527 0.030689220499185793 0.0393858672291994 0.0 0.25557495878271547 0.21878536516659497 8.881784197001252e-16 0.0
133.46155555555555 48.04823066666667 11.655027666666665 33.111111111111114 1.9533333333333336 7.028888888888889 -0.044444444444444446 1.1666666666666665 -1.5666666666666669 -1.844444444444444 1.5777777777777777 -4.400000000000001 1574690000000.0 0.30093100394575706 4.714045229503802e-07 5.773502691860012e-06 0.5043024763515656 0.06599663291074438 0.42816000239901075 0.049690399499995326 0.047140452079103105 0.047140452079103216 0.14989708403591157 0.496158079150358 8.881784197001252e-16 0.0
134.50845 48.048229899999995 11.6550478 34.86 1.9919999999999998 8.503 0.0 1.1999999999999997 -1.5900000000000003 -1.6199999999999999 1.16 -4.38 1574690000000.0 0.29449710949345603 2.9999999924257275e-07 5.653317610240513e-06 0.49436828377233044 0.04308131845707607 0.41109731208072864 0.0 2.220446049250313e-16 0.05385164807134505 0.16613247725836153 0.1907878402833891 0.060000000000000143 0.0
135.53775000000002 48.0482305 11.655066399999999 36.55 2.0740000000000003 9.832 0.06000000000000001 1.1999999999999997 -1.69 -1.1799999999999997 1.175 -4.319999999999999 1574690000000.0 0.2923622538906164 5.00000002290335e-07 5.5263007517413146e-06 0.5054700782440044 0.05919459434779495 0.39761287705505727 0.04898979485566356 2.220446049250313e-16 0.06999999999999998 0.25019992006393604 0.36314597615834876 0.060000000000000143 0.0
136.50711111111113 48.04823177777777 11.655083 38.31111111111112 2.2799999999999994 11.041111111111112 0.12222222222222223 1.2 -1.9333333333333331 -0.5499999999999999 1.838888888888889 -4.383333333333334 1574690000000.0 0.2548676974625808 4.157397085919072e-07 4.068851872091904e-06 0.5009866807820218 0.03559026084010444 0.2958770181621805 0.0628539361054709 0.0 0.047140452079103216 0.08333333333333331 0.2163815788238938 0.03726779962499669 0.0
137.4798 48.048232 11.6550988 40.3 2.4019999999999997 12.180499999999999 0.0 1.1999999999999997 -2.08 -1.2849999999999997 2.2399999999999993 -4.370000000000001 1574690000000.0 0.287187151523184 0.0 4.589117562127899e-06 0.5805170109480007 0.03599999999999994 0.3443904034667636 0.0 2.220446049250313e-16 0.040000000000000036 0.4162631379308045 0.38522720568516444 0.04582575694955865 0.0
138.457 48.048232875 11.655113625 42.25 2.113125 13.265 0.037500000000000006 0.825 -1.9124999999999999 -1.36875 -3.1624999999999996 -4.34375 1574690000000.0 0.2814824594890404 3.307189153979881e-07 3.655047879328256e-06 0.577711000414568 0.14233405908284924 0.2696757312032359 0.04841229182759271 0.3230711995830022 0.03307189138830741 0.2822205476218909 2.709906594331251 0.04960783708246134 0.0
139.53079999999997 48.04823699999999 11.655118900000002 44.54 2.2309999999999994 13.594999999999999 0.3600000000000001 0.06000000000000001 -2.1999999999999993 0.43999999999999995 -0.8899999999999999 -4.3900000000000015 1574690000000.0 0.29071886763676 2.1447610588383968e-06 2.999999997754799e-07 0.6959885056522135 0.10940292500660119 0.014317821063276049 0.1019803902718557 0.06633249580710801 0.09999999999999992 1.0565983153497833 1.2226610323388898 0.030000000000000165 0.0
