OSD.flyTime [s],OSD.latitude,OSD.longitude,OSD.height [m]
0.1,48.182053,11.613817,0
0.2,48.182053,11.613817,0
0.3,48.182053,11.613817,0
0.4,48.182053,11.613817,0
0.5,48.182053,11.613817,0
0.6,48.182053,11.613817,0
0.7,48.182053,11.613817,0
0.8,48.182053,11.613817,0
0.9,48.182053,11.613817,0
1,48.182053,11.613817,0
1.1,48.182054,11.613817,0
1.2,48.182054,11.613817,0
1.3,48.182054,11.613817,0
1.4,48.182054,11.613817,0
1.5,48.182054,11.613817,0
1.6,48.182054,11.613817,0
1.7,48.182054,11.613817,0
1.8,48.182054,11.613816,0
1.9,48.182054,11.613817,0
2,48.182054,11.613816,0
2.1,48.182054,11.613817,0
2.2,48.182054,11.613816,0
2.3,48.182054,11.613816,0
2.4,48.182054,11.613816,0
2.5,48.182055,11.613816,0
2.6,48.182055,11.613816,0.1
2.7,48.182055,11.613816,0.1
2.8,48.182055,11.613816,0.1
2.9,48.182056,11.613817,0.2
3,48.182056,11.613817,0.2
3.1,48.182056,11.613817,0.2
3.2,48.182056,11.613817,0.3
3.3,48.182055,11.613817,0.3
3.4,48.182055,11.613817,0.3
3.5,48.182055,11.613817,0.4
3.6,48.182055,11.613817,0.4
3.7,48.182055,11.613816,0.5
3.8,48.182055,11.613816,0.5
3.9,48.182056,11.613816,0.6
4,48.182056,11.613816,0.6
4.1,48.182055,11.613816,0.7
4.2,48.182055,11.613816,0.7
4.3,48.182055,11.613816,0.8
4.4,48.182055,11.613816,0.8
4.5,48.182056,11.613816,0.9
4.6,48.182056,11.613816,0.9
4.7,48.182055,11.613815,1
4.8,48.182055,11.613815,1
4.9,48.182055,11.613815,1
5,48.182055,11.613815,1.1
5.1,48.182055,11.613815,1.1
5.2,48.182055,11.613815,1.2
5.3,48.182055,11.613815,1.2
5.4,48.182055,11.613816,1.2
5.5,48.182055,11.613816,1.2
5.6,48.182055,11.613816,1.2
5.7,48.182055,11.613816,1.2
5.8,48.182054,11.613816,1.2
5.9,48.182054,11.613816,1.2
6,48.182054,11.613817,1.2
6.1,48.182054,11.613816,1.2
6.2,48.182054,11.613817,1.2
6.3,48.182054,11.613817,1.2
6.4,48.182054,11.613817,1.2
6.5,48.182054,11.613817,1.2
6.6,48.182053,11.613817,1.2
6.7,48.182053,11.613817,1.2
6.8,48.182053,11.613817,1.2
7,48.182053,11.613818,1.2
7.1,48.182053,11.613818,1.2
7.2,48.182053,11.613818,1.2
7.3,48.182053,11.613818,1.3
7.4,48.182053,11.613818,1.4
7.5,48.182052,11.613818,1.5
7.6,48.182052,11.613818,1.7
7.7,48.182053,11.613817,1.8
7.8,48.182053,11.613817,2
7.9,48.182053,11.613817,2.2
8,48.182053,11.613817,2.4
8.1,48.182053,11.613817,2.7
8.2,48.182053,11.613817,2.9
8.3,48.182053,11.613817,3.1
8.4,48.182053,11.613817,3.3
8.5,48.182053,11.613817,3.5
8.6,48.182053,11.613817,3.7
8.7,48.182053,11.613817,3.9
8.8,48.182053,11.613817,4.1
8.9,48.182053,11.613817,4.3
9,48.182053,11.613817,4.5
9.1,48.182053,11.613817,4.7
9.2,48.182053,11.613817,4.9
9.3,48.182053,11.613817,5.1
9.4,48.182053,11.613817,5.3
9.5,48.182053,11.613817,5.5
9.6,48.182053,11.613817,5.7
9.7,48.182053,11.613817,5.9
9.8,48.182053,11.613817,6.1
9.9,48.182053,11.613817,6.3
10,48.182053,11.613817,6.5
10.1,48.182053,11.613817,6.7
10.2,48.182053,11.613817,6.9
10.3,48.182053,11.613818,7.1
10.4,48.182053,11.613818,7.3
10.5,48.182053,11.613818,7.5
10.6,48.182053,11.613818,7.7
10.7,48.182052,11.613818,7.9
10.9,48.182052,11.613818,8.3
11,48.182052,11.613818,8.5
11.1,48.182052,11.613819,8.7
11.2,48.182052,11.613819,8.9
11.3,48.182052,11.613818,9.1
11.4,48.182052,11.613818,9.3
11.5,48.182051,11.613818,9.5
11.6,48.182051,11.613819,9.7
11.7,48.182052,11.613819,9.8
11.8,48.182052,11.613819,9.9
11.9,48.182052,11.613819,9.9
12,48.182051,11.613819,10
12.1,48.182051,11.613818,10
12.2,48.182051,11.613818,10
12.3,48.182051,11.613818,9.9
12.4,48.182051,11.613818,9.9
12.5,48.182051,11.613818,9.9
12.6,48.182051,11.613818,9.9
12.7,48.18205,11.613817,9.9
12.9,48.182051,11.613817,9.8
13,48.182051,11.613817,9.8
13.1,48.182051,11.613817,9.8
13.2,48.182052,11.613816,9.8
13.3,48.182053,11.613817,9.8
13.4,48.182054,11.613816,9.8
13.5,48.182055,11.613817,9.8
13.6,48.182055,11.613817,9.8
13.7,48.182056,11.613818,9.9
13.8,48.182057,11.613818,9.9
13.9,48.182058,11.613819,9.9
14,48.182059,11.613819,9.9
14.1,48.18206,11.613819,9.9
14.2,48.182061,11.61382,9.9
14.3,48.182062,11.61382,9.9
14.4,48.182064,11.613821,9.9
14.5,48.182065,11.613821,9.9
14.6,48.182066,11.613821,9.9
14.7,48.182067,11.613822,9.9
14.8,48.182068,11.613822,9.9
14.9,48.18207,11.613823,9.9
15,48.182071,11.613823,9.9
15.1,48.182072,11.613824,9.9
15.2,48.182074,11.613824,9.9
15.3,48.182075,11.613825,9.9
15.4,48.182076,11.613826,9.9
15.5,48.182078,11.613827,9.9
15.6,48.182079,11.613828,9.9
15.7,48.18208,11.613829,9.9
15.8,48.182081,11.61383,9.9
15.9,48.182082,11.613831,9.9
16,48.182084,11.613832,9.9
16.1,48.182085,11.613833,9.9
16.2,48.182086,11.613834,9.9
16.3,48.182087,11.613835,9.9
16.4,48.182088,11.613836,9.9
16.5,48.182089,11.613837,9.9
16.6,48.18209,11.613839,9.9
16.7,48.182091,11.613839,9.9
16.8,48.182092,11.613841,9.9
16.9,48.182093,11.613842,9.9
17.1,48.182095,11.613844,9.8
17.2,48.182096,11.613846,9.8
17.3,48.182097,11.613847,9.8
17.4,48.182097,11.613848,9.8
17.5,48.182098,11.61385,9.9
17.6,48.182099,11.613852,9.9
17.7,48.1821,11.613854,9.9
17.8,48.182101,11.613856,9.9
17.9,48.182102,11.613858,9.9
18,48.182102,11.61386,9.9
18.1,48.182103,11.613862,9.9
18.2,48.182104,11.613864,9.9
18.3,48.182105,11.613867,9.9
18.4,48.182106,11.613869,9.9
18.5,48.182106,11.613871,9.9
18.6,48.182107,11.613873,9.9
18.7,48.182108,11.613876,9.9
18.8,48.182109,11.613878,9.9
18.9,48.18211,11.613881,9.9
19,48.182111,11.613883,9.9
19.1,48.182112,11.613885,9.9
19.2,48.182113,11.613887,10
19.3,48.182114,11.61389,9.9
19.4,48.182116,11.613892,10
19.5,48.182117,11.613894,10
19.6,48.182118,11.613896,10
19.7,48.18212,11.613899,10
19.8,48.182121,11.613901,10
19.9,48.182123,11.613903,10
20,48.182124,11.613905,10
20.1,48.182126,11.613908,10
20.2,48.182128,11.61391,9.9
20.3,48.18213,11.613912,9.9
20.4,48.182131,11.613914,9.9
20.5,48.182133,11.613916,10
20.6,48.182135,11.613918,10
20.7,48.182137,11.61392,10
20.8,48.182139,11.613922,10
20.9,48.182141,11.613924,10
21,48.182143,11.613926,9.9
21.1,48.182145,11.613928,9.9
21.2,48.182146,11.61393,9.9
21.3,48.182148,11.613932,9.9
21.4,48.18215,11.613934,9.9
21.5,48.182152,11.613936,9.9
21.6,48.182154,11.613938,9.9
21.7,48.182155,11.61394,9.9
21.8,48.182157,11.613942,9.9
21.9,48.182159,11.613943,9.9
22,48.18216,11.613945,9.9
22.1,48.182162,11.613947,9.9
22.2,48.182164,11.613948,9.9
22.3,48.182166,11.61395,9.9
22.4,48.182168,11.613951,9.9
22.5,48.18217,11.613953,9.9
22.6,48.182171,11.613954,9.9
22.7,48.182174,11.613956,9.9
22.8,48.182175,11.613957,9.9
22.9,48.182177,11.613959,9.9
23,48.182179,11.61396,9.9
23.1,48.182181,11.613962,9.9
23.2,48.182182,11.613963,9.9
23.3,48.182184,11.613964,9.9
23.4,48.182185,11.613965,9.9
23.5,48.182185,11.613966,9.9
23.6,48.182186,11.613966,9.9
23.7,48.182186,11.613966,9.9
23.8,48.182186,11.613966,9.9
23.9,48.182186,11.613966,9.9
24,48.182186,11.613967,9.9
24.1,48.182186,11.613966,9.9
24.2,48.182186,11.613967,9.9
24.3,48.182186,11.613966,9.9
24.4,48.182186,11.613966,9.9
24.5,48.182186,11.613966,9.9
24.6,48.182186,11.613966,9.9
24.7,48.182186,11.613965,9.8
24.8,48.182185,11.613965,9.8
24.9,48.182185,11.613965,9.9
25,48.182185,11.613965,9.8
25.1,48.182185,11.613965,9.8
25.2,48.182185,11.613964,9.8
25.3,48.182185,11.613964,9.9
25.4,48.182185,11.613964,9.9
25.5,48.182185,11.613964,9.9
25.6,48.182184,11.613964,9.9
25.7,48.182184,11.613964,9.8
25.8,48.182184,11.613963,9.9
25.9,48.182183,11.613963,9.8
26,48.182183,11.613963,9.8
26.1,48.182182,11.613963,9.8
26.2,48.182182,11.613963,9.8
26.3,48.182181,11.613962,9.8
26.4,48.18218,11.613962,9.8
26.5,48.18218,11.613961,9.8
26.6,48.182179,11.61396,9.8
26.7,48.182178,11.61396,9.8
26.8,48.182177,11.61396,9.8
26.9,48.182176,11.613959,9.8
27,48.182175,11.613959,9.8
27.1,48.182174,11.613958,9.7
27.2,48.182173,11.613957,9.7
27.3,48.182172,11.613957,9.8
27.4,48.182171,11.613956,9.8
27.5,48.182169,11.613955,9.8
27.6,48.182168,11.613955,9.8
27.7,48.182166,11.613954,9.8
27.8,48.182165,11.613954,9.8
28,48.182162,11.613953,9.8
28.1,48.182161,11.613952,9.8
28.2,48.182159,11.613951,9.9
28.3,48.182157,11.613951,9.9
28.4,48.182156,11.61395,9.9
28.6,48.182152,11.613949,9.9
28.7,48.182151,11.613948,9.9
28.8,48.182149,11.613948,9.9
28.9,48.182147,11.613947,9.9
29,48.182146,11.613946,9.9
29.1,48.182144,11.613946,9.9
29.2,48.182142,11.613945,9.9
29.3,48.18214,11.613944,9.9
29.4,48.182138,11.613943,9.9
29.5,48.182136,11.613943,9.9
29.6,48.182134,11.613942,9.9
29.7,48.182132,11.613942,9.9
29.9,48.182128,11.61394,9.9
30,48.182126,11.61394,9.9
30.1,48.182125,11.613939,10
30.2,48.182123,11.613939,9.9
30.3,48.182121,11.613938,9.9
30.4,48.182119,11.613937,9.9
30.5,48.182117,11.613936,9.9
30.6,48.182115,11.613935,9.9
30.7,48.182113,11.613935,10
30.8,48.182111,11.613934,10
30.9,48.182108,11.613933,10
31,48.182106,11.613932,10
31.1,48.182104,11.613932,10
31.2,48.182102,11.613931,10
31.3,48.1821,11.61393,10
31.5,48.182095,11.613929,10
31.4,48.182098,11.613929,10
31.6,48.182093,11.613928,10.1
31.8,48.182088,11.613926,10.1
31.9,48.182086,11.613925,10.1
32,48.182084,11.613924,10.1
32.1,48.182082,11.613923,10.1
32.2,48.18208,11.613922,10.1
32.3,48.182078,11.613921,10.1
32.4,48.182075,11.61392,10.1
32.5,48.182073,11.613919,10.1
32.6,48.182071,11.613918,10.1
32.7,48.182069,11.613918,10.1
32.8,48.182067,11.613917,10.2
32.9,48.182064,11.613915,10.1
33,48.182062,11.613914,10.1
33.1,48.182059,11.613913,10.1
33.2,48.182057,11.613912,10.1
33.3,48.182055,11.613911,10.2
33.4,48.182052,11.61391,10.2
33.5,48.18205,11.613909,10.2
33.6,48.182048,11.613908,10.2
33.7,48.182046,11.613907,10.1
33.8,48.182044,11.613906,10.1
33.9,48.182041,11.613904,10.1
34,48.182039,11.613903,10.1
34.1,48.182037,11.613902,10.1
34.2,48.182035,11.613901,10.1
34.3,48.182033,11.613899,10
34.4,48.182031,11.613898,10
34.5,48.182029,11.613897,10
34.6,48.182027,11.613895,10
34.7,48.182025,11.613893,10
34.8,48.182023,11.613892,10
34.9,48.182021,11.61389,10
35,48.182019,11.613889,10
35.1,48.182017,11.613887,10
35.2,48.182015,11.613886,10
35.3,48.182013,11.613885,10
35.4,48.182011,11.613883,10
35.5,48.18201,11.613881,10
35.6,48.182008,11.61388,10
35.7,48.182006,11.613878,10
35.8,48.182004,11.613876,10
35.9,48.182002,11.613874,10
36,48.182001,11.613872,10
36.1,48.181999,11.613871,10
36.2,48.181997,11.613869,10
36.3,48.181995,11.613867,10
36.4,48.181994,11.613865,10
36.5,48.181992,11.613863,10
36.6,48.181991,11.613861,10
36.7,48.181989,11.61386,10
36.8,48.181987,11.613858,10
36.9,48.181986,11.613856,10
37,48.181984,11.613854,10
37.1,48.181983,11.613852,10
37.2,48.181981,11.61385,10
37.3,48.18198,11.613848,10
37.4,48.181978,11.613846,10
37.5,48.181977,11.613844,10
37.6,48.181975,11.613842,10
37.7,48.181974,11.613839,10
37.8,48.181972,11.613837,10
37.9,48.18197,11.613835,10
38,48.181969,11.613833,10
38.1,48.181968,11.613831,10
38.2,48.181966,11.613829,10
38.3,48.181965,11.613826,9.9
38.4,48.181963,11.613824,9.9
38.5,48.181962,11.613822,9.9
38.6,48.18196,11.61382,9.9
38.7,48.181959,11.613817,9.9
38.8,48.181957,11.613815,9.9
38.9,48.181956,11.613813,9.9
39,48.181954,11.613811,9.9
39.1,48.181953,11.613809,9.9
39.2,48.181952,11.613807,10
39.3,48.18195,11.613804,10
39.4,48.181949,11.613802,10
39.5,48.181948,11.6138,10
39.6,48.181946,11.613798,10
39.7,48.181945,11.613796,10
39.8,48.181944,11.613793,10
39.9,48.181942,11.613791,10
40,48.181941,11.613789,10
40.1,48.18194,11.613787,10
40.2,48.181939,11.613784,10
40.3,48.181937,11.613782,10.1
40.4,48.181936,11.61378,10.1
40.5,48.181934,11.613778,10
40.6,48.181933,11.613776,10.1
40.7,48.181932,11.613773,10.1
40.8,48.181931,11.613771,10.1
40.9,48.181929,11.613768,10.1
41,48.181928,11.613766,10.1
41.1,48.181927,11.613764,10.1
41.2,48.181926,11.613761,10.1
41.3,48.181924,11.61376,10.1
41.4,48.181923,11.613757,10.1
41.5,48.181922,11.613755,10.1
41.6,48.181921,11.613753,10.1
41.7,48.181919,11.613752,10.1
41.8,48.181919,11.61375,10.1
41.9,48.181918,11.613749,10.1
42,48.181918,11.613748,10.1
42.1,48.181918,11.613748,10.1
42.2,48.181917,11.613748,10.1
42.3,48.181917,11.613748,10.1
42.4,48.181917,11.613748,10
42.5,48.181916,11.613748,10
42.6,48.181916,11.613748,10
42.7,48.181916,11.613748,10
42.8,48.181916,11.613749,9.9
42.9,48.181916,11.613749,10
43,48.181916,11.613749,9.9
43.1,48.181916,11.613749,9.9
43.2,48.181916,11.613749,9.9
43.3,48.181916,11.613749,9.9
43.4,48.181916,11.613749,9.9
43.5,48.181916,11.613749,10
43.6,48.181916,11.613749,10.2
43.7,48.181916,11.613749,10.4
43.8,48.181916,11.613749,10.5
43.9,48.181916,11.613749,10.7
44,48.181916,11.613749,10.9
44.1,48.181916,11.613749,11.1
44.2,48.181916,11.613749,11.3
44.3,48.181916,11.613749,11.5
44.4,48.181916,11.613749,11.6
44.5,48.181916,11.613749,11.8
44.6,48.181916,11.61375,12
44.7,48.181916,11.61375,12.2
44.8,48.181916,11.613751,12.4
44.9,48.181916,11.613751,12.6
45,48.181916,11.613751,12.8
45.1,48.181916,11.613752,13
45.2,48.181916,11.613752,13.2
45.3,48.181916,11.613753,13.4
45.4,48.181916,11.613753,13.6
45.5,48.181916,11.613753,13.8
45.6,48.181916,11.613754,14
45.7,48.181916,11.613754,14.2
45.8,48.181916,11.613754,14.4
45.9,48.181916,11.613754,14.6
46,48.181916,11.613755,14.8
46.1,48.181916,11.613754,15
46.2,48.181916,11.613754,15.1
46.3,48.181916,11.613754,15.3
46.4,48.181916,11.613755,15.5
46.5,48.181916,11.613755,15.8
46.6,48.181916,11.613755,15.9
46.7,48.181916,11.613755,16.1
46.8,48.181916,11.613754,16.3
46.9,48.181916,11.613754,16.6
47,48.181916,11.613754,16.8
47.1,48.181916,11.613755,17
47.2,48.181916,11.613754,17.2
47.3,48.181916,11.613754,17.4
47.4,48.181916,11.613754,17.6
47.5,48.181916,11.613754,17.7
47.6,48.181916,11.613754,17.9
47.7,48.181915,11.613754,18.2
47.8,48.181915,11.613754,18.4
47.9,48.181915,11.613754,18.6
48,48.181915,11.613754,18.8
48.1,48.181916,11.613754,19
48.2,48.181915,11.613754,19.2
48.3,48.181916,11.613754,19.4
48.4,48.181916,11.613754,19.6
48.5,48.181915,11.613753,19.8
48.6,48.181915,11.613753,20
48.7,48.181915,11.613753,20.2
48.8,48.181915,11.613753,20.4
48.9,48.181915,11.613753,20.6
49,48.181915,11.613753,20.8
49.1,48.181915,11.613754,21
49.2,48.181915,11.613754,21.2
49.3,48.181915,11.613754,21.4
49.4,48.181915,11.613754,21.6
49.5,48.181915,11.613754,21.8
49.6,48.181915,11.613754,22
49.7,48.181914,11.613754,22.3
49.8,48.181914,11.613754,22.4
49.9,48.181914,11.613754,22.7
50,48.181914,11.613754,22.9
50.1,48.181914,11.613754,23.1
50.2,48.181914,11.613754,23.2
50.3,48.181914,11.613754,23.5
50.4,48.181914,11.613754,23.7
50.5,48.181914,11.613754,23.9
50.6,48.181914,11.613754,24.1
50.7,48.181913,11.613754,24.3
50.8,48.181913,11.613754,24.5
50.9,48.181913,11.613754,24.7
51,48.181913,11.613754,24.9
51.1,48.181913,11.613754,25.1
51.2,48.181913,11.613754,25.3
51.3,48.181913,11.613754,25.5
51.4,48.181913,11.613754,25.6
51.5,48.181913,11.613754,25.8
51.6,48.181913,11.613754,25.8
51.7,48.181913,11.613755,25.8
51.8,48.181913,11.613755,25.9
51.9,48.181912,11.613755,25.8
52,48.181912,11.613755,25.8
52.6,48.181912,11.613755,25.8
52.7,48.181911,11.613755,25.9
52.8,48.181911,11.613755,25.9
52.9,48.181911,11.613755,25.9
53,48.181911,11.613755,25.9
53.1,48.181911,11.613756,25.9
53.2,48.181911,11.613756,25.9
53.3,48.181911,11.613756,25.9
53.4,48.181911,11.613756,25.9
53.5,48.181912,11.613757,25.9
53.6,48.181913,11.613757,25.9
53.7,48.181913,11.613758,25.9
53.8,48.181914,11.613758,25.9
53.9,48.181915,11.613759,25.9
54,48.181916,11.613759,25.9
54.1,48.181916,11.61376,25.9
54.2,48.181917,11.61376,25.9
54.3,48.181918,11.613761,25.9
54.4,48.181919,11.613762,25.9
54.5,48.18192,11.613762,25.9
54.6,48.181921,11.613763,25.9
54.7,48.181922,11.613763,25.9
54.8,48.181923,11.613764,25.9
54.9,48.181925,11.613765,25.9
55,48.181926,11.613766,25.9
55.1,48.181927,11.613766,25.9
55.2,48.181928,11.613767,25.9
55.3,48.181929,11.613768,25.9
55.4,48.18193,11.613769,25.9
55.5,48.181931,11.61377,25.9
55.6,48.181933,11.613772,25.9
55.7,48.181934,11.613773,25.8
55.8,48.181935,11.613774,25.8
55.9,48.181936,11.613775,25.8
56,48.181937,11.613777,25.8
56.1,48.181939,11.613778,25.8
56.2,48.18194,11.61378,25.8
56.3,48.181941,11.613781,25.8
56.4,48.181942,11.613783,25.8
56.5,48.181943,11.613784,25.8
56.6,48.181944,11.613786,25.7
56.7,48.181945,11.613787,25.7
56.8,48.181946,11.613789,25.7
56.9,48.181948,11.613791,25.7
57,48.181949,11.613793,25.7
57.1,48.18195,11.613794,25.7
57.2,48.181951,11.613796,25.7
57.3,48.181952,11.613798,25.7
57.4,48.181953,11.6138,25.6
57.5,48.181954,11.613802,25.6
57.6,48.181955,11.613804,25.6
57.7,48.181956,11.613806,25.6
57.8,48.181957,11.613808,25.6
57.9,48.181958,11.61381,25.6
58,48.181959,11.613812,25.6
58.1,48.18196,11.613814,25.6
58.2,48.181961,11.613816,25.6
58.3,48.181962,11.613818,25.6
58.4,48.181963,11.61382,25.6
58.6,48.181965,11.613825,25.6
58.7,48.181966,11.613827,25.6
58.8,48.181967,11.613829,25.6
58.9,48.181968,11.613831,25.6
59,48.181969,11.613834,25.6
59.1,48.18197,11.613836,25.5
59.2,48.181971,11.613838,25.5
59.3,48.181972,11.61384,25.5
59.4,48.181973,11.613843,25.5
59.5,48.181975,11.613845,25.6
59.6,48.181976,11.613847,25.5
59.7,48.181977,11.61385,25.6
59.8,48.181978,11.613852,25.6
59.9,48.18198,11.613854,25.6
60,48.181981,11.613856,25.6
60.1,48.181982,11.613858,25.6
60.2,48.181984,11.61386,25.6
60.3,48.181985,11.613863,25.6
60.4,48.181986,11.613865,25.6
60.5,48.181988,11.613867,25.7
60.6,48.181989,11.613869,25.6
60.7,48.181991,11.613871,25.7
60.8,48.181992,11.613873,25.7
60.9,48.181994,11.613875,25.7
61,48.181995,11.613877,25.7
61.1,48.181997,11.613878,25.7
61.2,48.181998,11.61388,25.7
61.3,48.182,11.613882,25.7
61.4,48.182002,11.613884,25.7
61.5,48.182003,11.613886,25.7
61.6,48.182005,11.613887,25.7
61.7,48.182007,11.613889,25.7
61.8,48.182009,11.613891,25.7
61.9,48.18201,11.613893,25.7
62,48.182012,11.613894,25.7
62.2,48.182016,11.613898,25.8
62.3,48.182018,11.6139,25.8
62.4,48.18202,11.613902,25.8
62.6,48.182023,11.613905,25.8
62.7,48.182025,11.613907,25.8
62.8,48.182027,11.613909,25.8
62.9,48.182029,11.613911,25.8
63,48.182031,11.613913,25.8
63.1,48.182033,11.613914,25.8
63.2,48.182034,11.613916,25.8
63.3,48.182036,11.613918,25.7
63.4,48.182038,11.61392,25.7
63.5,48.182039,11.613922,25.7
63.6,48.182041,11.613924,25.7
63.7,48.182043,11.613925,25.7
63.8,48.182044,11.613927,25.7
63.9,48.182046,11.613929,25.7
64,48.182048,11.613931,25.7
64.1,48.18205,11.613933,25.7
64.2,48.182051,11.613935,25.7
64.3,48.182053,11.613936,25.7
64.4,48.182055,11.613938,25.7
64.5,48.182056,11.61394,25.7
64.6,48.182058,11.613942,25.7
64.7,48.18206,11.613944,25.7
64.8,48.182061,11.613946,25.7
64.9,48.182063,11.613947,25.7
65,48.182065,11.613949,25.7
65.1,48.182066,11.613951,25.7
65.2,48.182068,11.613953,25.7
65.3,48.18207,11.613955,25.7
65.4,48.182071,11.613957,25.7
65.6,48.182074,11.613961,25.7
65.7,48.182076,11.613963,25.7
65.8,48.182078,11.613965,25.7
66.3,48.182086,11.613975,25.7
66.4,48.182088,11.613977,25.7
66.5,48.182089,11.613978,25.7
66.6,48.182091,11.61398,25.7
66.7,48.182092,11.613982,25.7
66.8,48.182094,11.613984,25.7
66.9,48.182096,11.613986,25.7
67,48.182097,11.613988,25.7
67.1,48.182099,11.61399,25.7
67.2,48.182101,11.613992,25.7
67.3,48.182102,11.613994,25.7
67.4,48.182104,11.613996,25.7
67.5,48.182105,11.613998,25.7
67.6,48.182107,11.614,25.7
67.7,48.182108,11.614003,25.7
67.8,48.18211,11.614005,25.7
67.9,48.182111,11.614007,25.7
68,48.182113,11.614009,25.7
68.1,48.182114,11.614011,25.8
68.2,48.182116,11.614013,25.8
68.3,48.182118,11.614015,25.8
68.4,48.182119,11.614017,25.8
68.5,48.182121,11.614019,25.7
68.6,48.182122,11.614021,25.7
68.7,48.182124,11.614023,25.7
68.8,48.182126,11.614025,25.7
68.9,48.182128,11.614027,25.7
69,48.182129,11.614029,25.7
69.1,48.182131,11.614031,25.8
69.2,48.182132,11.614034,25.8
69.3,48.182134,11.614036,25.8
69.4,48.182135,11.614038,25.8
69.5,48.182137,11.61404,25.8
69.6,48.182138,11.614042,25.8
69.7,48.18214,11.614045,25.7
69.8,48.182141,11.614047,25.7
69.9,48.182143,11.61405,25.7
70,48.182144,11.614052,25.7
70.1,48.182145,11.614054,25.7
70.2,48.182147,11.614056,25.7
70.3,48.182148,11.614058,25.7
70.4,48.182149,11.61406,25.7
70.8,48.18215,11.614063,25.8
70.9,48.18215,11.614063,25.8
71,48.18215,11.614063,25.8
71.1,48.18215,11.614062,25.8
71.2,48.18215,11.614062,25.8
71.3,48.18215,11.614062,25.7
71.4,48.18215,11.614062,25.7
71.5,48.18215,11.614062,25.7
71.6,48.18215,11.614061,25.7
71.7,48.18215,11.614062,25.7
71.8,48.18215,11.614061,25.7
71.9,48.18215,11.614062,25.7
72,48.18215,11.614061,25.7
72.1,48.18215,11.614061,25.7
72.2,48.18215,11.614061,25.7
72.3,48.18215,11.614061,25.7
72.4,48.18215,11.614061,25.7
72.5,48.18215,11.614061,25.7
72.6,48.18215,11.614061,25.7
72.7,48.18215,11.614061,25.8
73,48.18215,11.614061,26.2
72.8,48.18215,11.614061,25.9
72.9,48.18215,11.614061,26
73.1,48.18215,11.614061,26.4
73.3,48.18215,11.614061,26.8
73.4,48.18215,11.614061,27
73.5,48.182149,11.614061,27.1
73.6,48.182149,11.614061,27.3
73.7,48.182149,11.614061,27.5
73.8,48.182149,11.614061,27.7
73.9,48.182149,11.614061,27.9
74,48.18215,11.614061,28
74.1,48.18215,11.614062,28.2
74.2,48.18215,11.614062,28.4
74.3,48.18215,11.614062,28.6
74.4,48.18215,11.614062,28.8
74.5,48.18215,11.614062,29
74.6,48.18215,11.614062,29.2
74.7,48.18215,11.614062,29.4
74.8,48.18215,11.614062,29.6
74.9,48.18215,11.614062,29.8
75,48.18215,11.614062,30
75.2,48.18215,11.614063,30.4
75.3,48.18215,11.614063,30.6
75.4,48.18215,11.614063,30.8
75.5,48.18215,11.614063,31
75.6,48.18215,11.614063,31.2
75.7,48.18215,11.614062,31.4
75.8,48.18215,11.614062,31.6
75.9,48.18215,11.614063,31.8
76,48.18215,11.614063,31.9
76.1,48.18215,11.614062,32.2
76.2,48.18215,11.614062,32.4
76.3,48.18215,11.614062,32.6
76.4,48.18215,11.614062,32.7
76.5,48.18215,11.614062,32.9
76.6,48.18215,11.614062,33.1
76.7,48.18215,11.614062,33.3
76.8,48.18215,11.614062,33.6
76.9,48.18215,11.614062,33.7
77,48.18215,11.614062,33.9
77.1,48.18215,11.614062,34.1
77.2,48.18215,11.614062,34.3
77.3,48.18215,11.614062,34.5
77.4,48.18215,11.614062,34.7
77.5,48.18215,11.614062,35
77.6,48.18215,11.614062,35.1
77.7,48.18215,11.614062,35.4
77.8,48.18215,11.614062,35.5
77.9,48.18215,11.614062,35.7
78,48.18215,11.614062,36
78.1,48.18215,11.614062,36.2
78.2,48.18215,11.614062,36.4
78.3,48.18215,11.614062,36.6
78.4,48.18215,11.614062,36.8
78.5,48.18215,11.614062,37
78.6,48.18215,11.614062,37.2
78.7,48.18215,11.614062,37.4
78.8,48.18215,11.614062,37.6
78.9,48.18215,11.614062,37.8
79,48.18215,11.614062,38
79.1,48.18215,11.614062,38.2
79.2,48.18215,11.614062,38.4
79.3,48.182149,11.614062,38.6
79.4,48.182149,11.614062,38.8
79.5,48.182149,11.614062,39
79.6,48.182149,11.614062,39.2
79.7,48.182149,11.614062,39.4
79.8,48.182149,11.614062,39.6
79.9,48.182149,11.614062,39.8
80,48.182149,11.614062,40
80.1,48.182149,11.614062,40.2
80.2,48.182149,11.614062,40.5
80.3,48.18215,11.614062,40.7
80.4,48.18215,11.614062,40.9
80.5,48.182149,11.614062,41.1
80.6,48.182149,11.614062,41.3
80.7,48.182149,11.614062,41.5
80.8,48.182149,11.614062,41.7
80.9,48.18215,11.614062,41.9
81,48.18215,11.614062,42.1
81.1,48.182149,11.614062,42.3
81.2,48.182149,11.614061,42.5
81.3,48.182149,11.614062,42.7
81.4,48.182149,11.614062,42.9
81.5,48.182149,11.614061,43.1
81.6,48.182149,11.614061,43.3
81.7,48.182149,11.614061,43.5
81.8,48.182149,11.614061,43.7
81.9,48.182149,11.614061,43.9
82,48.182149,11.614061,44.1
82.1,48.18215,11.614061,44.3
82.2,48.18215,11.614061,44.5
82.3,48.18215,11.614061,44.7
82.4,48.18215,11.614061,44.9
82.5,48.18215,11.614061,45.1
82.6,48.18215,11.614061,45.3
82.7,48.18215,11.614061,45.5
82.8,48.18215,11.614061,45.7
82.9,48.18215,11.614061,45.9
83,48.18215,11.614061,46.1
83.1,48.18215,11.614061,46.3
83.2,48.18215,11.614061,46.5
83.3,48.18215,11.614061,46.7
83.4,48.18215,11.614061,46.9
83.5,48.18215,11.614061,47.1
83.6,48.18215,11.614061,47.3
83.7,48.18215,11.614061,47.5
83.8,48.18215,11.614061,47.7
83.9,48.18215,11.614061,47.9
84,48.18215,11.614061,48.1
84.1,48.18215,11.614061,48.3
84.2,48.18215,11.614061,48.4
84.3,48.18215,11.614061,48.6
84.4,48.18215,11.614061,48.7
84.5,48.18215,11.614061,48.8
84.6,48.18215,11.614061,48.9
84.7,48.18215,11.614061,49
84.8,48.18215,11.614061,49.1
84.9,48.18215,11.614061,49.2
91.5,48.182151,11.614059,50
91.9,48.182151,11.614059,50
92.6,48.182151,11.614059,49.9
92.9,48.182151,11.614059,49.9
93,48.182151,11.614059,49.9
93.1,48.182151,11.614059,49.9
93.4,48.182151,11.614059,49.9
93.5,48.182151,11.614059,49.9
93.6,48.182151,11.614059,49.9
94.1,48.182151,11.614058,49.9
94.2,48.182151,11.614058,49.9
94.3,48.182151,11.614058,49.9
94.4,48.182151,11.614058,49.9
94.5,48.182151,11.614058,49.9
94.6,48.182151,11.614058,49.9
94.7,48.182151,11.614058,49.9
94.8,48.182152,11.614058,49.9
94.9,48.182152,11.614058,49.9
95,48.182152,11.614058,49.9
95.1,48.182152,11.614058,49.9
95.2,48.182152,11.614058,49.9
95.3,48.182152,11.614058,49.9
95.4,48.182152,11.614058,49.9
95.5,48.182151,11.614058,49.9
95.6,48.182151,11.614058,49.9
95.7,48.182151,11.614057,49.9
95.8,48.18215,11.614057,49.9
95.9,48.18215,11.614057,49.9
96,48.18215,11.614056,49.9
96.1,48.182149,11.614055,49.9
96.2,48.182148,11.614055,49.9
96.3,48.182148,11.614054,49.9
96.4,48.182147,11.614053,49.9
96.5,48.182147,11.614053,49.9
96.6,48.182146,11.614052,49.9
96.7,48.182145,11.614051,49.9
96.8,48.182144,11.61405,49.9
96.9,48.182144,11.614049,49.9
97,48.182143,11.614048,49.9
97.1,48.182142,11.614047,49.9
97.2,48.182141,11.614046,49.8
97.3,48.18214,11.614045,49.8
97.4,48.182139,11.614044,49.8
97.5,48.182138,11.614043,49.8
97.6,48.182136,11.614041,49.8
97.7,48.182135,11.61404,49.8
97.8,48.182134,11.614039,49.8
97.9,48.182132,11.614037,49.8
98,48.182131,11.614036,49.8
98.1,48.18213,11.614035,49.8
98.2,48.182129,11.614033,49.8
98.3,48.182127,11.614032,49.8
98.4,48.182126,11.614031,49.8
98.5,48.182124,11.614029,49.9
98.6,48.182123,11.614028,49.9
98.7,48.182121,11.614026,49.9
98.8,48.18212,11.614025,49.9
98.9,48.182118,11.614023,49.9
99,48.182117,11.614022,49.9
99.1,48.182115,11.61402,49.9
99.2,48.182114,11.614019,49.9
99.3,48.182112,11.614017,49.9
99.4,48.182111,11.614016,49.9
100.6,48.18209,11.613997,50.1
100.7,48.182088,11.613995,50.1
100.8,48.182086,11.613993,50.1
100.9,48.182084,11.613991,50.1
101,48.182082,11.61399,50.1
101.1,48.18208,11.613988,50.1
101.2,48.182079,11.613986,50.1
101.3,48.182077,11.613985,50.1
101.4,48.182075,11.613983,50.1
101.5,48.182073,11.613982,50
101.6,48.182071,11.61398,50
101.7,48.182069,11.613978,50
101.8,48.182067,11.613976,50
101.9,48.182065,11.613974,50
102,48.182063,11.613973,50
102.1,48.182061,11.613971,50
102.3,48.182057,11.613968,50
102.4,48.182055,11.613966,50
102.2,48.182059,11.613969,50
102.5,48.182053,11.613964,50
102.6,48.182051,11.613963,50
102.7,48.182049,11.613961,50
102.8,48.182047,11.613959,50
102.9,48.182045,11.613958,50
103,48.182043,11.613956,50
103.1,48.182041,11.613954,50
103.2,48.182039,11.613953,50
103.3,48.182037,11.613951,50
103.4,48.182035,11.613949,50
103.5,48.182033,11.613948,50
103.6,48.182031,11.613946,50
103.7,48.182029,11.613945,50
103.8,48.182027,11.613943,50
103.9,48.182025,11.613941,50
104,48.182023,11.61394,50
104.1,48.182021,11.613938,50
104.2,48.182019,11.613936,50
104.4,48.182015,11.613933,50
104.6,48.182011,11.61393,50
111.1,48.181878,11.613829,49.9
111.2,48.181876,11.613828,50
111.3,48.181874,11.613826,49.9
111.4,48.181872,11.613825,49.9
111.5,48.18187,11.613823,49.9
111.6,48.181868,11.613821,49.9
111.7,48.181866,11.61382,49.9
111.8,48.181864,11.613819,49.9
111.9,48.181861,11.613817,50
112,48.181859,11.613816,50
112.1,48.181857,11.613814,49.9
112.2,48.181855,11.613812,49.9
112.3,48.181853,11.613811,49.9
112.4,48.181851,11.61381,49.9
112.5,48.181849,11.613808,49.9
112.6,48.181847,11.613807,49.9
112.7,48.181845,11.613805,49.9
112.8,48.181842,11.613804,49.9
112.9,48.18184,11.613802,49.9
113,48.181838,11.613801,49.9
113.1,48.181836,11.613799,49.9
113.2,48.181834,11.613798,49.9
113.3,48.181832,11.613797,49.9
113.4,48.18183,11.613795,49.9
113.5,48.181828,11.613794,49.9
113.6,48.181826,11.613792,50
113.7,48.181824,11.613791,50
113.9,48.18182,11.613788,50
114,48.181818,11.613787,49.9
114.1,48.181816,11.613785,49.9
114.3,48.181813,11.613783,49.9
114.6,48.18181,11.613782,49.9
114.7,48.181809,11.613781,49.9
114.8,48.181809,11.613781,49.9
114.9,48.181809,11.613781,49.9
115,48.181808,11.613781,49.9
115.1,48.181809,11.613781,49.9
115.2,48.181809,11.613781,49.9
115.3,48.181809,11.61378,49.9
115.4,48.181809,11.61378,49.9
115.5,48.181809,11.61378,49.9
115.6,48.181809,11.61378,49.9
115.7,48.181809,11.61378,49.9
115.8,48.181809,11.61378,49.9
115.9,48.181809,11.61378,50
116,48.181809,11.61378,50
116.1,48.181809,11.61378,49.9
116.2,48.181809,11.61378,50
116.3,48.181809,11.61378,49.9
116.4,48.181809,11.61378,50
116.5,48.181809,11.61378,50
116.6,48.181809,11.61378,50
116.7,48.181809,11.61378,50
116.8,48.181809,11.61378,50
116.9,48.181809,11.61378,49.9
117,48.181809,11.61378,49.9
117.1,48.181809,11.61378,49.8
117.2,48.181809,11.61378,49.7
117.3,48.181808,11.61378,49.6
117.4,48.181808,11.61378,49.5
117.7,48.181808,11.613781,49.2
117.8,48.181808,11.61378,49.1
117.9,48.181808,11.613781,49
118,48.181808,11.61378,49
118.1,48.181808,11.613781,48.9
118.2,48.181808,11.613781,48.8
118.3,48.181808,11.613781,48.7
118.4,48.181808,11.613781,48.6
118.5,48.181808,11.613781,48.5
118.6,48.181808,11.613781,48.4
118.7,48.181808,11.613781,48.3
118.8,48.181808,11.613781,48.2
118.9,48.181808,11.613781,48.1
119,48.181808,11.613781,48
119.1,48.181808,11.613781,47.9
119.4,48.181808,11.613781,47.6
119.5,48.181808,11.61378,47.5
119.6,48.181808,11.61378,47.4
119.7,48.181808,11.61378,47.3
119.8,48.181808,11.61378,47.2
119.9,48.181808,11.61378,47.1
120,48.181808,11.61378,47
120.1,48.181808,11.61378,46.9
120.2,48.181808,11.61378,46.8
120.3,48.181808,11.613781,46.7
120.4,48.181808,11.613781,46.6
120.5,48.181808,11.613781,46.5
120.6,48.181808,11.613781,46.4
120.7,48.181808,11.613781,46.3
120.8,48.181808,11.613781,46.2
120.9,48.181808,11.613781,46.1
121,48.181808,11.613781,46
121.1,48.181808,11.613781,45.9
121.2,48.181808,11.613781,45.8
121.3,48.181808,11.613781,45.7
121.4,48.181808,11.613781,45.6
121.5,48.181808,11.613781,45.5
121.6,48.181808,11.613781,45.4
121.7,48.181808,11.613781,45.3
121.8,48.181808,11.613781,45.2
121.9,48.181808,11.613781,45.1
122,48.181808,11.613781,45
122.1,48.181808,11.613781,44.9
122.2,48.181808,11.613781,44.8
122.3,48.181808,11.613781,44.7
122.4,48.181808,11.613781,44.6
122.5,48.181808,11.613781,44.5
122.6,48.181808,11.613781,44.4
122.7,48.181808,11.613781,44.3
122.8,48.181808,11.613781,44.2
122.9,48.181808,11.613781,44.1
123,48.181808,11.613781,44
123.1,48.181808,11.613781,43.9
123.2,48.181808,11.613781,43.8
123.3,48.181808,11.613781,43.7
123.4,48.181808,11.613781,43.6
123.5,48.181808,11.613781,43.5
123.6,48.181808,11.613781,43.4
123.7,48.181808,11.613781,43.3
123.8,48.181808,11.613781,43.2
123.9,48.181808,11.613781,43.1
124,48.181808,11.613781,43
124.1,48.181808,11.613781,42.9
124.2,48.181808,11.613781,42.8
124.3,48.181808,11.613781,42.7
124.4,48.181808,11.613781,42.6
124.5,48.181808,11.613781,42.5
124.6,48.181808,11.613781,42.4
124.7,48.181808,11.613781,42.3
124.8,48.181808,11.613781,42.2
124.9,48.181808,11.613781,42.1
125,48.181808,11.613781,42
125.1,48.181808,11.613781,41.9
125.2,48.181808,11.613781,41.8
125.3,48.181808,11.613781,41.6
125.4,48.181808,11.613781,41.5
125.5,48.181808,11.613781,41.4
125.6,48.181808,11.613781,41.3
125.7,48.181808,11.613781,41.2
125.8,48.181808,11.613781,41.1
125.9,48.181808,11.613781,41
126,48.181808,11.613781,40.9
126.1,48.181808,11.613781,40.9
126.2,48.181808,11.613781,40.7
126.3,48.181808,11.613781,40.6
126.4,48.181808,11.613781,40.5
126.5,48.181808,11.613781,40.4
126.6,48.181808,11.613781,40.3
126.7,48.181808,11.613782,40.2
126.8,48.181808,11.613782,40.1
126.9,48.181808,11.613782,40
127,48.181808,11.613782,39.9
127.1,48.181807,11.613782,39.8
127.2,48.181807,11.613782,39.8
127.3,48.181807,11.613782,39.7
127.4,48.181807,11.613782,39.6
127.5,48.181807,11.613782,39.5
127.6,48.181807,11.613782,39.4
127.7,48.181807,11.613782,39.3
127.8,48.181807,11.613782,39.2
127.9,48.181807,11.613782,39.1
128,48.181807,11.613782,39
128.1,48.181808,11.613782,38.9
128.2,48.181808,11.613782,38.8
128.3,48.181808,11.613782,38.7
128.4,48.181808,11.613782,38.6
128.5,48.181808,11.613782,38.5
128.6,48.181808,11.613782,38.4
128.7,48.181807,11.613782,38.3
128.8,48.181807,11.613782,38.2
128.9,48.181807,11.613783,38.1
129,48.181807,11.613783,38
129.1,48.181807,11.613783,37.9
129.2,48.181807,11.613783,37.8
129.3,48.181807,11.613783,37.6
129.4,48.181807,11.613783,37.6
129.5,48.181808,11.613783,37.4
129.6,48.181808,11.613783,37.3
129.7,48.181807,11.613783,37.2
129.8,48.181807,11.613783,37.1
129.9,48.181807,11.613783,37
130,48.181807,11.613783,36.9
130.1,48.181807,11.613783,36.8
130.2,48.181807,11.613783,36.7
130.3,48.181807,11.613783,36.6
130.4,48.181807,11.613783,36.5
130.5,48.181807,11.613783,36.4
130.6,48.181807,11.613783,36.3
130.7,48.181807,11.613783,36.2
130.8,48.181807,11.613782,36.1
130.9,48.181807,11.613783,36
131,48.181806,11.613783,35.9
131.1,48.181807,11.613783,35.8
131.2,48.181807,11.613783,35.7
131.3,48.181807,11.613783,35.6
131.4,48.181807,11.613783,35.5
131.5,48.181807,11.613783,35.4
131.6,48.181807,11.613783,35.3
131.7,48.181807,11.613783,35.2
131.8,48.181807,11.613783,35.1
131.9,48.181807,11.613783,35
132,48.181807,11.613783,34.9
132.1,48.181807,11.613783,34.8
132.2,48.181807,11.613783,34.7
132.3,48.181807,11.613783,34.6
132.4,48.181807,11.613783,34.5
132.5,48.181807,11.613783,34.4
132.6,48.181807,11.613783,34.3
132.7,48.181807,11.613783,34.2
132.8,48.181807,11.613783,34.1
132.9,48.181807,11.613783,34
133,48.181807,11.613783,33.9
133.1,48.181807,11.613783,33.8
133.2,48.181807,11.613783,33.7
133.3,48.181807,11.613783,33.6
133.4,48.181807,11.613783,33.5
133.5,48.181807,11.613783,33.4
133.6,48.181807,11.613783,33.3
133.7,48.181807,11.613783,33.2
133.8,48.181807,11.613784,33.1
133.9,48.181808,11.613784,33
134,48.181808,11.613784,32.9
134.1,48.181808,11.613785,32.8
134.2,48.181809,11.613785,32.8
134.3,48.181809,11.613785,32.6
134.4,48.181809,11.613786,32.5
134.5,48.18181,11.613786,32.5
134.6,48.18181,11.613786,32.4
134.7,48.181811,11.613787,32.3
134.8,48.181811,11.613788,32.2
134.9,48.181812,11.613788,32.1
135,48.181812,11.613789,32
135.1,48.181813,11.613789,31.9
135.2,48.181814,11.61379,31.8
135.3,48.181815,11.613791,31.7
135.4,48.181816,11.613792,31.6
135.5,48.181816,11.613792,31.5
135.6,48.181816,11.613792,31.4
135.7,48.181817,11.613793,31.3
135.8,48.181817,11.613793,31.2
135.9,48.181817,11.613793,31.1
136,48.181817,11.613793,31
136.1,48.181817,11.613793,30.9
136.2,48.181817,11.613793,30.8
136.3,48.181818,11.613793,30.7
136.4,48.181818,11.613793,30.6
136.5,48.181818,11.613793,30.5
136.6,48.181818,11.613793,30.3
136.7,48.181818,11.613793,30.2
136.8,48.181818,11.613793,30.1
136.9,48.181817,11.613793,30
137,48.181817,11.613793,29.9
137.1,48.181818,11.613793,29.8
137.2,48.181818,11.613793,29.7
137.3,48.181818,11.613793,29.6
137.4,48.181818,11.613793,29.5
137.5,48.181818,11.613793,29.4
137.6,48.181818,11.613793,29.2
137.7,48.181818,11.613793,29.1
137.8,48.181818,11.613793,29
137.9,48.181818,11.613793,28.9
138,48.181818,11.613793,28.8
138.1,48.181818,11.613793,28.7
138.2,48.181818,11.613793,28.6
138.3,48.181818,11.613793,28.5
138.4,48.181818,11.613793,28.4
138.5,48.181818,11.613793,28.3
138.6,48.181818,11.613793,28.2
138.7,48.181818,11.613793,28.1
138.8,48.181818,11.613793,28
138.9,48.181818,11.613793,27.9
139,48.181818,11.613793,27.8
139.1,48.181818,11.613793,27.7
139.2,48.181818,11.613793,27.6
139.3,48.181818,11.613793,27.5
139.4,48.181818,11.613793,27.4
139.5,48.181818,11.613793,27.3
139.6,48.181818,11.613793,27.2
139.7,48.181818,11.613794,27.1
139.8,48.181818,11.613794,27
139.9,48.181819,11.613795,26.9
140,48.18182,11.613795,26.8
140.1,48.18182,11.613796,26.7
140.2,48.181821,11.613796,26.7
140.3,48.181821,11.613797,26.5
140.4,48.181822,11.613797,26.5
140.5,48.181823,11.613798,26.4
140.6,48.181824,11.613798,26.3
140.7,48.181825,11.613799,26.2
140.8,48.181825,11.6138,26.1
140.9,48.181827,11.613801,26
141,48.181828,11.613801,25.9
141.1,48.181829,11.613802,25.8
141.2,48.18183,11.613803,25.7
141.3,48.18183,11.613803,25.6
141.4,48.181831,11.613804,25.5
141.5,48.181831,11.613804,25.4
141.6,48.181831,11.613804,25.3
141.7,48.181831,11.613804,25.2
141.8,48.181831,11.613804,25.1
141.9,48.181831,11.613804,25
142,48.181831,11.613804,24.9
142.1,48.181831,11.613804,24.8
142.2,48.181831,11.613804,24.6
142.3,48.181831,11.613805,24.5
142.4,48.181831,11.613805,24.4
142.5,48.181832,11.613805,24.3
142.6,48.181832,11.613805,24.1
142.7,48.181831,11.613805,24
142.8,48.181831,11.613805,23.9
142.9,48.181831,11.613805,23.8
143,48.181831,11.613805,23.6
143.1,48.181831,11.613805,23.5
143.2,48.181831,11.613805,23.4
143.3,48.181832,11.613805,23.3
143.4,48.181832,11.613805,23.2
143.5,48.181832,11.613805,23.1
143.6,48.181831,11.613805,23
143.7,48.181832,11.613805,22.9
143.8,48.181832,11.613805,22.7
143.9,48.181831,11.613805,22.6
144,48.181831,11.613805,22.5
144.1,48.181831,11.613805,22.5
144.2,48.181831,11.613805,22.4
144.3,48.181832,11.613805,22.3
144.4,48.181832,11.613805,22.1
144.5,48.181831,11.613805,22
144.6,48.181831,11.613805,21.9
144.7,48.181831,11.613804,21.8
144.8,48.181831,11.613804,21.7
144.9,48.181831,11.613804,21.6
145,48.181831,11.613804,21.5
145.1,48.181831,11.613805,21.4
145.2,48.181831,11.613805,21.3
145.3,48.181831,11.613805,21.2
145.4,48.181831,11.613805,21.1
145.5,48.181831,11.613804,21
145.6,48.181831,11.613804,20.9
145.7,48.181831,11.613804,20.8
145.8,48.181831,11.613804,20.7
145.9,48.181831,11.613804,20.6
146,48.181831,11.613804,20.5
146.1,48.181831,11.613805,20.4
146.2,48.181831,11.613805,20.3
146.3,48.181831,11.613804,20.2
146.4,48.181831,11.613804,20.1
146.5,48.181831,11.613804,20
146.6,48.181831,11.613804,19.9
146.7,48.181831,11.613805,19.9
146.8,48.181831,11.613805,19.7
146.9,48.181831,11.613804,19.6
147,48.181831,11.613804,19.6
147.1,48.181831,11.613805,19.5
147.2,48.181831,11.613805,19.4
147.3,48.181831,11.613805,19.3
147.4,48.181831,11.613805,19.2
147.5,48.181831,11.613804,19.1
147.6,48.181831,11.613804,19
147.7,48.181831,11.613804,18.9
147.8,48.181831,11.613804,18.8
147.9,48.181831,11.613805,18.7
148,48.181831,11.613805,18.6
148.1,48.181831,11.613804,18.5
148.2,48.181831,11.613804,18.5
148.3,48.181831,11.613804,18.4
148.4,48.181831,11.613804,18.3
148.5,48.18183,11.613804,18.2
148.6,48.18183,11.613804,18.1
148.7,48.181831,11.613804,18
148.8,48.181831,11.613804,17.9
148.9,48.18183,11.613804,17.8
149,48.18183,11.613804,17.7
149.1,48.181831,11.613804,17.6
149.2,48.181831,11.613804,17.5
149.3,48.181831,11.613805,17.4
149.4,48.181831,11.613805,17.3
149.5,48.18183,11.613805,17.3
149.6,48.18183,11.613805,17.1
149.7,48.18183,11.613805,17
149.8,48.18183,11.613805,16.9
149.9,48.18183,11.613804,16.8
150,48.18183,11.613804,16.8
150.1,48.18183,11.613804,16.7
150.2,48.18183,11.613804,16.6
150.3,48.18183,11.613804,16.4
150.4,48.18183,11.613804,16.3
150.5,48.18183,11.613804,16.2
150.6,48.18183,11.613804,16.2
150.7,48.18183,11.613804,16.1
150.8,48.18183,11.613804,16
150.9,48.18183,11.613804,15.9
151,48.18183,11.613804,15.8
151.1,48.18183,11.613804,15.7
151.2,48.18183,11.613804,15.6
151.3,48.18183,11.613804,15.5
151.4,48.18183,11.613804,15.4
151.5,48.18183,11.613804,15.3
151.6,48.18183,11.613804,15.2
151.7,48.181831,11.613804,15.2
151.8,48.181831,11.613804,15.1
151.9,48.18183,11.613804,15
152,48.18183,11.613804,14.9
152.1,48.18183,11.613804,14.8
152.2,48.181831,11.613804,14.7
152.3,48.181831,11.613804,14.6
152.4,48.181831,11.613804,14.5
152.5,48.181831,11.613804,14.4
152.6,48.181831,11.613804,14.3
152.7,48.181831,11.613805,14.3
152.8,48.181831,11.613805,14.2
152.9,48.181831,11.613805,14.1
153,48.181831,11.613805,14
153.1,48.181831,11.613805,13.9
153.2,48.181831,11.613805,13.8
153.3,48.181831,11.613805,13.7
153.4,48.181831,11.613805,13.6
153.5,48.181831,11.613805,13.5
153.6,48.181831,11.613804,13.4
153.7,48.181831,11.613805,13.3
153.8,48.181831,11.613805,13.2
153.9,48.181831,11.613805,13.1
154,48.181831,11.613805,13
154.1,48.181831,11.613805,12.9
154.2,48.181831,11.613805,12.8
154.3,48.181831,11.613805,12.7
154.4,48.181832,11.613805,12.6
154.5,48.181831,11.613805,12.5
154.6,48.181831,11.613805,12.4
154.7,48.181831,11.613805,12.3
154.8,48.181831,11.613805,12.3
154.9,48.181832,11.613805,12.2
155,48.181832,11.613805,12.1
155.1,48.181832,11.613805,12
155.2,48.181832,11.613805,11.9
155.3,48.181832,11.613805,11.8
155.4,48.181832,11.613805,11.7
155.5,48.181832,11.613805,11.6
155.6,48.181832,11.613805,11.5
155.7,48.181832,11.613805,11.4
155.8,48.181832,11.613805,11.3
155.9,48.181832,11.613805,11.2
156,48.181832,11.613805,11.1
156.1,48.181832,11.613805,11
156.2,48.181832,11.613805,10.9
156.3,48.181832,11.613805,10.8
156.4,48.181832,11.613805,10.7
156.5,48.181832,11.613805,10.6
156.6,48.181832,11.613805,10.5
156.7,48.181832,11.613805,10.4
156.8,48.181832,11.613805,10.3
156.9,48.181833,11.613806,10.2
157,48.181833,11.613806,10.1
157.1,48.181833,11.613806,10
157.2,48.181833,11.613806,9.9
157.3,48.181833,11.613806,9.8
157.4,48.181833,11.613806,9.7
157.5,48.181833,11.613806,9.6
157.6,48.181833,11.613806,9.5
157.7,48.181833,11.613806,9.5
157.8,48.181833,11.613806,9.4
157.9,48.181833,11.613806,9.3
158,48.181833,11.613806,9.2
158.1,48.181833,11.613806,9.1
158.2,48.181833,11.613806,9
158.3,48.181833,11.613806,8.9
158.4,48.181833,11.613806,8.8
158.5,48.181832,11.613805,8.7
158.6,48.181832,11.613805,8.6
158.7,48.181833,11.613806,8.5
158.8,48.181833,11.613806,8.4
158.9,48.181833,11.613806,8.3
159,48.181833,11.613806,8.2
159.1,48.181833,11.613806,8.1
159.2,48.181833,11.613806,8
159.3,48.181833,11.613806,7.9
159.4,48.181833,11.613806,7.8
159.5,48.181833,11.613806,7.7
159.6,48.181833,11.613806,7.6
159.7,48.181833,11.613805,7.5
159.8,48.181833,11.613805,7.3
159.9,48.181833,11.613806,7.2
160,48.181833,11.613806,7.1
160.1,48.181833,11.613805,7
160.2,48.181833,11.613805,7
160.3,48.181833,11.613805,7
160.4,48.181833,11.613805,6.9
160.5,48.181833,11.613805,6.9
160.6,48.181833,11.613805,6.9
160.7,48.181833,11.613805,6.9
160.8,48.181833,11.613805,7
160.9,48.181833,11.613805,7
161,48.181833,11.613805,7
161.1,48.181833,11.613805,7
161.2,48.181833,11.613805,7
161.3,48.181833,11.613805,7.1
161.4,48.181833,11.613805,7.1
161.5,48.181833,11.613804,7.1
161.6,48.181833,11.613804,7.1
161.7,48.181833,11.613804,7.1
161.8,48.181833,11.613804,7.1
161.9,48.181833,11.613804,7.2
162,48.181833,11.613804,7.2
162.1,48.181833,11.613804,7.4
162.2,48.181833,11.613804,7.5
162.3,48.181833,11.613803,7.7
162.4,48.181833,11.613803,7.8
162.5,48.181833,11.613803,8
162.6,48.181833,11.613803,8.2
162.7,48.181833,11.613803,8.4
162.8,48.181833,11.613803,8.6
162.9,48.181833,11.613804,8.8
163,48.181833,11.613803,9
163.1,48.181833,11.613804,9.3
163.2,48.181833,11.613804,9.5
163.3,48.181833,11.613804,9.7
163.4,48.181833,11.613804,9.8
163.5,48.181833,11.613804,10
163.6,48.181833,11.613804,10
163.7,48.181832,11.613804,10.1
163.8,48.181832,11.613805,10.1
163.9,48.181832,11.613805,10.1
164,48.181832,11.613805,10.1
164.1,48.181832,11.613805,10.1
164.2,48.181832,11.613805,10.1
164.3,48.181833,11.613806,10.2
164.4,48.181833,11.613806,10.2
164.5,48.181833,11.613806,10.3
164.6,48.181833,11.613806,10.4
164.7,48.181833,11.613806,10.4
164.8,48.181833,11.613806,10.4
164.9,48.181833,11.613806,10.4
165,48.181833,11.613806,10.4
165.1,48.181833,11.613805,10.3
165.2,48.181833,11.613805,10.3
165.3,48.181834,11.613805,10.3
165.4,48.181834,11.613805,10.3
165.5,48.181834,11.613805,10.3
165.6,48.181834,11.613805,10.3
165.7,48.181834,11.613805,10.3
165.8,48.181835,11.613805,10.3
165.9,48.181835,11.613804,10.3
166,48.181835,11.613804,10.3
166.1,48.181835,11.613804,10.3
166.2,48.181836,11.613804,10.3
166.3,48.181836,11.613804,10.3
166.4,48.181837,11.613804,10.3
166.5,48.181837,11.613804,10.3
166.6,48.181838,11.613805,10.3
166.7,48.181838,11.613805,10.3
166.8,48.181838,11.613805,10.4
166.9,48.181838,11.613804,10.4
167,48.181838,11.613804,10.5
167.1,48.181838,11.613804,10.7
167.2,48.181838,11.613804,10.9
167.3,48.181838,11.613804,11.1
167.4,48.181838,11.613804,11.3
167.5,48.181838,11.613804,11.5
167.6,48.181838,11.613804,11.7
167.7,48.181838,11.613804,11.9
167.8,48.181838,11.613804,12
167.9,48.181838,11.613804,12.1
168,48.181838,11.613805,12.2
168.1,48.181838,11.613805,12.2
168.2,48.181838,11.613806,12.2
168.3,48.181838,11.613806,12.1
168.4,48.181838,11.613806,12
168.5,48.181838,11.613806,11.8
168.6,48.181838,11.613806,11.7
168.7,48.181839,11.613806,11.6
168.8,48.181839,11.613806,11.5
168.9,48.181839,11.613807,11.4
169,48.181839,11.613807,11.3
169.1,48.181839,11.613806,11.2
169.2,48.181839,11.613806,11.1
169.3,48.181839,11.613806,11
169.4,48.181839,11.613806,10.9
169.5,48.181839,11.613806,10.9
169.6,48.18184,11.613806,10.8
169.7,48.181839,11.613807,10.7
169.8,48.18184,11.613806,10.6
169.9,48.18184,11.613806,10.5
170,48.18184,11.613806,10.4
170.1,48.18184,11.613806,10.3
170.2,48.18184,11.613806,10.3
170.3,48.18184,11.613806,10.2
170.4,48.18184,11.613806,10.2
170.5,48.181839,11.613806,10.2
170.6,48.181839,11.613806,10.1
170.7,48.181839,11.613805,10.2
170.8,48.181839,11.613805,10.2
170.9,48.181839,11.613805,10.2
171,48.181839,11.613805,10.2
171.1,48.181839,11.613805,10.2
171.2,48.181839,11.613805,10.2
171.3,48.181839,11.613805,10.2
171.4,48.181839,11.613805,10.2
171.5,48.181839,11.613805,10.2
171.6,48.181839,11.613805,10.2
171.7,48.181839,11.613806,10.2
171.8,48.181838,11.613807,10.2
171.9,48.181838,11.613808,10.2
172,48.181838,11.613808,10.2
172.1,48.181838,11.613809,10.2
172.2,48.181838,11.61381,10.2
172.3,48.181838,11.613812,10.2
172.4,48.181837,11.613813,10.2
172.5,48.181837,11.613814,10.2
172.6,48.181837,11.613816,10.2
172.7,48.181836,11.613817,10.2
172.8,48.181836,11.613819,10.2
172.9,48.181836,11.61382,10.2
173,48.181836,11.613822,10.2
173.1,48.181835,11.613823,10.2
173.2,48.181835,11.613825,10.2
173.3,48.181834,11.613827,10.2
173.4,48.181834,11.613829,10.2
173.5,48.181834,11.613831,10.2
173.6,48.181833,11.613833,10.2
173.7,48.181833,11.613835,10.2
173.8,48.181832,11.613837,10.2
173.9,48.181832,11.613839,10.2
174,48.181832,11.613841,10.2
174.1,48.181831,11.613844,10.2
174.2,48.18183,11.613846,10.2
174.3,48.181829,11.613849,10.2
174.4,48.181829,11.613851,10.2
174.5,48.181828,11.613854,10.3
174.6,48.181828,11.613856,10.3
174.7,48.181827,11.613858,10.3
174.8,48.181826,11.613861,10.3
174.9,48.181825,11.613863,10.3
175,48.181825,11.613866,10.3
175.1,48.181824,11.613869,10.3
175.2,48.181823,11.613871,10.3
175.3,48.181823,11.613874,10.2
175.5,48.181821,11.613879,10.3
175.6,48.18182,11.613882,10.2
175.9,48.181818,11.613891,10.3
176,48.181817,11.613893,10.3
176.1,48.181817,11.613896,10.3
176.2,48.181816,11.613899,10.3
176.3,48.181815,11.613902,10.3
176.4,48.181814,11.613905,10.3
176.5,48.181814,11.613908,10.4
176.6,48.181813,11.613911,10.4
176.7,48.181812,11.613914,10.4
176.8,48.181812,11.613917,10.4
176.9,48.181811,11.61392,10.4
177,48.18181,11.613923,10.4
177.1,48.18181,11.613925,10.4
177.2,48.181809,11.613928,10.3
177.3,48.181809,11.613929,10.3
177.4,48.181809,11.61393,10.3
177.5,48.181808,11.613931,10.3
177.6,48.181808,11.613932,10.3
177.7,48.181808,11.613932,10.3
177.8,48.181807,11.613932,10.3
177.9,48.181807,11.613932,10.4
178,48.181807,11.613932,10.3
178.1,48.181807,11.613932,10.3
178.2,48.181807,11.613932,10.3
178.3,48.181807,11.613932,10.3
178.4,48.181807,11.613931,10.3
178.5,48.181807,11.613932,10.3
178.6,48.181807,11.613932,10.3
178.7,48.181807,11.613932,10.3
178.8,48.181807,11.613932,10.3
178.9,48.181807,11.613932,10.3
179,48.181807,11.613932,10.3
179.1,48.181807,11.613932,10.3
179.2,48.181807,11.613932,10.3
179.3,48.181807,11.613932,10.3
179.4,48.181807,11.613932,10.3
179.5,48.181807,11.613932,10.3
179.6,48.181808,11.613932,10.3
179.7,48.181807,11.613932,10.3
179.8,48.181808,11.613932,10.3
179.9,48.181808,11.613932,10.3
180,48.181808,11.613933,10.2
180.1,48.181808,11.613933,10.2
180.2,48.181809,11.613933,10.2
180.3,48.181809,11.613934,10.2
180.4,48.18181,11.613934,10.2
180.5,48.181811,11.613935,10.2
180.6,48.181811,11.613935,10.2
180.7,48.181812,11.613936,10.2
180.8,48.181813,11.613937,10.2
180.9,48.181814,11.613938,10.2
181,48.181814,11.613939,10.2
181.1,48.181816,11.613939,10.2
181.2,48.181817,11.61394,10.2
181.3,48.181818,11.613941,10.2
181.4,48.181819,11.613942,10.2
181.5,48.18182,11.613943,10.2
181.6,48.181821,11.613944,10.2
181.7,48.181822,11.613945,10.2
181.8,48.181823,11.613947,10.2
181.9,48.181824,11.613948,10.3
182,48.181826,11.61395,10.3
182.1,48.181827,11.613951,10.3
182.2,48.181828,11.613952,10.3
182.3,48.18183,11.613954,10.3
182.4,48.181831,11.613955,10.3
182.5,48.181832,11.613956,10.3
182.6,48.181834,11.613958,10.3
182.7,48.181835,11.613959,10.3
182.8,48.181837,11.613961,10.3
182.9,48.181839,11.613962,10.3
183,48.18184,11.613964,10.3
183.1,48.181842,11.613965,10.3
183.2,48.181843,11.613967,10.3
183.3,48.181845,11.613968,10.3
183.4,48.181847,11.61397,10.3
183.5,48.181848,11.613972,10.3
183.6,48.18185,11.613974,10.3
183.7,48.181852,11.613975,10.3
183.8,48.181853,11.613977,10.3
183.9,48.181855,11.613979,10.3
184,48.181857,11.61398,10.3
184.1,48.181858,11.613982,10.3
184.2,48.18186,11.613984,10.3
184.3,48.181861,11.613986,10.3
184.4,48.181863,11.613988,10.3
184.5,48.181865,11.61399,10.3
184.6,48.181867,11.613992,10.3
184.7,48.181868,11.613993,10.3
184.8,48.18187,11.613995,10.3
184.9,48.181872,11.613997,10.3
185,48.181874,11.613999,10.3
185.1,48.181875,11.614001,10.3
185.2,48.181877,11.614003,10.3
185.3,48.181879,11.614005,10.3
185.4,48.181881,11.614007,10.3
185.5,48.181883,11.614009,10.3
185.6,48.181885,11.614011,10.3
185.7,48.181887,11.614013,10.3
185.8,48.181888,11.614015,10.3
185.9,48.18189,11.614017,10.3
186,48.181892,11.614019,10.3
186.1,48.181894,11.614021,10.3
186.2,48.181896,11.614023,10.3
186.3,48.181898,11.614025,10.3
186.4,48.1819,11.614027,10.3
186.5,48.181902,11.61403,10.3
186.6,48.181904,11.614032,10.3
186.7,48.181906,11.614034,10.3
186.8,48.181908,11.614036,10.3
186.9,48.18191,11.614038,10.3
187,48.181912,11.61404,10.3
187.1,48.181913,11.614042,10.3
187.2,48.181915,11.614044,10.3
187.3,48.181917,11.614047,10.3
187.4,48.181919,11.614049,10.3
187.5,48.181921,11.614051,10.3
187.6,48.181923,11.614053,10.3
187.7,48.181925,11.614055,10.3
187.8,48.181927,11.614057,10.3
187.9,48.181929,11.614059,10.3
188,48.181931,11.614061,10.3
188.1,48.181933,11.614064,10.3
188.2,48.181935,11.614066,10.3
188.3,48.181937,11.614068,10.2
188.4,48.181939,11.61407,10.3
188.5,48.181941,11.614073,10.3
188.6,48.181943,11.614075,10.3
188.7,48.181945,11.614077,10.3
188.8,48.181947,11.614079,10.3
188.9,48.181949,11.614081,10.3
189,48.181951,11.614084,10.3
189.1,48.181953,11.614086,10.3
189.2,48.181955,11.614088,10.3
189.3,48.181957,11.61409,10.3
189.4,48.181959,11.614092,10.3
189.6,48.181963,11.614097,10.3
189.7,48.181966,11.6141,10.3
189.8,48.181968,11.614101,10.3
189.9,48.181969,11.614103,10.3
190,48.181971,11.614105,10.3
190.1,48.181972,11.614106,10.3
190.2,48.181973,11.614107,10.3
190.3,48.181974,11.614109,10.2
190.4,48.181976,11.61411,10.2
190.5,48.181977,11.614112,10.2
190.6,48.181979,11.614113,10.2
190.7,48.18198,11.614115,10.1
190.8,48.181982,11.614117,10.1
190.9,48.181983,11.614119,10.1
191,48.181985,11.61412,10.1
191.1,48.181987,11.614122,10.1
191.2,48.181988,11.614124,10.1
191.3,48.18199,11.614125,10.2
191.4,48.181992,11.614127,10.1
191.5,48.181993,11.614129,10.2
191.6,48.181995,11.614131,10.2
191.7,48.181997,11.614133,10.2
191.8,48.181998,11.614134,10.1
191.9,48.182,11.614136,10.2
192,48.182001,11.614138,10.2
192.1,48.182003,11.61414,10.2
192.2,48.182005,11.614142,10.2
192.3,48.182006,11.614144,10.2
192.4,48.182008,11.614146,10.2
192.5,48.18201,11.614147,10.2
192.6,48.182011,11.614149,10.2
192.7,48.182013,11.614151,10.2
192.8,48.182015,11.614153,10.2
192.9,48.182016,11.614155,10.2
193,48.182018,11.614156,10.2
193.1,48.18202,11.614158,10.2
193.2,48.182022,11.61416,10.2
193.3,48.182024,11.614162,10.2
193.4,48.182025,11.614164,10.2
193.5,48.182027,11.614166,10.2
193.6,48.182029,11.614168,10.2
193.7,48.182031,11.61417,10.2
193.8,48.182033,11.614172,10.2
194.2,48.182041,11.614181,10.3
194.3,48.182043,11.614183,10.3
194.5,48.182046,11.614187,10.3
194.6,48.182048,11.61419,10.3
194.7,48.18205,11.614192,10.3
194.8,48.182052,11.614194,10.3
194.9,48.182054,11.614196,10.3
195,48.182056,11.614198,10.3
195.1,48.182058,11.614201,10.2
195.2,48.18206,11.614203,10.2
195.3,48.182062,11.614205,10.2
195.4,48.182064,11.614208,10.2
195.5,48.182066,11.61421,10.2
195.6,48.182068,11.614212,10.3
195.7,48.18207,11.614214,10.3
195.8,48.182072,11.614217,10.3
195.9,48.182074,11.614219,10.3
196,48.182076,11.614221,10.3
196.1,48.182077,11.614223,10.3
196.2,48.182079,11.614224,10.3
196.3,48.182079,11.614226,10.3
196.4,48.18208,11.614227,10.3
196.5,48.18208,11.614227,10.3
196.6,48.18208,11.614228,10.3
196.7,48.182081,11.614229,10.3
196.8,48.182081,11.61423,10.3
196.9,48.182081,11.61423,10.2
197,48.182081,11.61423,10.2
197.2,48.18208,11.61423,10.2
197.3,48.18208,11.61423,10.1
197.4,48.18208,11.61423,10.1
197.5,48.18208,11.61423,10.1
197.6,48.182079,11.61423,10.1
197.7,48.18208,11.61423,10.1
197.8,48.182079,11.61423,10.1
197.9,48.182079,11.614231,10.1
198,48.182079,11.614231,10.1
198.1,48.182079,11.614231,10.2
198.2,48.182079,11.614231,10.3
198.3,48.182079,11.614231,10.4
198.4,48.182079,11.614231,10.5
198.5,48.182079,11.61423,10.7
198.6,48.182079,11.61423,10.9
198.7,48.182079,11.61423,11.2
198.8,48.182079,11.61423,11.3
198.9,48.182079,11.61423,11.6
199,48.182079,11.61423,11.8
199.1,48.18208,11.61423,12
199.2,48.18208,11.61423,12.2
199.3,48.18208,11.614231,12.4
199.4,48.18208,11.614231,12.6
199.5,48.18208,11.614231,12.8
199.6,48.18208,11.614231,13
199.7,48.18208,11.614231,13.1
199.8,48.18208,11.614231,13.4
199.9,48.18208,11.614231,13.6
200,48.18208,11.614231,13.8
200.1,48.18208,11.614231,14
200.2,48.18208,11.614231,14.1
200.3,48.18208,11.614231,14.3
200.4,48.18208,11.614231,14.5
200.5,48.18208,11.614231,14.7
200.6,48.18208,11.614231,14.9
200.7,48.18208,11.614231,15
200.8,48.18208,11.614231,15.2
200.9,48.18208,11.614231,15.4
201,48.18208,11.614231,15.6
201.1,48.18208,11.614231,15.8
201.2,48.18208,11.614231,16
201.3,48.18208,11.614231,16.2
201.4,48.18208,11.614231,16.4
201.5,48.18208,11.614231,16.6
201.6,48.18208,11.614231,16.8
201.7,48.18208,11.614231,17
201.8,48.18208,11.614231,17.2
201.9,48.18208,11.614231,17.4
202,48.18208,11.614231,17.6
202.1,48.18208,11.614231,17.8
202.2,48.18208,11.614231,17.9
202.3,48.18208,11.614231,18.1
202.4,48.18208,11.614231,18.3
202.5,48.18208,11.614231,18.5
202.6,48.18208,11.614231,18.7
202.7,48.18208,11.614231,18.9
202.8,48.182079,11.614231,19.1
202.9,48.182079,11.614231,19.3
203,48.182079,11.614231,19.5
203.1,48.182079,11.614231,19.7
203.2,48.182079,11.614231,19.9
203.3,48.182079,11.614231,20.1
203.4,48.182079,11.614231,20.3
203.5,48.182079,11.614231,20.5
203.6,48.182079,11.614232,20.7
203.7,48.182079,11.614232,20.9
203.8,48.182079,11.614232,21.1
203.9,48.182079,11.614232,21.3
204,48.182079,11.614232,21.5
204.1,48.182079,11.614232,21.7
204.2,48.182079,11.614232,21.9
204.3,48.182079,11.614232,22.1
204.4,48.182079,11.614232,22.3
204.5,48.182079,11.614232,22.5
204.6,48.182079,11.614232,22.7
204.7,48.182079,11.614232,22.9
204.8,48.182078,11.614232,23.1
204.9,48.182078,11.614232,23.3
205,48.182078,11.614232,23.5
205.1,48.182078,11.614232,23.7
205.2,48.182078,11.614232,23.9
205.3,48.182078,11.614232,24.1
205.4,48.182078,11.614232,24.3
205.5,48.182078,11.614231,24.5
205.6,48.182078,11.614231,24.7
205.7,48.182078,11.614232,24.9
205.8,48.182078,11.614232,25.1
205.9,48.182078,11.614232,25.3
206,48.182078,11.614232,25.4
206.1,48.182078,11.614231,25.6
206.2,48.182078,11.614231,25.7
206.3,48.182078,11.614232,25.7
206.4,48.182078,11.614232,25.8
206.5,48.182078,11.614232,25.8
206.6,48.182078,11.614232,25.8
206.7,48.182078,11.614232,25.8
206.8,48.182078,11.614232,25.8
206.9,48.182078,11.614232,25.8
207,48.182078,11.614232,25.7
207.1,48.182078,11.614232,25.8
207.2,48.182077,11.614232,25.7
207.3,48.182077,11.614232,25.8
207.4,48.182077,11.614232,25.8
207.5,48.182077,11.614232,25.8
207.6,48.182077,11.614232,25.8
207.7,48.182077,11.614232,25.8
207.8,48.182077,11.614231,25.8
207.9,48.182076,11.614231,25.8
208,48.182076,11.614231,25.8
208.1,48.182075,11.61423,25.8
208.2,48.182075,11.61423,25.9
208.3,48.182074,11.614229,25.9
208.4,48.182073,11.614228,25.9
208.5,48.182072,11.614228,25.9
208.6,48.182071,11.614227,25.9
208.7,48.18207,11.614226,25.9
208.8,48.182069,11.614225,25.9
208.9,48.182068,11.614224,25.9
209,48.182067,11.614223,25.8
209.1,48.182066,11.614222,25.8
209.2,48.182065,11.614221,25.8
209.3,48.182064,11.61422,25.8
209.4,48.182063,11.614219,25.8
209.5,48.182062,11.614218,25.8
209.7,48.182059,11.614215,25.8
209.6,48.18206,11.614217,25.8
209.8,48.182058,11.614214,25.8
209.9,48.182056,11.614213,25.8
210,48.182055,11.614211,25.8
210.1,48.182053,11.61421,25.8
210.2,48.182052,11.614208,25.8
210.3,48.18205,11.614207,25.9
210.4,48.182049,11.614206,25.9
210.5,48.182048,11.614205,25.9
210.6,48.182047,11.614204,25.9
210.7,48.182047,11.614203,25.9
211,48.182043,11.614199,25.9
211.1,48.182042,11.614198,25.9
211.2,48.182041,11.614196,25.9
211.3,48.18204,11.614195,25.8
211.4,48.182039,11.614193,25.8
211.5,48.182037,11.614192,25.8
211.6,48.182036,11.614191,25.8
211.7,48.182034,11.614189,25.8
211.8,48.182033,11.614187,25.8
211.9,48.182032,11.614186,25.8
212,48.18203,11.614184,25.8
212.1,48.182029,11.614182,25.8
212.2,48.182027,11.614181,25.8
212.3,48.182026,11.614179,25.8
212.4,48.182024,11.614177,25.8
212.5,48.182023,11.614176,25.8
212.6,48.182022,11.614174,25.8
212.7,48.18202,11.614172,25.8
212.8,48.182018,11.614171,25.8
212.9,48.182017,11.614169,25.8
213,48.182015,11.614167,25.8
213.1,48.182013,11.614165,25.8
213.2,48.182011,11.614163,25.8
213.3,48.18201,11.614162,25.8
213.4,48.182008,11.61416,25.8
213.6,48.182005,11.614156,25.8
213.7,48.182003,11.614154,25.8
213.8,48.182001,11.614153,25.7
213.9,48.182,11.61415,25.7
214,48.181998,11.614148,25.7
214.1,48.181996,11.614147,25.7
214.2,48.181994,11.614145,25.7
214.3,48.181993,11.614143,25.7
214.4,48.181991,11.614141,25.7
214.5,48.181989,11.614139,25.7
214.6,48.181987,11.614137,25.7
214.7,48.181985,11.614135,25.7
214.8,48.181983,11.614133,25.7
214.9,48.181981,11.614131,25.7
215,48.181979,11.614129,25.7
215.1,48.181977,11.614126,25.7
215.2,48.181975,11.614124,25.7
215.3,48.181974,11.614122,25.7
215.4,48.181972,11.61412,25.7
215.5,48.18197,11.614118,25.7
215.6,48.181968,11.614116,25.7
215.7,48.181966,11.614114,25.7
215.8,48.181964,11.614112,25.7
215.9,48.181962,11.61411,25.7
216,48.18196,11.614108,25.7
216.1,48.181958,11.614106,25.7
216.2,48.181956,11.614104,25.7
216.3,48.181954,11.614102,25.7
216.4,48.181952,11.6141,25.7
216.5,48.18195,11.614097,25.7
216.6,48.181948,11.614095,25.7
216.7,48.181946,11.614093,25.7
216.8,48.181944,11.614091,25.7
216.9,48.181942,11.614089,25.7
217,48.18194,11.614087,25.7
217.1,48.181938,11.614085,25.7
217.2,48.181936,11.614082,25.7
217.3,48.181934,11.61408,25.7
217.4,48.181932,11.614078,25.7
217.5,48.18193,11.614076,25.7
217.6,48.181928,11.614073,25.7
217.7,48.181926,11.614071,25.7
217.8,48.181924,11.614069,25.7
217.9,48.181922,11.614067,25.7
218,48.18192,11.614065,25.7
218.1,48.181917,11.614062,25.7
218.2,48.181915,11.61406,25.7
218.3,48.181913,11.614058,25.7
218.4,48.181911,11.614056,25.7
218.5,48.18191,11.614054,25.7
218.6,48.181907,11.614051,25.7
218.7,48.181906,11.61405,25.7
218.8,48.181903,11.614047,25.7
218.9,48.181902,11.614045,25.7
219,48.181899,11.614043,25.7
219.1,48.181897,11.614041,25.7
219.2,48.181895,11.614039,25.7
219.3,48.181893,11.614037,25.7
219.4,48.181891,11.614035,25.7
219.5,48.181889,11.614033,25.7
219.6,48.181887,11.614031,25.7
219.7,48.181885,11.614029,25.7
219.8,48.181883,11.614027,25.7
219.9,48.181881,11.614025,25.7
220,48.181879,11.614023,25.7
220.1,48.181877,11.614021,25.7
220.2,48.181875,11.614019,25.7
220.3,48.181873,11.614017,25.7
220.4,48.181871,11.614015,25.7
220.5,48.181869,11.614013,25.7
220.6,48.181867,11.614011,25.7
220.7,48.181865,11.614009,25.7
220.8,48.181863,11.614008,25.7
220.9,48.181861,11.614006,25.7
221,48.181859,11.614004,25.7
221.1,48.181856,11.614002,25.7
221.2,48.181854,11.614,25.7
221.3,48.181852,11.613998,25.7
221.4,48.18185,11.613996,25.7
221.5,48.181848,11.613995,25.7
221.6,48.181846,11.613993,25.7
221.7,48.181844,11.613991,25.7
221.8,48.181842,11.613989,25.7
221.9,48.18184,11.613987,25.7
222,48.181838,11.613985,25.7
222.1,48.181836,11.613984,25.8
222.2,48.181834,11.613982,25.7
222.3,48.181832,11.61398,25.7
222.4,48.18183,11.613978,25.8
222.5,48.181828,11.613976,25.8
